episode_id,event_id,longitude,latitude,state,location,Zipcode
129664,776729,-85.3,32.66,ALABAMA,CHEWACLA,0136804
105315,631370,-85.8879,32.2503,ALABAMA,FITZPATRICK,0136029
105315,631370,-85.9388,32.2579,ALABAMA,MITCHELL,0136029
105315,631371,-86.0133,32.1341,ALABAMA,DOWNING,0136069
105315,631371,-86.00200000000001,32.1324,ALABAMA,DOWNING,0136052
105315,631372,-85.5125,32.5352,ALABAMA,BEEHIVE,0136832
105315,631372,-85.5247,32.5347,ALABAMA,BEEHIVE,0136830
105315,631373,-85.3385,32.5311,ALABAMA,WHATLEY XRD,0136804
105315,631373,-85.4183,32.54,ALABAMA,MITCHELL XRD,0136804
105315,631374,-85.5662,32.1271,ALABAMA,THREE NOTCH,0136089
105315,631374,-85.4352,32.1174,ALABAMA,ENON,0136053
105315,631375,-85.1158,32.4184,ALABAMA,CRAWFORD,0136869
105315,631375,-85.2417,32.4187,ALABAMA,HUGLEY,0136869
1123866,5269823,-87.9,30.51667,ALABAMA,FAIRHOPE,0136532
1123867,5269732,-87.9,30.566670000000002,ALABAMA,MONTROSE,0136559
105315,631369,-86.2387,32.296,ALABAMA,PINEDALE,0136116
1123870,5269735,-87.68333,30.28333,ALABAMA,GULF SHRS,0136542
105315,631376,-85.6408,31.8815,ALABAMA,GARMON XRDS,0136048
105315,631377,-85.1992,32.0964,ALABAMA,GLENVILLE,0136871
105315,631377,-85.2216,32.0982,ALABAMA,GLENVILLE,0136871
1123897,5269828,-87.68333,30.41667,ALABAMA,FOLEY,0136535
1123898,5269829,-87.68333,30.41667,ALABAMA,FOLEY,0136535
1123899,5269830,-87.71667,30.55,ALABAMA,ROBERTSDALE,0136567
1123900,5269831,-87.9,30.683329999999998,ALABAMA,SPANISH FT,0136527
1123911,5269669,-86.25,31.28333,ALABAMA,OPP,0136467
105350,631668,-87.56,33.39,ALABAMA,SAMANTHA,0135475
105350,631670,-86.9,33.55,ALABAMA,CRUMLEY CHAPEL,0135214
105350,631672,-86.8,33.77,ALABAMA,KIMBERLY,0135091
105350,631676,-86.63,32.84,ALABAMA,CLANTON GRAGG ARPT,0135045
1144856,5322646,-87.88333,30.41667,ALABAMA,BARNWELL,0136532
1144849,5322639,-86.75,31.633329999999997,ALABAMA,GEORGIANA,0136033
105315,631376,-85.5568,31.8515,ALABAMA,PRATTS,0136016
105315,631369,-86.1384,32.2809,ALABAMA,PERRYS MILL,0136064
105315,631368,-85.01,32.47,ALABAMA,PHENIX CITY,0136867
105315,631367,-85.09,32.37,ALABAMA,NUCKOLS,0136875
1145110,5321439,-88.21667,33.48333,ALABAMA,STAFFORD,0135576
1145109,5321438,-87.11667,33.98333,ALABAMA,BREMEN,0135053
16114,92774,-85.9,34.53,ALABAMA,RAINSVILLE,0135971
1145109,5321438,-86.6,34.15,ALABAMA,BREMEN,0135083
1145109,5321437,-87.11667,33.98333,ALABAMA,ARLEY,0135053
1145109,5321437,-87.16667,33.96667,ALABAMA,ARLEY,0135504
1145109,5321436,-87.53333,33.83333,ALABAMA,TOWNLEY,0135549
1145109,5321436,-87.11667,33.96667,ALABAMA,TOWNLEY,0135053
1145109,5321435,-87.8,33.76667,ALABAMA,FAYETTE,0135555
1145109,5321435,-87.55,33.81667,ALABAMA,FAYETTE,0135549
1145108,5321434,-88.15,33.56667,ALABAMA,FERNBANK,0135576
1145108,5321434,-88.25,33.5,ALABAMA,FERNBANK,0135461
1145107,5321433,-87.35,34.0,ALABAMA,POPLAR SPGS,0135553
1145107,5321433,-87.18333,34.05,ALABAMA,POPLAR SPGS,0135541
1145107,5321432,-87.58333,33.83333,ALABAMA,CARBON HILL,0135549
1145107,5321432,-87.35,34.0,ALABAMA,CARBON HILL,0135553
1145107,5321431,-87.86667,33.75,ALABAMA,FAYETTE,0135555
105315,631365,-85.62,33.93,ALABAMA,PIEDMONT,0136272
105315,631364,-85.62,33.93,ALABAMA,PIEDMONT,0136272
41314,240507,-86.93,34.77,ALABAMA,FRENCH MILL,0135613
41314,240510,-86.93,34.77,ALABAMA,FRENCH MILL,0135613
1095558,5145657,-86.13333,31.2,ALABAMA,KINSTON,0136453
1095558,5145661,-85.31667,31.23333,ALABAMA,DOTHAN,0136321
1144848,5322567,-87.18333,31.33333,ALABAMA,LENOX,0136475
16136,103906,-86.9694,33.9945,ALABAMA,BREMEN,0135057
16136,103887,-86.8464,33.9516,ALABAMA,GARDEN CITY,0135077
16136,103878,-87.2645,34.9684,ALABAMA,POWELL,0135610
16136,103878,-87.2469,34.9671,ALABAMA,POWELL,0135610
16136,92866,-87.9492,34.884,ALABAMA,GRAVELLY SPGS,0135677
16136,92866,-87.92200000000001,34.8903,ALABAMA,GRAVELLY SPGS,0135677
1145107,5321431,-87.61667,33.86667,ALABAMA,FAYETTE,0135554
16136,103887,-87.0234,33.8909,ALABAMA,ARKADELPHIA,0135033
1144847,5322566,-87.86667,31.96667,ALABAMA,BASHI,0136784
1171501,5401822,-85.85,34.68333,ALABAMA,PISGAH,0135765
1171501,5401816,-86.55,35.0,ALABAMA,NEW SHARON,
62407,374280,-87.1114,34.1734,ALABAMA,NESMITH,0135540
62407,374284,-87.28,33.73,ALABAMA,BRADLEYTOWN,0135580
62407,374285,-87.12,34.13,ALABAMA,HELICON,0135098
62407,374286,-87.28,33.73,ALABAMA,BRADLEYTOWN,0135580
62407,374289,-87.10799999999999,33.5967,ALABAMA,POWHATAN,0135130
62407,374290,-87.1017,33.5513,ALABAMA,SHORT CREEK,0135118
62407,374291,-87.1929,33.5892,ALABAMA,MAXINE,0135130
62407,374292,-87.27,33.94,ALABAMA,MARIGOLD,0135503
62407,374295,-87.1883,33.5954,ALABAMA,MAXINE,0135130
62407,374297,-87.1526,33.4546,ALABAMA,OAK GROVE,0135006
62407,374298,-87.1526,33.4546,ALABAMA,OAK GROVE,0135006
62407,374300,-87.5948,34.0851,ALABAMA,NATURAL BRIDGE,0135575
62407,374301,-87.2584,33.5119,ALABAMA,TAYLORS FERRY,0135006
62407,374302,-87.6191,33.9264,ALABAMA,ELDRIDGE,0135554
62407,374303,-86.85,33.11,ALABAMA,MONTEVALLO,0135115
62407,374304,-87.2511,33.41,ALABAMA,SHOOK,0135006
62407,374305,-88.1866,34.2119,ALABAMA,BEXAR,0135593
62462,373705,-86.835,33.8917,ALABAMA,BLOUNT SPGS,0135180
62462,373704,-87.0895,33.6558,ALABAMA,FLAT CREEK,0135130
62462,373703,-86.9856,33.8585,ALABAMA,EMPIRE,0135063
62462,373702,-87.09,33.82,ALABAMA,SIPSEY,0135584
62462,373701,-87.63,34.2,ALABAMA,HALEYVILLE,0135565
62462,373700,-87.27,33.85,ALABAMA,JASPER WALKER CO ARP,0135504
62407,374279,-87.1114,34.1734,ALABAMA,NESMITH,0135540
62462,373699,-87.37,33.57,ALABAMA,STERLING,0135579
62462,373697,-87.4,34.15,ALABAMA,DOUBLE SPGS,0135553
62462,373696,-88.17,34.03,ALABAMA,DETROIT,0135552
62462,373695,-87.83,33.69,ALABAMA,FAYETTE,0135555
1144251,5319176,-86.45,31.23333,ALABAMA,LIBERTYVILLE,0136420
16353,94442,-88.1,31.75,ALABAMA,COFFEEVILLE,0136919
62407,374306,-88.1528,34.0412,ALABAMA,DETROIT,0135552
62462,373698,-87.66,33.55,ALABAMA,NEW LEXINGTON,0135546
1145110,5321439,-88.28333,33.48333,ALABAMA,STAFFORD,
62407,374277,-86.45,33.97,ALABAMA,ONEONTA,0135121
62407,374275,-86.33,34.03,ALABAMA,ALTOONA,0135952
1171501,5401816,-86.65,34.95,ALABAMA,NEW SHARON,0135750
1171501,5401810,-87.0,34.91667,ALABAMA,CAIRO,0135620
1171501,5401810,-87.13333,34.83333,ALABAMA,CAIRO,0135614
1171501,5401790,-87.26666999999999,34.96667,ALABAMA,ANDERSON,0135648
1144536,5323232,-86.58333,34.86667,ALABAMA,MERIDIANVILLE,0135759
1144533,5323190,-86.81667,33.51667,ALABAMA,BIRMINGHAM,0135203
1171501,5401790,-87.23333000000001,34.98333,ALABAMA,ANDERSON,0135610
1171501,5401788,-87.66667,34.58333,ALABAMA,LITTLEVILLE,0135654
1171501,5401786,-87.51666999999999,34.85,ALABAMA,KILLEN,0135645
1171501,5401786,-87.38333,34.81667,ALABAMA,KILLEN,0135652
1171501,5401783,-87.73333000000001,34.86667,ALABAMA,FLORENCE,0135633
1171501,5401781,-87.66667,34.8,ALABAMA,FLORENCE,0135630
1144530,5323187,-86.65,34.25,ALABAMA,BAILEYTON,0135058
1171501,5401781,-87.76666999999999,34.8,ALABAMA,FLORENCE,0135633
1171501,5401778,-87.86667,35.0,ALABAMA,MURPHY XRDS,0135633
1171501,5401778,-87.93333,34.98333,ALABAMA,MURPHY XRDS,0135677
1095338,5144289,-86.48333000000001,31.3,ALABAMA,ANDALUSIA,0136420
62407,374274,-87.2839,33.8808,ALABAMA,JASPER WALKER CO ARP,0135503
62407,374273,-87.3231,33.9515,ALABAMA,MARIGOLD,0135503
62407,374272,-87.10700000000001,33.8493,ALABAMA,SIPSEY,0135504
62407,374271,-87.1816,33.992,ALABAMA,MARIGOLD,0135504
62407,373386,-87.3272,34.1022,ALABAMA,DOUBLE SPGS ARPT,0135553
105898,647131,-87.73,34.5345,ALABAMA,RUSSELLVILLE,0135653
62407,374276,-87.12,33.82,ALABAMA,SIPSEY,0135504
1189051,5450693,-88.38333,32.25,ALABAMA,YANTLEY,0136912
1189047,5450689,-86.36667,31.5,ALABAMA,DOZIER,0136028
1189046,5450688,-86.41667,31.4,ALABAMA,GANTT,0136421
1189038,5450638,-86.25,31.28333,ALABAMA,OPP,0136467
1189037,5450637,-86.25,31.28333,ALABAMA,OPP,0136467
1095333,5144283,-88.23333000000001,31.08333,ALABAMA,CITRONELLE,0136522
1095337,5144287,-86.48333000000001,31.3,ALABAMA,ANDALUSIA,0136420
1189048,5450690,-86.33333,31.28333,ALABAMA,OPP,0136421
62462,373706,-86.8555,33.6736,ALABAMA,MT OLIVE,0135117
1145111,5321440,-87.53333,33.61667,ALABAMA,BERRY,0135546
1145112,5321518,-87.08333,33.73333,ALABAMA,DORA,0135062
1209989,5506190,-86.86667,34.1,ALABAMA,GOOD HOPE,0135057
1209989,5506189,-86.95,34.23333,ALABAMA,WEST PT,0135057
1209988,5506188,-87.53333,34.86667,ALABAMA,KILLEN,0135645
42421,247730,-87.83,34.59,ALABAMA,CROOKED OAK,0135653
1188862,5447122,-85.28333,31.6,ALABAMA,ABBEVILLE,0136310
1188862,5447123,-85.85,31.33333,ALABAMA,ENTERPRISE,0136330
1188862,5447124,-85.85,31.316670000000002,ALABAMA,ENTERPRISE,0136330
61726,369270,-85.66,31.39,ALABAMA,DEAN CHURCH RD,0136360
61726,369271,-85.66,31.39,ALABAMA,DEAN CHURCH RD,0136360
61726,369272,-85.34,31.35,ALABAMA,HEADLAND,0136345
61726,369273,-85.46,31.189,ALABAMA,TAYLOR,0136305
5651,33025,-88.23,30.5,ALABAMA,IRVINGTON,0136544
5648,33022,-88.05,30.62,ALABAMA,MOBILE BROOKLEY FLD,
42095,245645,-85.83,32.83,ALABAMA,MARTIN LAKE NORTH,0136861
1209989,5506191,-87.0,34.13333,ALABAMA,LOGAN,0135098
5643,34475,-87.63,31.02,ALABAMA,PERDIDO,0136562
5643,33014,-88.17,30.55,ALABAMA,THEODORE,0136582
5642,33013,-87.35,31.43,ALABAMA,EXCEL,0136439
5642,33012,-87.42,31.43,ALABAMA,FRISCO CITY,0136445
42095,245639,-87.56,33.2,ALABAMA,ROSEDALE,0135401
42095,245638,-87.33,33.84,ALABAMA,MC CULLUM,0135501
16024,92350,-86.5668,34.903,ALABAMA,STEGERS STORE,0135750
16024,92350,-86.61,34.88,ALABAMA,MT LEVENTOV,0135773
16024,92351,-86.4922,34.4204,ALABAMA,OLEANDER,0135175
16024,92351,-86.5118,34.4032,ALABAMA,OLEANDER,0135175
16024,92352,-86.8635,34.236,ALABAMA,VINEMONT,0135058
16024,92352,-86.8643,34.2383,ALABAMA,VINEMONT,0135058
16024,92353,-86.6218,34.37,ALABAMA,CENTER GROVE,0135019
16024,92353,-86.6433,34.3704,ALABAMA,CENTER GROVE,0135019
16024,92354,-86.2305,34.5189,ALABAMA,GRANT,0135747
5643,33015,-88.23,30.6655,ALABAMA,(MOB)MOBILE BATES FL,0136695
1209989,5506192,-86.61667,34.76667,ALABAMA,HUNTSVILLE,0135810
1209990,5506198,-86.61667,34.73333,ALABAMA,SALEM,0135816
1209990,5506199,-86.58333,34.93333,ALABAMA,ELKMONT,0135750
1147146,5340389,-87.81667,32.33333,ALABAMA,LINDEN,0136748
1146556,5338203,-85.46667,32.61667,ALABAMA,AUBURN,0136830
1146555,5338202,-86.91667,33.03333,ALABAMA,RANDOLPH,0135035
61689,369109,-87.09,34.61,ALABAMA,TRINITY,0135673
61689,369110,-87.05,34.6,ALABAMA,MOULTON HGTS,0135601
61690,369105,-86.7969,34.7419,ALABAMA,BURGREEN CORNER,0135756
61690,369106,-86.5555,34.711999999999996,ALABAMA,HUNTSVILLE MILLS ARP,0135801
61690,369108,-86.574,34.7432,ALABAMA,HUNTSVILLE MILLS ARP,0135801
61690,369126,-86.5626,34.7211,ALABAMA,HUNTSVILLE MILLS ARP,0135801
42514,247935,-85.88,34.46,ALABAMA,LANDS XRDS,0135986
1210001,5505249,-87.33333,34.48333,ALABAMA,MOULTON,0135650
1210001,5504987,-86.61667,34.73333,ALABAMA,HUNTSVILLE,0135816
1209997,5505942,-85.61667,34.56667,ALABAMA,MENTONE,0135989
1209993,5505872,-86.43333,34.9,ALABAMA,NEW MARKET,0135761
1209993,5505871,-86.58333,34.98333,ALABAMA,HAZEL GREEN,0135750
1209993,5504981,-86.26666999999999,34.58333,ALABAMA,GRANT,0135776
1209993,5504980,-86.56667,34.85,ALABAMA,MERIDIANVILLE,0135759
1209991,5504907,-86.46667,34.58333,ALABAMA,OWENS XRDS,0135763
1209993,5504915,-87.73333000000001,34.51667,ALABAMA,RUSSELLVILLE,0135653
1209993,5504916,-87.41667,34.56667,ALABAMA,HATTON,0135672
1209993,5504917,-86.98333000000001,34.93333,ALABAMA,ELKMONT,0135620
1209993,5504918,-86.98333000000001,34.95,ALABAMA,ELKMONT,0135620
1209993,5504919,-86.98333000000001,34.83333,ALABAMA,ATHENS,0135614
16024,92354,-86.2596,34.4995,ALABAMA,GRANT,0135747
1209993,5504920,-86.76666999999999,34.85,ALABAMA,HARVEST,0135749
61702,369356,-87.7,34.35,ALABAMA,PHIL CAMPBELL,0135581
1209993,5504978,-88.08333,34.88333,ALABAMA,RIVERTON,0135616
1209993,5504979,-86.61667,34.76667,ALABAMA,HUNTSVILLE,0135810
61702,369355,-87.7539,34.426,ALABAMA,ISBELL,0135585
61702,369353,-85.7489,34.4372,ALABAMA,FT PAYNE,0135967
86525,531009,-87.7537,34.9245,ALABAMA,CLOVERDALE,0135633
61702,369357,-86.1276,34.5699,ALABAMA,PLEASANT HILL,0135769
16024,92356,-86.8941,34.2872,ALABAMA,CULLMAN FOLSOM ARPT,0135622
16024,92356,-86.8952,34.2867,ALABAMA,CULLMAN FOLSOM ARPT,0135622
16024,92364,-87.9256,34.327,ALABAMA,HODGES,0135571
41834,243795,-86.61,33.84,ALABAMA,REMLAP,0135133
1145135,5321654,-85.35,33.15,ALABAMA,ROANOKE,0136274
1145134,5321653,-85.83333,33.65,ALABAMA,ANNISTON,0136201
1145133,5321652,-86.76666999999999,33.1,ALABAMA,CALERA,0135040
1145132,5321651,-86.11667,33.61667,ALABAMA,LINCOLN,0135096
1145130,5321591,-87.05,34.1,ALABAMA,CRANE HILL,0135053
62088,383990,-87.53,34.7,ALABAMA,LEIGHTON,0135646
62088,383991,-86.96,34.79,ALABAMA,ATHENS,0135611
1145129,5321590,-87.18333,34.2,ALABAMA,DOUBLE SPGS,0135540
1145129,5321590,-87.4,34.15,ALABAMA,DOUBLE SPGS,0135553
1145127,5321588,-85.96667,33.61667,ALABAMA,BYNUM,0136260
1145126,5321586,-88.13333,34.43333,ALABAMA,RED BAY,0135582
1145125,5321585,-87.28333,34.83333,ALABAMA,ROGERSVILLE,0135652
1145124,5321584,-87.4,34.15,ALABAMA,DOUBLE SPGS,0135553
1145123,5321583,-86.2,33.25,ALABAMA,SYCAMORE,0135149
1145120,5321580,-86.86667,34.25,ALABAMA,VINEMONT,0135179
1145118,5321578,-85.46667,34.15,ALABAMA,CENTRE,0135960
1145112,5321518,-87.15,33.7,ALABAMA,DORA,0135550
1145113,5321519,-86.51666999999999,33.9,ALABAMA,ALLGOOD,0135121
1145113,5321519,-86.36667,33.95,ALABAMA,ALLGOOD,0135121
1145113,5321520,-86.35,33.91667,ALABAMA,GALLANT,0135121
1145113,5321520,-86.33333,33.91667,ALABAMA,GALLANT,0135121
1145114,5321521,-86.2,33.95,ALABAMA,STEELE,0135987
86180,520343,-85.7406,31.9493,ALABAMA,PEROTE,0136005
1145114,5321521,-86.25,33.95,ALABAMA,STEELE,0135987
1145115,5321522,-87.18333,33.33333,ALABAMA,ABERNANT,0135444
1145115,5321523,-87.18333,33.33333,ALABAMA,MC CALLA,0135444
1145115,5321523,-86.96667,33.4,ALABAMA,MC CALLA,0135020
1145117,5321525,-88.25,33.4,ALABAMA,ETHELSVILLE,0135461
1145117,5321525,-88.28333,33.4,ALABAMA,ETHELSVILLE,0135461
1145118,5321578,-85.63333,34.11667,ALABAMA,CENTRE,0135960
1145115,5321522,-87.23333000000001,33.31667,ALABAMA,ABERNANT,0135444
1145111,5321440,-87.45,33.65,ALABAMA,BERRY,0135546
86180,520343,-85.73,31.9581,ALABAMA,PEROTE,0136005
86180,521023,-85.9298,32.9304,ALABAMA,BEVELLE,0135010
16024,92365,-87.0543,34.0948,ALABAMA,CRANE HILL,0135053
16024,92366,-87.8036,34.3705,ALABAMA,NIX,0135581
16024,92367,-86.89,34.27,ALABAMA,CULLMAN FOLSOM ARPT,0135179
16024,92368,-86.44,34.91,ALABAMA,NEW MARKET,0135761
16024,92369,-86.45,34.4,ALABAMA,UNION GROVE,0135175
16024,92370,-86.45,34.4,ALABAMA,UNION GROVE,0135175
16024,92371,-86.25,34.52,ALABAMA,GRANT,0135747
1146057,5325956,-85.35,31.35,ALABAMA,HEADLAND,0136345
1146057,5325956,-85.08333,31.4,ALABAMA,HEADLAND,0136319
42069,246315,-85.0594,32.4702,ALABAMA,LADONIA,0136870
42069,246293,-86.81,33.75,ALABAMA,MORRIS,0135116
1145833,5326967,-88.08333,30.7,ALABAMA,MOBILE,0136617
1145817,5326859,-87.8,31.53333,ALABAMA,WALKER SPGS,0136545
41945,244608,-86.73700000000001,33.4053,ALABAMA,QUITO,0135242
41935,244553,-85.6862,32.5684,ALABAMA,NOTASULGA,0136866
41935,244539,-85.49,33.31,ALABAMA,WEDOWEE,0136278
41935,244527,-85.4,32.91,ALABAMA,LAFAYETTE,0136862
86180,521026,-85.9495,33.251,ALABAMA,GAGE,0136251
86180,521026,-85.949,33.2496,ALABAMA,GAGE,0136251
1145355,5321638,-85.46667,31.51667,ALABAMA,ECHO,0136374
1145355,5321638,-85.43333,31.5,ALABAMA,ECHO,0136353
1145355,5321639,-85.21667,31.6,ALABAMA,ABBEVILLE,0136310
1145355,5321639,-85.3,31.566670000000002,ALABAMA,ABBEVILLE,0136310
86180,521023,-85.9304,32.903,ALABAMA,BEVELLE,0135010
1145798,5326733,-88.41667,31.33333,ALABAMA,FRUITDALE,0136539
1145800,5326735,-87.33333,31.51667,ALABAMA,MONROEVILLE,0136460
1145810,5326852,-88.41667,31.33333,ALABAMA,FRUITDALE,0136539
1145813,5326855,-87.98333000000001,31.5,ALABAMA,LEROY,0136548
1145815,5326857,-87.5,31.51667,ALABAMA,PERDUE HILL,0136470
1145816,5326858,-88.31667,31.633329999999997,ALABAMA,MILLRY,0136558
41935,244506,-86.77,33.59,ALABAMA,(BHM)BIRMINGHAM ARPT,0135217
1145799,5326734,-88.01666999999999,31.183329999999998,ALABAMA,MALCOLM,0136513
62462,373709,-86.4665,33.7681,ALABAMA,SPRINGVILLE,0135146
62462,373711,-88.1794,33.998000000000005,ALABAMA,DETROIT,0135586
62462,373715,-85.8918,33.8189,ALABAMA,WELLINGTON,0136279
1189711,5449062,-86.81667,33.51667,ALABAMA,BIRMINGHAM,0135203
1189714,5449066,-87.7,33.23333,ALABAMA,COKER,0135452
1189719,5449645,-88.4,32.45,ALABAMA,CUBA,0136907
1189720,5449646,-88.31667,32.48333,ALABAMA,YORK,0136925
62755,375266,-85.9188,34.1316,ALABAMA,TABOR,0135904
62755,375267,-85.8947,34.1702,ALABAMA,TABOR,0135961
62755,375268,-85.8093,34.1577,ALABAMA,SLACKLAND,0135983
62755,375269,-85.5036,33.3714,ALABAMA,RICE MILL,0136278
62756,375272,-86.0439,31.8379,ALABAMA,YOUNGBLOOD,0136079
62756,375272,-86.023,31.8547,ALABAMA,(TOI)TROY MUNI ARPT,0136079
62756,375280,-86.2068,32.5415,ALABAMA,WETUMPKA,0136092
62757,375283,-87.4391,33.8703,ALABAMA,POCAHONTAS,0135549
1189721,5449647,-88.38333,32.43333,ALABAMA,CUBA,0136907
62795,377080,-88.27,32.95,ALABAMA,PANOLA,0135477
1189708,5449059,-85.03333,32.48333,ALABAMA,SMITHS,0136870
62795,377083,-87.62,32.9,ALABAMA,HAVANA,0135474
62795,377089,-88.02,34.14,ALABAMA,HAMILTON ARPT,0135570
62795,377091,-87.98,34.23,ALABAMA,PLEASANT RIDGE,0135570
62795,377094,-87.18,33.87,ALABAMA,JASPER WALKER CO ARP,0135504
62795,377095,-87.39,34.03,ALABAMA,POPLAR SPGS,0135578
62795,377096,-87.19,33.76,ALABAMA,CORDOVA,0135550
62795,377097,-87.17,33.76,ALABAMA,CORDOVA,0135550
62795,377098,-87.01,33.81,ALABAMA,EMPIRE,0135063
62795,377101,-86.99,32.24,ALABAMA,BERLIN,0136775
62795,377103,-86.82,33.25,ALABAMA,SCOTROCK,0135007
62795,377104,-86.86,33.2,ALABAMA,MAYLENE,0135114
62795,377105,-86.7818,32.9591,ALABAMA,JEMISON,0135085
62795,377107,-86.75,33.1,ALABAMA,CALERA,0135040
62795,377108,-86.47,32.7,ALABAMA,MARBURY,0136051
62795,377583,-86.78200000000001,33.1796,ALABAMA,ALABASTER SHELBY ARP,0135040
62795,377086,-88.15,33.94,ALABAMA,CREWS,0135586
1189707,5449058,-86.41667,33.58333,ALABAMA,MOODY,0135128
1189706,5449057,-86.36667,32.48333,ALABAMA,MILLBROOK,0136054
1189704,5449055,-87.51666999999999,33.9,ALABAMA,CARBON HILL,0135549
1153547,5362142,-87.81667,33.95,ALABAMA,WINFIELD,0135594
1153548,5362143,-87.61667,33.76667,ALABAMA,FAYETTE,0135549
1153548,5362143,-87.83333,33.81667,ALABAMA,FAYETTE,0135594
1153549,5362144,-85.95,34.18333,ALABAMA,KEENER,0135954
1153549,5362144,-85.81667,34.05,ALABAMA,KEENER,0135903
1153550,5362145,-86.41667,34.2,ALABAMA,SUMMIT,0135980
1153550,5362145,-86.46667,34.25,ALABAMA,SUMMIT,0135976
1153551,5362146,-87.8,33.91667,ALABAMA,WINFIELD,0135594
1153552,5362147,-88.1,33.26667,ALABAMA,CARROLLTON,0135447
1153552,5362147,-87.96667,33.1,ALABAMA,CARROLLTON,0135466
1153553,5362350,-87.43333,33.71667,ALABAMA,CORONA,0135587
1153554,5362351,-85.85,34.15,ALABAMA,CENTRE,0135901
1153554,5362351,-85.51666999999999,33.93333,ALABAMA,CENTRE,0136272
1153555,5362352,-87.83333,32.78333,ALABAMA,AKRON,0135441
1153555,5362352,-87.45,32.9,ALABAMA,AKRON,0135474
1153556,5362353,-87.93333,33.05,ALABAMA,MANTUA,0135462
1153556,5362353,-87.78333,33.0,ALABAMA,MANTUA,0135469
1189701,5449052,-86.23333000000001,33.01667,ALABAMA,WEOGUFKA,0135136
1143614,5319748,-88.16667,30.55,ALABAMA,THEODORE,0136582
1143626,5319816,-87.68333,30.28333,ALABAMA,GULF SHRS,0136542
1143627,5319817,-87.68333,30.28333,ALABAMA,GULF SHRS,0136542
1143635,5319878,-88.25,30.78333,ALABAMA,SEMMES,0136575
1153562,5362389,-87.53333,32.4,ALABAMA,FAUNSDALE,0136786
62795,377598,-86.6881,32.9798,ALABAMA,MINERAL SPGS,0135085
1153561,5362388,-87.85,32.8,ALABAMA,EUTAW,0135462
1153560,5362387,-87.56667,32.5,ALABAMA,GALLION,0136738
1153560,5362387,-87.7,32.55,ALABAMA,GALLION,0136742
1153559,5362386,-87.76666999999999,33.15,ALABAMA,RALPH,0135446
1153558,5362385,-87.86667,32.1,ALABAMA,SWEET WATER,0136782
1153557,5362354,-85.55,33.96667,ALABAMA,PIEDMONT,0136272
1153557,5362354,-85.68333,33.98333,ALABAMA,PIEDMONT,0136272
1153561,5362388,-87.95,32.88333,ALABAMA,EUTAW,0135462
62796,375561,-86.26,33.18,ALABAMA,MIGNON,0135150
62796,375563,-85.98,33.42,ALABAMA,IRONATON,0135160
1153562,5362389,-87.63333,32.48333,ALABAMA,FAUNSDALE,0136742
1153586,5360975,-86.68333,33.25,ALABAMA,COUNTYWIDE,0135043
1153588,5360978,-85.85,33.26667,ALABAMA,ASHLAND,0136251
1153588,5360978,-85.75,33.31667,ALABAMA,ASHLAND,0136266
1153590,5361220,-86.58333,31.98333,ALABAMA,FT DEPOSIT,0136032
1153592,5361222,-87.15,33.45,ALABAMA,OAK GROVE,0135006
1153592,5361222,-86.95,33.41667,ALABAMA,OAK GROVE,0135020
1153593,5361223,-87.08333,33.26667,ALABAMA,BUCKSVILLE,0135111
1153594,5361286,-85.65,32.8,ALABAMA,CAMP HILL,0136850
1153596,5361288,-86.05,33.06667,ALABAMA,GOODWATER,0135072
1153598,5361290,-87.06667,32.08333,ALABAMA,ORRVILLE,0136761
1153598,5361290,-87.25,32.3,ALABAMA,ORRVILLE,0136767
1153599,5361291,-88.38333,32.43333,ALABAMA,CUBA,0136907
1153600,5361292,-87.58333,33.21667,ALABAMA,NORTHPORT,0135476
1153602,5361295,-87.86667,32.1,ALABAMA,SWEET WATER,0136782
1153608,5361515,-87.28333,33.83333,ALABAMA,JASPER,0135501
1153612,5361588,-86.81667,33.65,ALABAMA,GARDENDALE,0135071
1153612,5361589,-86.81667,33.51667,ALABAMA,BIRMINGHAM,0135203
1153630,5361100,-86.86667,33.1,ALABAMA,MONTEVALLO,0135115
1153628,5361098,-86.66667,33.45,ALABAMA,WESTOVER,0135242
1153628,5361098,-86.7,33.4,ALABAMA,WESTOVER,0135242
1153627,5361097,-85.95,33.53333,ALABAMA,MUNFORD,0136268
1153626,5361096,-87.28333,33.28333,ALABAMA,BROOKWOOD,0135444
1153626,5361095,-87.2,33.28333,ALABAMA,ABERNANT,0135490
1153585,5360974,-86.15,33.38333,ALABAMA,COUNTYWIDE,0135160
1153626,5361094,-87.7,33.23333,ALABAMA,COKER,0135452
1153623,5361012,-85.38333,33.36667,ALABAMA,WOODLAND,0136280
1153622,5361010,-87.98333000000001,34.13333,ALABAMA,HAMILTON,0135570
1153621,5361009,-88.16667,34.03333,ALABAMA,DETROIT,0135552
1153621,5361009,-88.06667,34.03333,ALABAMA,DETROIT,0135552
1153616,5361593,-85.68333,33.75,ALABAMA,WHITE PLAINS,0136207
1153614,5361591,-87.81667,34.26667,ALABAMA,HACKLEBURG,0135564
1153624,5361091,-87.56667,33.2,ALABAMA,TUSCALOOSA,0135401
1153546,5362141,-88.16667,34.03333,ALABAMA,DETROIT,0135552
1153583,5360971,-86.0,33.01667,ALABAMA,ROCKFORD,0135010
1153582,5360969,-85.4,33.96667,ALABAMA,SPRING GARDEN,0136272
1153563,5362390,-87.51666999999999,32.45,ALABAMA,UNIONTOWN,0136786
1153563,5362390,-87.4,32.35,ALABAMA,UNIONTOWN,0136773
1153564,5362392,-87.46667,32.6,ALABAMA,GREENSBORO,0136765
1153564,5362392,-87.76666999999999,32.85,ALABAMA,GREENSBORO,0135441
1153565,5362393,-85.48333000000001,33.85,ALABAMA,OAK LEVEL,0136262
1153566,5361453,-87.4,34.18333,ALABAMA,HALEYVILLE,0135553
1153566,5361453,-87.61667,34.23333,ALABAMA,HALEYVILLE,0135565
1153567,5361454,-87.28333,33.83333,ALABAMA,JASPER,0135501
1153567,5361454,-87.08333,33.7,ALABAMA,JASPER,0135130
1153568,5361492,-87.76666999999999,33.25,ALABAMA,BUHL,0135446
1153568,5361492,-87.56667,33.2,ALABAMA,BUHL,0135401
1153569,5361493,-86.56667,34.0,ALABAMA,COUNTYWIDE,0135049
1153570,5361494,-87.31667,32.5,ALABAMA,MARION,0136756
1153570,5361494,-87.51666999999999,32.63333,ALABAMA,MARION,0136765
1153572,5361496,-87.11667,33.11667,ALABAMA,WEST BLOCTON,0135184
1153572,5361496,-86.98333000000001,33.0,ALABAMA,WEST BLOCTON,0135035
1153573,5361497,-87.26666999999999,34.13333,ALABAMA,HOUSTON,0135572
1153582,5360969,-85.55,33.96667,ALABAMA,SPRING GARDEN,0136272
1153581,5360967,-86.31667,33.71667,ALABAMA,COUNTYWIDE,0135953
1153580,5360966,-86.81667,33.28333,ALABAMA,PELHAM,0135124
1153580,5360966,-86.81667,33.23333,ALABAMA,PELHAM,0135007
1153579,5360924,-85.81667,33.8,ALABAMA,COUNTYWIDE,0136265
1153578,5361502,-86.11667,33.61667,ALABAMA,LINCOLN,0135096
1153583,5360971,-86.21667,32.98333,ALABAMA,ROCKFORD,0135136
1119234,5257251,-85.58333,32.6,ALABAMA,LOACHAPOKA,0136832
1153577,5361501,-86.95,33.41667,ALABAMA,GRAYSVILLE,0135020
1153576,5361500,-85.96667,33.98333,ALABAMA,ATTALLA,0135903
1153576,5361500,-86.13333,34.05,ALABAMA,ATTALLA,0135954
1153575,5361499,-86.58333,33.98333,ALABAMA,CLEVELAND,0135049
1153574,5361498,-87.0,32.08333,ALABAMA,ORRVILLE,0136761
1153574,5361498,-87.25,32.3,ALABAMA,ORRVILLE,0136767
1153577,5361501,-87.06667,33.66667,ALABAMA,GRAYSVILLE,0135130
1153545,5362082,-85.76666999999999,33.03333,ALABAMA,NEWSITE,0136256
1153543,5362080,-86.1,33.43333,ALABAMA,TALLADEGA,0135160
1153542,5362079,-85.25,31.73333,ALABAMA,TERESE,0136027
62462,373989,-86.4998,32.1824,ALABAMA,TYSON,0136043
62462,373989,-86.7779,32.0859,ALABAMA,BRAGGS,0136761
62462,374293,-87.0714,32.5751,ALABAMA,PERRYVILLE,0136701
62462,374293,-87.1531,32.5486,ALABAMA,SUTTLE,0136701
62462,374294,-86.3937,32.7607,ALABAMA,WETONA,0136091
62462,374294,-86.0729,32.8493,ALABAMA,COTTAGE GROVE,0135010
62462,374299,-85.5929,32.9598,ALABAMA,FORDYCE,0136850
62462,374299,-85.4057,33.0109,ALABAMA,CHAPEL HILL,0136862
62462,374308,-86.9112,32.6217,ALABAMA,VINE HILL,0136758
62462,374308,-86.8455,32.635,ALABAMA,VINE HILL,0136758
62462,374331,-86.9112,32.6217,ALABAMA,PLANTERSVILLE,0136758
62462,374331,-87.0714,32.5751,ALABAMA,SUMMERFIELD,0136701
1144224,5319036,-88.06667,30.816670000000002,ALABAMA,SARALAND,0136571
1124347,5271971,-87.76666999999999,32.1,ALABAMA,DIXONS MILLS,0136736
1124347,5271971,-87.75,32.21667,ALABAMA,DIXONS MILLS,0136748
1124348,5271972,-87.51666999999999,32.46667,ALABAMA,UNIONTOWN,0136786
1124348,5271972,-87.51666999999999,32.45,ALABAMA,UNIONTOWN,0136786
40573,236187,-85.8236,33.6952,ALABAMA,SAKS,0136206
40573,236188,-88.1014,33.7532,ALABAMA,VERNON,0135592
40573,236195,-87.6204,32.8946,ALABAMA,HAVANA,0135474
40573,236204,-87.463,33.5333,ALABAMA,STERLING,0135546
40573,236206,-85.7308,32.9779,ALABAMA,HAMLET,0136256
40573,236209,-86.5833,33.0956,ALABAMA,SHELBY,0135143
62462,373980,-85.73,34.1,ALABAMA,CENTRE,0135960
1124364,5270641,-87.56667,34.66667,ALABAMA,LEIGHTON,0135646
1124360,5270636,-87.78333,34.83333,ALABAMA,OAKLAND,0135633
62462,374385,-85.9669,32.8666,ALABAMA,OUR TOWN,0135010
62462,374385,-85.5929,32.9598,ALABAMA,HAMPDON,0136850
62462,374379,-86.3937,32.7607,ALABAMA,MOUNTAIN CREEK,0136091
62462,374379,-86.5361,32.7246,ALABAMA,VERBENA,0136091
1124360,5270634,-88.06667,34.91667,ALABAMA,WATERLOO,0135677
1124360,5270637,-87.36667,34.96667,ALABAMA,LEXINGTON,0135648
40573,236186,-85.88,33.66,ALABAMA,WEST END ANNISTON,0136201
62462,373960,-86.84,33.83,ALABAMA,WARRIOR,0135180
62462,373958,-87.68,33.77,ALABAMA,HUBERTVILLE,0135542
62462,373716,-86.5838,34.0542,ALABAMA,BLOUNTSVILLE,0135031
62462,373717,-85.76,33.81,ALABAMA,JACKSONVILLE,0136265
62462,373719,-86.4205,34.0832,ALABAMA,CLARENCE,0135952
62462,373720,-87.13,33.21,ALABAMA,BLOCTON JCT,0135184
62462,373721,-87.27,33.85,ALABAMA,JASPER WALKER CO ARP,0135504
62462,373722,-87.1439,33.8076,ALABAMA,SIPSEY,0135501
62462,373728,-87.07,33.25,ALABAMA,BUCKSVILLE,0135111
62462,373729,-87.3977,34.1221,ALABAMA,DOUBLE SPGS,0135553
62462,373730,-86.9925,33.339,ALABAMA,MC CALLA,0135022
62462,373734,-88.1113,32.4578,ALABAMA,BELLAMY,0135470
62462,373736,-87.4,34.15,ALABAMA,DOUBLE SPGS,0135553
62462,373920,-86.9216,33.3718,ALABAMA,BROWNVILLE,0135022
62462,373921,-86.786,33.4479,ALABAMA,HOMEWOOD,0135216
62462,373923,-86.8608,33.4036,ALABAMA,BLUFF PARK,0135226
62462,373925,-86.82,33.38,ALABAMA,PATTON CHAPLE,0135226
62462,373926,-86.86,33.4,ALABAMA,BLUFF PARK,0135226
62462,373927,-86.03,34.07,ALABAMA,REECE CITY,0135954
62462,373957,-87.0354,33.7681,ALABAMA,SUMITON,0135148
62462,373956,-86.99,33.76,ALABAMA,SAYRE,0135062
62462,373955,-87.37,34.04,ALABAMA,POPLAR SPGS,0135553
62462,373954,-87.6051,33.4226,ALABAMA,SAMANTHA,0135475
62462,373952,-87.5545,33.0978,ALABAMA,MAXWELL,0135405
62462,373949,-87.8,33.93,ALABAMA,WINFIELD,0135594
62462,373959,-88.06,33.6,ALABAMA,MILLPORT,0135576
62462,373948,-85.67,34.15,ALABAMA,CENTRE,0135960
62462,373946,-87.66,33.37,ALABAMA,SAMANTHA,0135452
62462,373945,-86.4,33.69,ALABAMA,ODENVILLE,0135120
62462,373941,-88.19,32.6,ALABAMA,LIVINGSTON,0135470
62462,373940,-86.47,33.69,ALABAMA,MARGARET,0135112
62462,373932,-86.5791,33.6069,ALABAMA,TRUSSVILLE,0135173
62462,373929,-86.6679,33.5416,ALABAMA,RED GAP JCT,0135210
62462,373947,-87.63,33.38,ALABAMA,SAMANTHA,0135475
86576,522355,-86.55,33.67,ALABAMA,ARGO,0135173
40573,236185,-85.836,33.6149,ALABAMA,HOBSON CITY,0136203
40573,236184,-88.08,33.56,ALABAMA,MILLPORT,0135576
40163,236042,-87.8396,33.9374,ALABAMA,WINFIELD,0135594
40163,236039,-88.1782,33.7481,ALABAMA,MOLLOY,0135592
40163,236038,-88.09,33.71,ALABAMA,HIGHTOGY,0135592
1153503,5360641,-85.48333000000001,33.28333,ALABAMA,WEDOWEE,0136278
1153503,5360641,-85.26666999999999,33.36667,ALABAMA,WEDOWEE,
1153504,5360696,-86.0,33.25,ALABAMA,MILLERVILLE,0135160
1153504,5360696,-86.0,33.23333,ALABAMA,MILLERVILLE,0135160
1153505,5360697,-85.83333,33.25,ALABAMA,ASHLAND,0136251
1153505,5360697,-85.81667,33.25,ALABAMA,ASHLAND,0136251
1153524,5360774,-85.75,33.31667,ALABAMA,LINEVILLE,0136266
1153524,5360774,-85.73333000000001,33.31667,ALABAMA,LINEVILLE,0136266
1153537,5360848,-87.81667,34.26667,ALABAMA,HACKLEBURG,0135564
1153539,5362076,-85.16667,32.3,ALABAMA,SEALE,0136875
1171260,5401795,-86.86667,33.4,ALABAMA,BLUFF PARK,0135226
1171260,5401795,-86.78333,33.31667,ALABAMA,BLUFF PARK,0135124
62655,374909,-87.12,34.76,ALABAMA,RIPLEY,0135611
1171259,5401794,-86.95,33.43333,ALABAMA,HUEYTOWN,0135020
1143639,5319882,-88.31667,30.683329999999998,ALABAMA,MOBILE BATES FLD,0136608
1189700,5449051,-85.6,33.91667,ALABAMA,PIEDMONT,0136272
1189699,5449050,-85.43333,33.8,ALABAMA,FRUITHURST,0136269
1189698,5449049,-85.46667,34.08333,ALABAMA,FORNEY,0135960
1189697,5449048,-85.5,34.23333,ALABAMA,GAYLESVILLE,0135959
1189696,5449047,-86.71667,32.56667,ALABAMA,INDEPENDENCE,0136006
40163,236043,-87.8411,33.9383,ALABAMA,WINFIELD,0135594
1171236,5401679,-85.6,33.91667,ALABAMA,PIEDMONT,0136272
1171238,5401681,-85.7,33.43333,ALABAMA,DELTA,0136258
1171240,5401683,-85.85,33.58333,ALABAMA,ANNISTON CALHOUN ARP,0136203
1171240,5401683,-85.83333,33.65,ALABAMA,ANNISTON CALHOUN ARP,0136201
1171242,5401751,-87.83333,34.25,ALABAMA,HACKLEBURG,0135564
1171248,5401757,-86.81667,33.23333,ALABAMA,ALABASTER,0135007
1171259,5401794,-86.98333000000001,33.43333,ALABAMA,HUEYTOWN,0135023
1171237,5401680,-86.2,33.93333,ALABAMA,STEELE,0135987
40573,236185,-85.9236,33.6209,ALABAMA,EULATON,0136201
40163,236046,-87.5964,34.086999999999996,ALABAMA,NATURAL BRIDGE,0135575
1209423,5507156,-85.38333,31.66667,ALABAMA,EDWIN,0136317
40572,236181,-88.1734,33.7482,ALABAMA,MOLLOY,0135592
40570,236173,-87.7983,32.3057,ALABAMA,LINDEN,0136748
40570,236171,-87.8381,32.5037,ALABAMA,DEMOPOLIS,0136732
40570,236169,-87.984,32.4423,ALABAMA,DEMOPOLIS MUNI ARPT,0136732
40570,236168,-88.0,32.68,ALABAMA,BRAGGVILLE,0135443
85674,518519,-87.95,32.25,ALABAMA,MYRTLEWOOD,0136763
40570,236099,-87.45,33.19,ALABAMA,COTTONDALE,0135453
40570,236097,-87.73,33.04,ALABAMA,RALPH,0135463
40570,236096,-87.58,33.2,ALABAMA,ROSEDALE,0135401
40570,236090,-87.6864,33.0949,ALABAMA,FOSTERS,0135463
40570,236090,-87.5529,33.1703,ALABAMA,TAYLORVILLE,0135401
40570,236089,-87.8249,33.0683,ALABAMA,RALPH,0135480
1189342,5449013,-85.8,34.56667,ALABAMA,SYLVANIA,0135988
62484,373842,-87.53,31.97,ALABAMA,YELLOW BLUFF,0136769
62484,373843,-88.07,31.88,ALABAMA,CUNNINGHAM,0136524
1189342,5449014,-85.86667,34.5,ALABAMA,RAINSVILLE,0135986
1189345,5449071,-87.05,34.1,ALABAMA,CRANE HILL,0135053
1209424,5507157,-85.31667,31.23333,ALABAMA,DOTHAN,0136321
1209424,5507158,-85.91667,31.25,ALABAMA,ENTERPRISE,0136316
1209424,5507227,-85.78333,31.3,ALABAMA,LEVEL PLAINS XRDS,0136322
1209427,5507234,-85.7,31.1,ALABAMA,HARTFORD,0136344
62581,383994,-87.67,34.74,ALABAMA,MUSCLE SHOALS,0135661
62581,383993,-86.97,34.8,ALABAMA,ATHENS,0135611
1209421,5507154,-86.06667,31.433329999999998,ALABAMA,ELBA,0136323
62581,383992,-87.9029,34.8828,ALABAMA,GRAVELLY SPGS,0135633
40514,235643,-86.5621,34.5954,ALABAMA,FARLEY,0135803
40514,236152,-86.91,34.37,ALABAMA,FALKVILLE,0135622
40514,236153,-87.09,34.61,ALABAMA,TRINITY,0135673
40514,236155,-86.98,34.61,ALABAMA,DECATUR,0135601
40514,236165,-86.92,34.11,ALABAMA,TRIMBLE,0135057
40514,236166,-87.77,34.94,ALABAMA,CLOVERDALE,0135633
5427,31670,-86.2089,34.2608,ALABAMA,ALBERTVILLE,0135950
1124787,5272357,-88.21667,32.08333,ALABAMA,BUTLER,0136904
1147146,5340389,-87.76666999999999,32.36667,ALABAMA,LINDEN,0136742
1147155,5340397,-86.58333,33.98333,ALABAMA,CLEVELAND,0135049
103785,620647,-87.9189,34.2265,ALABAMA,WIGINTON,0135570
103785,620651,-86.6507,33.1675,ALABAMA,COLUMBIANA,0135051
103785,620651,-86.6673,33.1593,ALABAMA,SHELBY SPGS,0135051
1188372,5447769,-88.11667,32.53333,ALABAMA,LIVINGSTON,0135470
1188373,5447770,-87.81667,32.81667,ALABAMA,EUTAW,0135441
1188374,5447772,-87.51666999999999,33.0,ALABAMA,AKRON,0135474
1188374,5447772,-87.8,32.81667,ALABAMA,AKRON,0136776
1188375,5447774,-87.53333,32.98333,ALABAMA,DUNCANVILLE,0135474
1188375,5447774,-87.36667,33.11667,ALABAMA,DUNCANVILLE,0135453
1188376,5447775,-88.15,33.15,ALABAMA,ALICEVILLE,0135442
1188376,5447775,-88.16667,33.13333,ALABAMA,ALICEVILLE,0135442
60425,362633,-87.4817,34.4584,ALABAMA,MT HOPE,0135651
60425,362634,-87.4061,34.6812,ALABAMA,TOWN CREEK,0135672
60425,362637,-87.39,34.68,ALABAMA,TOWN CREEK,0135672
103785,620647,-87.9267,34.258,ALABAMA,WIGINTON,0135570
60425,362638,-87.4059,34.6812,ALABAMA,TOWN CREEK,0135672
1188383,5447991,-87.28333,33.83333,ALABAMA,JASPER,0135501
1188384,5447992,-85.66667,34.15,ALABAMA,CENTRE,0135960
1188391,5448015,-86.48333000000001,32.46667,ALABAMA,PRATTVILLE,0136067
1188392,5448016,-86.4,32.3,ALABAMA,(MGM)MONTGOMERY ARPT,0136043
1188395,5448019,-86.98333000000001,32.4,ALABAMA,SELMA,0136703
60481,362656,-87.6636,34.8909,ALABAMA,JACKSONBURG,0135634
60481,362657,-87.62,34.87,ALABAMA,ST FLORIAN,0135634
60481,362660,-87.0925,34.5891,ALABAMA,TRINITY,0135673
60481,362661,-87.11,34.77,ALABAMA,RIPLEY,0135611
60481,362663,-86.7508,34.8556,ALABAMA,HARVEST,0135749
60481,362665,-86.6434,34.7261,ALABAMA,HUNTSVILLE,0135816
60481,362665,-86.6563,34.7262,ALABAMA,FLETCHER CHAPEL,0135805
1188396,5448020,-86.81667,32.05,ALABAMA,BRAGGS,0136761
1188397,5448021,-87.36667,32.63333,ALABAMA,MARION,0136756
1188381,5447780,-87.9,33.31667,ALABAMA,GORDO,0135466
103785,620645,-87.98,33.4627,ALABAMA,PALMETTO,0135481
103785,620645,-87.9672,33.3941,ALABAMA,REFORM NO PICKENS AR,0135481
103777,620462,-85.1836,32.4778,ALABAMA,J C MEADOWS XRDS,0136874
60196,362757,-87.67,34.8,ALABAMA,FLORENCE,0135630
60196,362924,-85.88,34.4,ALABAMA,PEEKS CORNER,0135961
60196,362946,-86.56700000000001,34.6364,ALABAMA,LILY FLAG,0135803
60196,362954,-87.12,34.75,ALABAMA,RIPLEY,0135611
60196,362962,-86.2552,34.985,ALABAMA,FRANCISCO,0135745
60196,362962,-86.2433,34.9904,ALABAMA,FRANCISCO,0135745
60196,376532,-86.9712,34.8025,ALABAMA,ATHENS,0135611
87632,528826,-87.07,31.149,ALABAMA,BREWTON,0136426
87632,528825,-87.0102,31.1712,ALABAMA,BREWTON,0136426
87632,528823,-88.23,31.08,ALABAMA,CITRONELLE,0136522
60216,359463,-85.5795,31.0814,ALABAMA,SLOCOMB,0136375
60216,359463,-85.5738,31.0824,ALABAMA,SLOCOMB,0136375
60216,359464,-85.5863,31.0856,ALABAMA,SLOCOMB,0136375
60216,359464,-85.6989,31.0809,ALABAMA,HARTFORD,0136344
60216,359465,-86.19,31.31,ALABAMA,BROOKLYN,0136453
60216,359465,-86.1827,31.3124,ALABAMA,BROOKLYN,0136453
60216,359467,-85.6679,31.1275,ALABAMA,DUNDEE,0136344
103777,620462,-85.1857,32.4706,ALABAMA,J C MEADOWS XRDS,0136870
103777,620453,-85.2546,32.3952,ALABAMA,UNLAND,0136875
103777,620453,-85.1857,32.4706,ALABAMA,CRAWFORD,0136870
60357,360343,-88.417,31.7619,ALABAMA,ISNEY,0136919
60357,360343,-88.4142,31.7668,ALABAMA,ISNEY,0136919
60355,360341,-86.7023,31.7686,ALABAMA,GREENVILLE,0136037
1188397,5448021,-87.31667,32.58333,ALABAMA,MARION,0136756
60355,360340,-86.68,31.75,ALABAMA,WALD,0136037
103777,620448,-85.2538,32.4493,ALABAMA,HUGLEY,0136874
103777,620446,-85.7599,31.6855,ALABAMA,BRUNDIDGE MUNI ARPT,0136010
103777,620446,-85.8398,31.6617,ALABAMA,HAMILTON XRDS,0136079
103777,620444,-86.0243,32.2352,ALABAMA,MATHEWS,0136052
103777,620444,-85.9989,32.2636,ALABAMA,MATHEWS,0136013
60216,359467,-85.669,31.1271,ALABAMA,DUNDEE,0136344
103777,620448,-85.3476,32.4,ALABAMA,UCHEE,0136804
1188398,5445680,-87.25,32.23333,ALABAMA,ORRVILLE,0136767
1188399,5445681,-86.65,32.76667,ALABAMA,CLANTON,0135045
1188400,5445682,-87.46667,32.8,ALABAMA,GREENSBORO,0136756
60732,362694,-85.5905,34.5795,ALABAMA,HIGH PT,0135984
60741,362792,-85.559,31.1502,ALABAMA,MALVERN,0136375
60741,362792,-85.5348,31.1631,ALABAMA,MALVERN,0136305
1188430,5445770,-86.23333000000001,33.15,ALABAMA,SYLACAUGA,0135150
1188431,5445771,-86.05,33.06667,ALABAMA,GOODWATER,0135072
87444,527731,-88.19,32.6,ALABAMA,LIVINGSTON,0135470
87429,527541,-86.2089,34.7309,ALABAMA,SCOTTSBORO,0135776
60822,363444,-87.38,34.44,ALABAMA,LANDERSVILLE,0135650
87426,527711,-87.81,33.53,ALABAMA,NEWTONVILLE,0135555
87426,527707,-87.93,33.45,ALABAMA,PALMETTO,0135466
87424,527520,-85.71,32.24,ALABAMA,FAYS,0136031
87424,527519,-86.98,32.52,ALABAMA,SUMMERFIELD,0136703
87424,527518,-87.04,32.52,ALABAMA,SUMMERFIELD,0136701
87424,527517,-88.1607,33.1389,ALABAMA,ALICEVILLE,0135442
87423,527505,-87.3925,34.0936,ALABAMA,NATIS,0135553
87423,527503,-88.13,34.26,ALABAMA,SHOTTSVILLE,0135593
1188432,5445772,-87.05,32.43333,ALABAMA,SELMA,0136701
60881,371150,-87.2,34.8,ALABAMA,WHEELER LAKE NORTH,0135611
60881,371149,-87.12,34.8,ALABAMA,WHEELER LAKE NORTH,0135611
60881,371148,-87.28,34.9,ALABAMA,ANDERSON,0135652
60881,371147,-86.9,34.99,ALABAMA,ARDMORE ARPT,0135739
60881,371146,-87.28,34.9,ALABAMA,ANDERSON,0135652
60881,371145,-86.5,34.32,ALABAMA,ARAB,0135016
60732,362693,-86.4589,34.5881,ALABAMA,OWENS XRDS,0135763
87293,535899,-85.37200000000001,31.2775,ALABAMA,KINSEY,0136303
1188437,5445842,-86.1,32.75,ALABAMA,EQUALITY,0136024
1188436,5445841,-85.76666999999999,33.03333,ALABAMA,NEWSITE,0136256
1188435,5445840,-87.51666999999999,32.45,ALABAMA,UNIONTOWN,0136786
1188434,5445839,-86.33333,32.65,ALABAMA,WETUMPKA,0136022
1188433,5445773,-86.48333000000001,32.7,ALABAMA,MARBURY,0136051
1188432,5445772,-86.86667,32.28333,ALABAMA,SELMA,0136785
1188438,5445843,-86.21667,32.6,ALABAMA,WETUMPKA,0136092
60196,362751,-85.79,34.9,ALABAMA,BOLIVAR,0135772
1188429,5445769,-86.81667,32.83333,ALABAMA,MAPLESVILLE,0136750
1188428,5445768,-86.73333000000001,32.9,ALABAMA,THORSBY,0135171
1188401,5445683,-87.13333,32.08333,ALABAMA,MINTER,0136761
1188402,5445684,-87.61667,33.0,ALABAMA,MOUNDVILLE,0135474
1188403,5445685,-87.7,33.08333,ALABAMA,FOSTERS,0135463
1188404,5445686,-87.56667,33.03333,ALABAMA,TUSCALOOSA,0135474
1188404,5445686,-87.56667,33.13333,ALABAMA,TUSCALOOSA,0135405
1188405,5445687,-88.08333,33.9,ALABAMA,SULLIGENT,0135586
1188406,5445688,-88.13333,33.9,ALABAMA,SULLIGENT,0135586
1188407,5445689,-88.03333,33.93333,ALABAMA,BEAVERTON,0135544
1188408,5445690,-87.63333,32.35,ALABAMA,DAYTON,0136738
1188409,5445691,-87.96667,33.86667,ALABAMA,BEAVERTON,0135563
1188410,5445692,-87.61667,32.45,ALABAMA,FAUNSDALE,0136738
1188411,5445693,-87.73333000000001,32.25,ALABAMA,LINDEN,0136748
1188412,5445694,-87.81667,33.91667,ALABAMA,WINFIELD,0135594
1188413,5445695,-87.46667,33.86667,ALABAMA,TOWNLEY,0135549
1188415,5445754,-86.0,33.78333,ALABAMA,OHATCHEE,0136271
1188416,5445755,-86.11667,33.61667,ALABAMA,LINCOLN,0135096
1188418,5445758,-87.45,33.05,ALABAMA,DUNCANVILLE,0135456
1188428,5445768,-86.51666999999999,32.78333,ALABAMA,THORSBY,0136091
1188427,5445767,-86.36667,33.26667,ALABAMA,CHILDERSBURG,0135044
1188426,5445766,-87.46667,32.51667,ALABAMA,MARION,0136786
1188425,5445765,-87.66667,32.61667,ALABAMA,CEDARVILLE,0136744
1188424,5445764,-87.78333,32.58333,ALABAMA,NEWBERN,0136742
1188424,5445764,-87.53333,32.58333,ALABAMA,NEWBERN,0136765
1188429,5445769,-86.45,32.7,ALABAMA,MAPLESVILLE,0136051
44880,260129,-86.03,34.04,ALABAMA,REESEVILLE,0135904
1188422,5445762,-87.16667,32.93333,ALABAMA,BRENT,0135034
1188422,5445762,-87.13333,32.95,ALABAMA,BRENT,0135042
1188421,5445761,-87.9,32.66667,ALABAMA,FORKLAND,0136740
1188421,5445761,-87.83333,32.61667,ALABAMA,FORKLAND,0136740
1188420,5445760,-86.81667,33.31667,ALABAMA,HOOVER,0135124
1188419,5445759,-86.95,33.41667,ALABAMA,BESSEMER,0135020
1188423,5445763,-86.81667,33.23333,ALABAMA,ALABASTER,0135007
60881,371151,-87.13,34.8,ALABAMA,WHEELER LAKE NORTH,0135611
60196,362750,-86.0,34.35,ALABAMA,GERALDINE,0135974
60196,362747,-86.03,34.67,ALABAMA,SCOTTSBORO,0135768
59890,362778,-87.444,33.3961,ALABAMA,BURCHFIELD,0135406
59890,362778,-87.4395,33.4038,ALABAMA,BURCHFIELD,0135406
59890,362779,-87.3071,33.4316,ALABAMA,KELLERMAN,0135444
59890,362779,-87.28399999999999,33.4354,ALABAMA,SHOOK,0135006
59890,363558,-87.1405,33.529,ALABAMA,GILMORE,0135023
59890,363558,-87.28399999999999,33.4354,ALABAMA,OAK GROVE,0135006
59890,363567,-88.1639,32.6718,ALABAMA,PARKER,0135460
59890,363567,-88.1705,32.6567,ALABAMA,PARKER,0135470
59890,363575,-86.2091,33.3219,ALABAMA,WINTERBORO,0135014
59890,363575,-86.2951,33.2957,ALABAMA,KYMULGA,0135044
59890,363581,-86.5886,32.7657,ALABAMA,COOPER,0135045
59890,363581,-86.6329,32.7288,ALABAMA,KINCHEON,0136006
59890,363584,-86.4119,32.5209,ALABAMA,ROBINSON SPGS,0136054
45426,263612,-87.18,33.56,ALABAMA,HOWTONS CAMP,0135130
59890,362760,-88.2364,32.9287,ALABAMA,FAIR OAKS,0135442
45426,263611,-86.59,34.1,ALABAMA,BLOUNTSVILLE,0135031
59890,363584,-86.3437,32.5309,ALABAMA,COBBS FORD,0136025
59890,363587,-87.2786,32.7216,ALABAMA,HEIBERGER,0136756
59890,363587,-87.3096,32.7068,ALABAMA,HEIBERGER,0136756
59890,364295,-86.5251,33.7105,ALABAMA,ARGO,0135173
59890,364295,-86.7411,33.6228,ALABAMA,KETONA,0135217
59890,364297,-86.5251,33.7105,ALABAMA,MARGARET,0135173
59890,364297,-86.4963,33.7197,ALABAMA,SPRINGVILLE,0135120
59890,364350,-87.0179,32.7685,ALABAMA,OAKMULGEE,
59890,364350,-87.2748,32.7159,ALABAMA,HERBERGER,0136756
59890,364351,-86.6322,32.8764,ALABAMA,CLANTON GRAGG ARPT,0135045
59890,364351,-87.0179,32.7685,ALABAMA,STANTON,
59891,357706,-87.4916,32.4441,ALABAMA,ELLAWHITE,0136786
59891,357706,-87.4989,32.4383,ALABAMA,ELLAWHITE,0136786
45426,263607,-87.25,33.18,ALABAMA,VANCE,0135490
45426,263610,-87.09,33.28,ALABAMA,BUCKSVILLE,0135111
59890,362760,-88.2312,32.9316,ALABAMA,FAIR OAKS,0135442
59890,362758,-87.6579,33.3257,ALABAMA,SHIRLEY,0135475
59890,362758,-87.6526,33.3305,ALABAMA,SHIRLEY,0135475
1113483,5242385,-87.41667,33.0,ALABAMA,MOUNDVILLE,
1113484,5242386,-87.73333000000001,34.51667,ALABAMA,RUSSELLVILLE,0135653
1113485,5242387,-87.45,33.18333,ALABAMA,COTTONDALE,0135453
1113486,5242388,-87.83333,33.68333,ALABAMA,FAYETTE,0135555
1113487,5242389,-88.31667,32.73333,ALABAMA,EMELLE,0135459
1113488,5242390,-88.26666999999999,33.23333,ALABAMA,PICKENSVILLE,0135447
1113489,5242391,-88.1,33.26667,ALABAMA,CARROLLTON,0135447
1113490,5242392,-88.01666999999999,33.38333,ALABAMA,REFORM,0135481
1113491,5242393,-88.26666999999999,33.23333,ALABAMA,PICKENSVILLE,0135447
1113494,5242396,-86.78333,32.45,ALABAMA,MULBERRY,0136003
1113495,5242397,-87.93333,34.33333,ALABAMA,HODGES,0135571
1113496,5242398,-87.93333,34.33333,ALABAMA,HODGES,0135571
1113497,5242399,-87.56667,33.2,ALABAMA,TUSCALOOSA,0135401
1113497,5242400,-87.45,33.18333,ALABAMA,COTTONDALE,0135453
45464,263967,-86.73,33.66,ALABAMA,GREENS,0135215
1113498,5242401,-87.56667,33.2,ALABAMA,TUSCALOOSA,0135401
1113499,5242499,-86.0,33.78333,ALABAMA,OHATCHEE,0136271
59889,357697,-85.83,32.44,ALABAMA,HORNADY,0136075
59888,357693,-86.28,32.35,ALABAMA,MONTGOMERY,0136106
45426,263614,-87.08,33.68,ALABAMA,QUINTON,0135130
59873,357719,-85.64,31.44,ALABAMA,OZARK,0136360
45426,263615,-87.15,33.46,ALABAMA,OAK GROVE,0135006
45426,263616,-86.8,33.53,ALABAMA,WOODLAWN,0135203
45426,263605,-87.23,33.17,ALABAMA,VANCE,0135490
45426,263623,-87.4076,34.2318,ALABAMA,PLEASANT HILL,0135565
45464,263961,-85.97,33.43,ALABAMA,IRONATON,0136268
45464,263963,-86.04,33.39,ALABAMA,WALCO,0135160
45464,263964,-85.97,33.43,ALABAMA,IRONATON,0136268
45464,263965,-86.71,33.65,ALABAMA,GREENS,0135215
45464,263966,-86.6423,33.6352,ALABAMA,CHALKVILLE,0135235
45464,263966,-86.7093,33.6096,ALABAMA,HUFFMAN,0135215
45426,263623,-87.6088,34.1786,ALABAMA,DELMAR,0135565
45426,263604,-87.72,32.53,ALABAMA,PRAIRIEVILLE,0136742
45426,263603,-87.8,32.31,ALABAMA,LINDEN,0136748
45426,263602,-87.87,32.36,ALABAMA,JEFFERSON,0136748
60196,362714,-87.97,34.76,ALABAMA,CHEROKEE,0135616
60196,362715,-87.8911,34.7388,ALABAMA,BARTON,0135616
60196,362716,-87.6773,34.7998,ALABAMA,FLORENCE,0135630
60196,362717,-87.67,34.83,ALABAMA,NORTH FLORENCE,0135630
60196,362718,-87.67399999999999,34.8505,ALABAMA,PETERSVILLE,0135630
60196,362719,-87.7162,34.8073,ALABAMA,KIMBROUGH XRDS,0135630
60196,362720,-87.3816,34.8453,ALABAMA,ELGIN,0135652
60196,362722,-87.67,34.83,ALABAMA,NORTH FLORENCE,0135630
60196,362723,-87.415,34.5574,ALABAMA,HATTON,0135672
60196,362724,-86.60700000000001,34.9835,ALABAMA,HAZEL GREEN,0135750
60196,362725,-86.7508,34.8556,ALABAMA,HARVEST,0135749
60196,362726,-86.5718,34.9344,ALABAMA,HAZEL GREEN,0135750
60196,362727,-86.57,34.93,ALABAMA,HAZEL GREEN,0135750
60196,362728,-86.57,34.92,ALABAMA,HAZEL GREEN,0135750
60196,362729,-86.5223,34.9377,ALABAMA,SKINEM,0135761
60196,362730,-86.4824,34.9253,ALABAMA,UNION GROVE,0135761
60196,362731,-86.4566,34.9619,ALABAMA,MINT SPG,0135761
60196,362746,-87.5788,34.3141,ALABAMA,POSEY MILL,0135565
60196,362745,-86.321,34.174,ALABAMA,DOUGLAS,0135980
60196,362744,-86.32,34.14,ALABAMA,DOUGLAS,0135957
60196,362743,-86.9544,34.1948,ALABAMA,BETHEL,0135057
60196,362741,-86.9677,33.9968,ALABAMA,BREMEN,0135057
60196,362740,-86.12,34.81,ALABAMA,SKYLINE,0135768
60196,362713,-87.88,34.73,ALABAMA,BARTON,0135616
60196,362739,-85.8394,34.8687,ALABAMA,AVERY,0135772
60196,362737,-86.56700000000001,34.6363,ALABAMA,LILY FLAG,0135803
60196,362736,-86.55,34.65,ALABAMA,LILY FLAG,0135802
60196,362735,-86.59,34.73,ALABAMA,HUNTSVILLE,0135801
60196,362734,-86.7414,34.589,ALABAMA,TRIANA,0135756
60196,362733,-86.98299999999999,34.5205,ALABAMA,FLINT CITY,0135603
60196,362732,-86.6274,34.9757,ALABAMA,NEW SHARON,0135750
60196,362738,-86.21,34.73,ALABAMA,PLEASANT GROVE,0135776
60196,362749,-86.26,34.22,ALABAMA,ALBERTVILLE MUNI ARP,0135950
60196,362712,-88.11,34.69,ALABAMA,ALLSBORO,0135616
60196,362710,-86.57,34.85,ALABAMA,MERIDIANVILLE,0135759
45426,263601,-86.62,32.86,ALABAMA,CLANTON GRAGG ARPT,0135045
59992,358167,-86.8339,34.7583,ALABAMA,CAPSHAW,0135613
59992,358168,-85.85,34.68,ALABAMA,PISGAH,0135765
45426,263600,-86.62,32.83,ALABAMA,CLANTON GRAGG ARPT,0135045
45426,263599,-86.71,32.66,ALABAMA,BILLINGSLEY,0136006
45425,263590,-86.61,33.84,ALABAMA,REMLAP,0135133
45425,263588,-86.82,33.38,ALABAMA,PATTON CHAPLE,0135226
103634,619511,-85.76,31.3,ALABAMA,LEVEL PLAINS,0136322
103634,619512,-85.72,31.28,ALABAMA,DALEVILLE,0136322
87695,529111,-87.88,31.52,ALABAMA,JACKSON,0136545
1188164,5447905,-85.91667,31.366670000000003,ALABAMA,NEW BROCKTON,0136351
1188168,5447976,-85.71667,31.6,ALABAMA,ARITON,0136311
15463,87925,-87.6209,34.6929,ALABAMA,HOBGOOD SIDING,0135674
15463,87925,-87.4817,34.6544,ALABAMA,COTTON TOWN,0135646
15463,92372,-87.09,34.7664,ALABAMA,RIPLEY,0135611
15463,92372,-87.0871,34.769,ALABAMA,BLACKBURN,0135611
15463,95963,-86.8289,34.835,ALABAMA,COPELAND CO,0135773
60196,362709,-86.85,34.99,ALABAMA,ARDMORE,0135739
60196,361150,-86.927,34.8628,ALABAMA,CAREY,0135614
60196,361150,-87.0143,34.8564,ALABAMA,O NEAL,0135614
60196,361149,-87.0466,34.9155,ALABAMA,SPENCER,0135620
60196,361149,-87.0008,34.9278,ALABAMA,ELKMONT,0135620
60196,361148,-86.8581,34.9182,ALABAMA,BETHEL,0135613
60196,362711,-86.8926,34.9542,ALABAMA,HOLLAND GIN,0135620
60196,361148,-86.8124,34.919000000000004,ALABAMA,BETHEL,0135773
60196,361143,-86.4448,34.8716,ALABAMA,BUCKHORN,0135761
60196,361097,-86.3994,34.9483,ALABAMA,PLEVNA,0135761
60196,361097,-86.7853,34.8162,ALABAMA,CLUTTSVILLE,0135749
60196,361096,-86.9531,34.7597,ALABAMA,STEWERDS STORE,0135613
60196,361096,-86.7853,34.8162,ALABAMA,CAPSHAW,0135749
15463,95963,-86.8019,34.8393,ALABAMA,COPELAND CO,0135773
60196,361143,-86.5702,34.8502,ALABAMA,MERIDIANVILLE,0135759
60881,371152,-87.27,34.94,ALABAMA,ANDERSON,0135610
60881,371153,-87.07,34.8,ALABAMA,BLACKBURN,0135611
60881,371154,-87.29,34.83,ALABAMA,ROGERSVILLE,0135652
1188471,5447839,-85.56667,31.78333,ALABAMA,LOUISVILLE,0136048
1188471,5447839,-85.43333,31.71667,ALABAMA,LOUISVILLE,0136016
1188472,5447840,-87.51666999999999,32.45,ALABAMA,UNIONTOWN,0136786
1188473,5447841,-85.6,34.41667,ALABAMA,JAMESTOWN,0135967
1188473,5447841,-85.61667,34.41667,ALABAMA,JAMESTOWN,0135967
1188474,5447842,-85.56667,34.4,ALABAMA,JAMESTOWN,0135973
1188474,5447842,-85.56667,34.41667,ALABAMA,JAMESTOWN,0135973
1188475,5445944,-86.0,32.26667,ALABAMA,MONTGOMERY,0136013
1188475,5445944,-86.3,32.38333,ALABAMA,MONTGOMERY,0136104
1188476,5445945,-86.21667,32.55,ALABAMA,WETUMPKA,0136092
1188479,5445948,-85.55,34.26667,ALABAMA,BLANCHE,0135973
1188479,5445948,-85.6,34.36667,ALABAMA,BLANCHE,0135973
1188480,5445949,-86.56667,32.46667,ALABAMA,PRATTVILLE,0136067
1188481,5445950,-85.88333,32.21667,ALABAMA,FITZPATRICK,0136029
1188470,5448659,-85.46667,34.48333,ALABAMA,BLANCHE,
1188481,5445950,-85.51666999999999,32.03333,ALABAMA,FITZPATRICK,0136053
1188483,5445952,-86.96667,33.45,ALABAMA,HUEYTOWN,0135023
1188485,5445954,-86.01666999999999,34.01667,ALABAMA,GADSDEN,0135901
1188486,5446029,-85.6,33.91667,ALABAMA,PIEDMONT,0136272
1188487,5446030,-85.43333,31.98333,ALABAMA,MT ANDREW,0136016
1188488,5446031,-85.71667,32.23333,ALABAMA,FT DAVIS,0136089
1188489,5446032,-85.88333,33.76667,ALABAMA,ALEXANDRIA,0136250
1188490,5446033,-85.61667,31.71667,ALABAMA,CLIO,0136017
1188491,5446034,-85.58333,33.65,ALABAMA,HEFLIN,0136264
1188498,5446119,-87.16667,33.83333,ALABAMA,JASPER,0135504
1188498,5446119,-87.18333,33.83333,ALABAMA,JASPER,0135504
1188500,5446058,-87.28333,33.86667,ALABAMA,JASPER,0135503
1188504,5446123,-87.9,33.31667,ALABAMA,GORDO,0135466
1188506,5446125,-87.8,33.25,ALABAMA,ELROD,0135466
1188508,5446127,-87.51666999999999,33.28333,ALABAMA,NORTHPORT,0135406
1188482,5445951,-87.01666999999999,33.51667,ALABAMA,MULGA,0135118
44694,259294,-87.07,31.12,ALABAMA,APPLETON,0136426
44695,259298,-88.0565,32.1866,ALABAMA,PENNINGTON,0136916
1188469,5448658,-85.71667,31.633329999999997,ALABAMA,ANSLEY,0136311
1188466,5448655,-85.15,31.883329999999997,ALABAMA,BAKERHILL,0136027
1188466,5448655,-85.3,31.78333,ALABAMA,BAKERHILL,0136027
1210314,5506175,-87.75,30.55,ALABAMA,SILVERHILL,0136576
1210313,5506174,-86.63333,31.83333,ALABAMA,GREENVILLE,0136037
1210312,5506173,-87.78333,30.883329999999997,ALABAMA,BAY MINETTE,0136507
1210311,5506172,-87.33333,31.51667,ALABAMA,MONROEVILLE,0136460
1210310,5506171,-87.71667,31.76667,ALABAMA,DICKINSON,0136451
1210309,5506170,-87.85,31.9,ALABAMA,TALAHATTA,0136784
1210308,5506169,-87.73333000000001,31.91667,ALABAMA,THOMASVILLE,0136784
1210307,5506089,-87.28333,31.98333,ALABAMA,CAMDEN,0136726
1210305,5506087,-88.26666999999999,32.23333,ALABAMA,CROMWELL,0136912
1210305,5506087,-88.28333,32.16667,ALABAMA,CROMWELL,0136912
1210303,5506085,-87.06667,31.116670000000003,ALABAMA,BREWTON,0136426
1210301,5506083,-87.98333000000001,31.5,ALABAMA,LEROY,0136548
1210300,5506082,-88.31667,31.633329999999997,ALABAMA,MILLRY,0136558
1188467,5448656,-87.9,32.38333,ALABAMA,JEFFERSON,0136732
1210298,5506080,-87.83333,30.8,ALABAMA,WHITEHOUSE FORKS,0136507
1188469,5448658,-86.11667,31.883329999999997,ALABAMA,ANSLEY,0136079
1188468,5448657,-87.9,32.66667,ALABAMA,FORKLAND,0136740
1188467,5448656,-87.58333,32.23333,ALABAMA,JEFFERSON,0136783
1210284,5505982,-88.23333000000001,31.0,ALABAMA,GULF CREST,0136521
1210285,5505983,-87.06667,31.116670000000003,ALABAMA,BREWTON,0136426
1210286,5505984,-88.08333,31.33333,ALABAMA,HAWTHORN,0136585
1188508,5446127,-87.61667,33.23333,ALABAMA,NORTHPORT,0135476
1210290,5505988,-87.83333,30.8,ALABAMA,WHITEHOUSE FORKS,0136507
1210294,5506076,-87.9,30.683329999999998,ALABAMA,SPANISH FT,0136527
1210295,5506077,-88.0,30.7,ALABAMA,MOBILE,
1210295,5506077,-88.03333,30.7,ALABAMA,MOBILE,0136603
1210296,5506078,-87.85,30.65,ALABAMA,MALBIS,0136526
1210296,5506078,-87.58333,30.55,ALABAMA,MALBIS,0136567
1210297,5506079,-87.86667,30.83333,ALABAMA,CROSSROADS,0136507
1210294,5506076,-87.96667,30.683329999999998,ALABAMA,SPANISH FT,
1188508,5446236,-87.61667,33.23333,ALABAMA,NORTHPORT,0135476
1188508,5446236,-87.51666999999999,33.28333,ALABAMA,NORTHPORT,0135406
1188510,5446129,-87.43333,33.25,ALABAMA,TUSCALOOSA,0135453
15837,90739,-88.08,33.56,ALABAMA,MILLPORT,0135576
15837,90741,-88.0944,33.2533,ALABAMA,CARROLLTON,0135447
15837,90742,-87.57,33.26,ALABAMA,NORTHPORT,0135473
15837,90743,-87.18,34.2,ALABAMA,ADDISON,0135540
15837,90745,-87.4713,33.0805,ALABAMA,PHALAN,0135456
15837,90747,-87.16,33.45,ALABAMA,OAK GROVE,0135006
15837,90748,-86.865,33.5176,ALABAMA,THOMAS JCT,0135204
15837,90752,-86.8114,33.5169,ALABAMA,ACIPCO,0135203
15837,90754,-86.8632,33.2044,ALABAMA,MAYLENE,0135114
15837,90760,-86.8095,33.1484,ALABAMA,DARGIN,0135115
15837,90762,-86.822,33.1807,ALABAMA,ALABASTER SHELBY ARP,0135115
15837,90763,-86.7824,33.1803,ALABAMA,ALABASTER SHELBY ARP,0135040
15837,90771,-86.6,33.18,ALABAMA,COLUMBIANA,0135051
15837,90790,-86.4459,33.8716,ALABAMA,MATTAWANA,0135121
15837,90790,-86.3538,33.9141,ALABAMA,ONEONTA ROBBINS ARPT,0135121
15837,90793,-85.6295,33.9835,ALABAMA,GNATVILLE,0136272
15837,90793,-85.5674,33.992,ALABAMA,SPRING GARDEN,0136272
1147156,5340398,-86.11667,34.16667,ALABAMA,SARDIS CITY,0135956
86673,523121,-87.7811,31.78,ALABAMA,FULTON,0136451
61545,368232,-86.59,33.64,ALABAMA,TRUSSVILLE,0135173
61544,368228,-86.47,32.58,ALABAMA,PINE LEVEL,0136022
61544,368225,-86.73,32.49,ALABAMA,INDEPENDENCE,0136003
61544,368224,-87.31,32.19,ALABAMA,CRUMPTONIA,0136773
15837,90738,-85.17,32.3,ALABAMA,SEALE,0136875
61544,368218,-86.58,32.18,ALABAMA,HAYNEVILLE,0136040
61544,368215,-86.82,32.17,ALABAMA,COLLIRENE,0136785
1147515,5343209,-87.23333000000001,31.2,ALABAMA,WALLACE,0136426
1147516,5343210,-87.11667,31.33333,ALABAMA,LENOX,0136432
15841,90797,-87.0867,33.8252,ALABAMA,SIPSEY,0135584
15841,90795,-87.2651,33.8065,ALABAMA,JASPER,0135501
15837,90794,-85.51,33.42,ALABAMA,RICE MILL,0136280
61544,368217,-86.67,32.18,ALABAMA,HAYNEVILLE,0136040
1188465,5448654,-86.03333,32.0,ALABAMA,GRADY,0136036
15835,90706,-87.671,33.4475,ALABAMA,SAMANTHA,0135475
15835,90702,-87.9191,32.8316,ALABAMA,EUTAW,0135462
1188516,5446243,-86.68333,33.25,ALABAMA,COUNTYWIDE,0135043
1188517,5446244,-86.75,33.38333,ALABAMA,HELENA,0135244
1188517,5446244,-86.88333,33.26667,ALABAMA,HELENA,0135080
1188520,5446333,-86.56667,33.21667,ALABAMA,COLUMBIANA,0135051
1188520,5446333,-86.55,33.23333,ALABAMA,COLUMBIANA,0135186
1188525,5446338,-85.58333,33.1,ALABAMA,NEWSITE,0136276
1188525,5446338,-85.83333,33.1,ALABAMA,NEWSITE,0135010
1188525,5446339,-85.85,33.1,ALABAMA,ASHLAND,0135072
1188525,5446339,-85.56667,33.16667,ALABAMA,ASHLAND,0136276
1188525,5446340,-85.61667,33.06667,ALABAMA,WADLEY,0136256
1188525,5446340,-85.58333,33.08333,ALABAMA,WADLEY,0136276
1188525,5446341,-85.55,33.11667,ALABAMA,MILLTOWN,0136276
1188525,5446342,-85.55,33.1,ALABAMA,WADLEY,0136276
1188525,5446342,-85.53333,33.13333,ALABAMA,WADLEY,0136276
1188529,5446418,-86.76666999999999,32.3,ALABAMA,WHITE HALL,0136785
1188529,5446418,-86.78333,32.28333,ALABAMA,WHITE HALL,0136785
1188533,5446422,-85.33333,33.01667,ALABAMA,FIVE PTS,0136855
15835,90702,-87.8915,32.9095,ALABAMA,UNION,0135462
1215108,5521884,-87.96667,34.75,ALABAMA,ROSALIE,0135616
1215108,5520557,-86.85,34.48333,ALABAMA,LACON,0135640
1172741,5404651,-85.2,31.23333,ALABAMA,DOTHAN,0136312
1172741,5404652,-85.3,31.116670000000003,ALABAMA,COTTONWOOD,0136312
1172741,5404653,-85.45,31.116670000000003,ALABAMA,REHOBETH,0136301
15835,90706,-87.6648,33.4577,ALABAMA,SAMANTHA,0135475
1172744,5404659,-86.0,31.53333,ALABAMA,ELBA,0136323
43513,253363,-88.1214,33.7474,ALABAMA,VERNON,0135592
43765,254471,-85.27,32.62,ALABAMA,SALEM,0136804
1188540,5446512,-85.5,31.96667,ALABAMA,MT ANDREW,0136053
1188540,5446512,-85.36667,32.03333,ALABAMA,MT ANDREW,0136053
1188539,5446511,-85.51666999999999,32.05,ALABAMA,PEROTE,0136053
1188539,5446511,-85.7,31.98333,ALABAMA,PEROTE,0136005
43511,253350,-86.27,32.39,ALABAMA,CAPITAL HGTS,0136109
1188464,5448652,-85.8,31.866670000000003,ALABAMA,ORION,0136005
1188464,5448652,-86.01666999999999,31.96667,ALABAMA,ORION,0136081
1188463,5448651,-87.56667,33.2,ALABAMA,TUSCALOOSA,0135401
60881,371193,-87.13,34.8,ALABAMA,WHEELER LAKE NORTH,0135611
60881,371417,-87.2857,34.8658,ALABAMA,WHITEHEAD,0135652
60881,371418,-87.2659,34.9372,ALABAMA,ANDERSON,0135648
60881,371419,-87.24,34.8514,ALABAMA,OLIVER,0135652
60881,371421,-87.7712,34.9385,ALABAMA,CLOVERDALE,0135633
60881,371422,-87.7712,34.9384,ALABAMA,CLOVERDALE,0135633
60881,371423,-87.1074,34.7724,ALABAMA,RIPLEY,0135611
87271,526672,-86.58,32.81,ALABAMA,FALAKTO,0135046
1188439,5445844,-86.73333000000001,32.36667,ALABAMA,WHITE HALL,0136752
1188439,5445844,-86.46667,32.28333,ALABAMA,WHITE HALL,0136108
1188440,5445845,-86.03333,32.63333,ALABAMA,ECLECTIC,0136024
87266,526637,-85.9899,33.9815,ALABAMA,ORD,0135903
1188441,5445846,-85.18333,32.88333,ALABAMA,LANETT,
1188443,5445848,-87.06667,32.4,ALABAMA,SELMA,0136701
1188443,5445848,-86.86667,32.26667,ALABAMA,SELMA,0136785
1188444,5445849,-85.36667,32.65,ALABAMA,LOACHAPOKA,0136801
1188444,5445849,-85.58333,32.6,ALABAMA,LOACHAPOKA,0136832
60950,379790,-86.98,34.62,ALABAMA,DECATUR,0135671
60950,379789,-87.28,34.48,ALABAMA,MOULTON,0135650
44805,265211,-86.98,34.61,ALABAMA,DECATUR,0135601
44805,265212,-86.98,34.26,ALABAMA,WEST PT,0135179
60950,379786,-86.98,34.62,ALABAMA,DECATUR,0135671
60950,379785,-87.08,34.62,ALABAMA,TRINITY,0135673
60881,371192,-87.12,34.71,ALABAMA,LAWNGATE,0135611
44805,265213,-87.41,34.68,ALABAMA,TOWN CREEK,0135672
44805,265215,-86.75,34.86,ALABAMA,HARVEST EPPS ARPT,0135749
44805,265222,-86.21,34.73,ALABAMA,PLEASANT GROVE,0135776
44805,265224,-85.64,34.72,ALABAMA,IDER,0135981
1188446,5445852,-86.73333000000001,32.33333,ALABAMA,WHITE HALL,0136752
1188446,5445852,-86.5,32.33333,ALABAMA,WHITE HALL,0136752
1188445,5445851,-85.66667,32.56667,ALABAMA,NOTASULGA,0136866
44805,265214,-86.42,34.54,ALABAMA,NEW HOPE,0135760
60950,379791,-86.5824,34.53,ALABAMA,LACEYS SPG,0135754
60881,371191,-87.0,34.82,ALABAMA,ATHENS,0135611
60881,371189,-88.14,34.44,ALABAMA,RED BAY MUNI ARPT,0135582
60881,371155,-87.2,34.8,ALABAMA,WHEELER LAKE NORTH,0135611
60881,371156,-87.12,34.76,ALABAMA,RIPLEY,0135611
60881,371157,-87.18,34.8,ALABAMA,WHEELER LAKE NORTH,0135611
60881,371158,-86.5,34.32,ALABAMA,ARAB,0135016
60881,371159,-86.95,34.08,ALABAMA,TRIMBLE,0135057
60881,371161,-86.85,34.92,ALABAMA,BETHEL,0135613
60881,371162,-87.09,34.61,ALABAMA,TRINITY,0135673
60881,371163,-87.14,34.57,ALABAMA,CADDO,0135673
60881,371164,-87.83,34.95,ALABAMA,THREET,0135633
60881,371166,-87.08,34.52,ALABAMA,BASHAM,0135603
60881,371167,-87.17,34.42,ALABAMA,POOL,0135619
60881,371168,-87.69,34.85,ALABAMA,PETERSVILLE,0135633
60881,371169,-87.02,34.37,ALABAMA,MASSEY,0135622
60881,371171,-87.06,34.47,ALABAMA,NEEL,0135619
60881,371172,-87.28,34.48,ALABAMA,MOULTON,0135650
60881,371173,-87.29,34.48,ALABAMA,MOULTON,0135650
60881,371174,-87.29,34.48,ALABAMA,MOULTON,0135650
60881,371188,-87.29,34.9,ALABAMA,ANDERSON,0135652
60881,371187,-87.18,34.8,ALABAMA,WHEELER LAKE NORTH,0135611
60881,371186,-87.0,34.82,ALABAMA,ATHENS,0135611
60881,371185,-87.18,34.8,ALABAMA,WHEELER LAKE NORTH,0135611
60881,371184,-87.05,34.87,ALABAMA,CARTWRIGHT,0135620
60881,371183,-87.14,34.93,ALABAMA,MT ROZELL,0135647
60881,371190,-88.14,34.44,ALABAMA,RED BAY MUNI ARPT,0135582
60881,371182,-87.15,34.99,ALABAMA,LESTER,0135647
60881,371180,-88.0586,34.3765,ALABAMA,VINA,0135593
60881,371179,-88.14,34.44,ALABAMA,RED BAY MUNI ARPT,0135582
60881,371178,-86.95,34.11,ALABAMA,TRIMBLE,0135057
60881,371177,-86.8959,34.9402,ALABAMA,THACH,0135620
60881,371176,-86.97,34.93,ALABAMA,ELKMONT,0135620
60881,371175,-87.29,34.48,ALABAMA,MOULTON,0135650
60881,371181,-87.29,34.45,ALABAMA,WREN,0135650
1147154,5340396,-87.81667,34.26667,ALABAMA,HACKLEBURG,0135564
60950,379792,-86.77,34.7,ALABAMA,MADISON,0135758
60950,379808,-86.28,34.63,ALABAMA,WOODVILLE,0135776
44803,259754,-87.176,34.6495,ALABAMA,HILLSBORO,0135643
1188447,5445853,-86.36667,32.18333,ALABAMA,PINTLALLA,0136043
1188447,5445853,-86.03333,32.0,ALABAMA,PINTLALLA,0136036
1188448,5445854,-86.71667,33.53333,ALABAMA,IRONDALE,0135210
1188449,5445855,-86.75,33.63333,ALABAMA,BIRMINGHAM ARPT,0135217
1188450,5445856,-85.23333000000001,32.46667,ALABAMA,LADONIA,0136874
1188450,5445856,-85.0,32.46667,ALABAMA,LADONIA,0136867
1188451,5445937,-86.25,33.83333,ALABAMA,ASHVILLE,0135953
1188452,5445938,-86.43333,33.65,ALABAMA,BRANCHVILLE,0135120
1188453,5445939,-85.16667,32.33333,ALABAMA,SEALE,0136875
1188454,5445940,-86.6,32.18333,ALABAMA,HAYNEVILLE,0136040
1188455,5445941,-86.81667,32.05,ALABAMA,BRAGGS,0136761
1188456,5445942,-88.11667,32.53333,ALABAMA,LIVINGSTON,0135470
1188456,5445942,-88.25,32.63333,ALABAMA,LIVINGSTON,0135470
1188457,5445943,-85.93333,32.03333,ALABAMA,ORION,0136081
44788,259658,-87.74,31.91,ALABAMA,THOMASVILLE,0136784
44788,259657,-87.73,31.79,ALABAMA,FULTON,0136451
1188462,5448650,-86.58333,31.98333,ALABAMA,FT DEPOSIT,0136032
1188461,5448649,-88.16667,32.81667,ALABAMA,GEIGER,0135464
1188461,5448649,-88.3,32.86667,ALABAMA,GEIGER,0135459
1188460,5448648,-86.0,33.78333,ALABAMA,OHATCHEE,0136271
1188459,5448647,-85.71667,33.75,ALABAMA,ANNISTON,0136207
1188459,5448647,-85.95,33.75,ALABAMA,ANNISTON,
44803,259754,-87.1943,34.649,ALABAMA,HILLSBORO,0135643
1188458,5448646,-86.11667,33.45,ALABAMA,TALLADEGA,0135160
44788,259633,-87.5603,30.5497,ALABAMA,ELSANOR,0136567
44788,259633,-87.5688,30.526,ALABAMA,ELSANOR,0136567
44788,259636,-88.1333,30.6717,ALABAMA,COTTAGE HILL,0136609
44788,259636,-88.1535,30.6706,ALABAMA,COTTAGE HILL,0136609
44788,259654,-88.36,30.82,ALABAMA,WILMER,0136587
44788,259656,-87.73,31.79,ALABAMA,FULTON,0136451
1188458,5448646,-85.86667,33.53333,ALABAMA,TALLADEGA,0136268
60950,379798,-86.4,34.53,ALABAMA,NEW HOPE,0135760
44803,259755,-86.8418,34.645,ALABAMA,GREENBRIER,0135756
44803,259756,-85.9995,34.3798,ALABAMA,CHIGGER HILL,0135974
60950,379809,-86.6402,34.47,ALABAMA,MORGAN CITY,0135670
60950,379811,-86.3026,34.33,ALABAMA,GUNTERSVILLE,0135976
60950,379813,-86.68,34.25,ALABAMA,FAIRVIEW,0135058
60950,379817,-85.87,34.5,ALABAMA,RAINSVILLE,0135986
60950,379819,-85.87,34.5,ALABAMA,RAINSVILLE,0135986
60950,379820,-86.27,34.4576,ALABAMA,GRANT,0135976
60950,379821,-85.8176,34.5802,ALABAMA,SYLVANIA,0135978
60950,379823,-86.25,34.33,ALABAMA,GUNTERSVILLE,0135976
60950,379825,-85.6,34.58,ALABAMA,MENTONE,0135989
60950,379826,-86.0,34.2655,ALABAMA,CROSSVILLE,0135962
44805,265210,-87.73,34.48,ALABAMA,GRAVEL HILL,0135654
44805,265209,-86.62,34.17,ALABAMA,HOLLY POND,0135055
44805,265208,-86.5,34.32,ALABAMA,ARAB,0135016
44805,265207,-87.03,34.85,ALABAMA,O NEAL,0135614
44805,265206,-87.73,34.49,ALABAMA,GRAVEL HILL,0135654
60965,364325,-85.64,31.44,ALABAMA,OZARK,0136360
44805,259800,-86.4831,34.3514,ALABAMA,GRASSY,0135016
44803,259756,-86.0671,34.3474,ALABAMA,WHITON,0135962
44803,259757,-86.1085,34.2693,ALABAMA,MC VILLE,0135957
44803,259757,-86.124,34.2692,ALABAMA,MC VILLE,0135957
44805,259795,-85.9223,34.5944,ALABAMA,DUTTON,0135744
44805,259795,-85.958,34.583,ALABAMA,SECTION,0135771
44805,259796,-85.7236,34.7041,ALABAMA,ROSLIE,0135765
44803,259755,-86.8463,34.6431,ALABAMA,GREENBRIER,0135756
44805,259796,-85.7816,34.6854,ALABAMA,ROSLIE,0135765
44805,259797,-85.7236,34.7041,ALABAMA,SKAGGS CORNER,0135765
44805,259798,-85.7544,34.6638,ALABAMA,CENTRAL,0135765
44805,259798,-85.8542,34.624,ALABAMA,BROWNTOWN,0135765
44805,259799,-85.7544,34.6638,ALABAMA,ELLIOT XRDS,0135765
44805,259799,-85.5602,34.7436,ALABAMA,SULPHUR SPGS,0135966
44805,259800,-86.4988,34.3477,ALABAMA,NORTH ARAB,0135016
44805,259797,-85.6386,34.7586,ALABAMA,IDER,0135981
1124788,5272358,-88.31667,31.866670000000003,ALABAMA,GILBERTOWN,0136908
1124789,5272359,-88.3,31.9,ALABAMA,TOXEY,0136908
1124790,5272360,-87.06667,31.116670000000003,ALABAMA,BREWTON,0136426
37665,219139,-86.98,34.93,ALABAMA,ELKMONT,0135620
37665,219138,-87.09,34.74,ALABAMA,LAWNGATE,0135611
37665,219137,-87.0783,34.6948,ALABAMA,LAWNGATE,0135611
37665,219136,-87.17,34.79,ALABAMA,WHEELER LAKE NORTH,0135611
1132270,5284534,-87.05,34.46667,ALABAMA,NEEL,0135640
1132272,5284537,-86.0,34.28333,ALABAMA,CROSSVILLE,0135962
37665,219135,-87.28,34.48,ALABAMA,MOULTON,0135650
37665,219134,-87.18,34.6,ALABAMA,HILLSBORO,0135643
37665,219132,-87.41,34.59,ALABAMA,HATTON,0135672
37665,219131,-87.62,34.35,ALABAMA,CHESTNUT RIDGE,0135581
37665,219130,-87.58,34.63,ALABAMA,SPRING VLY,0135646
37665,219129,-87.79,34.35,ALABAMA,NIX,0135581
1132273,5284538,-87.33333,33.35,ALABAMA,KELLERMAN,0135444
1132273,5284538,-87.25,33.38333,ALABAMA,KELLERMAN,0135444
37665,219140,-86.96,34.79,ALABAMA,ATHENS,0135611
1132273,5284539,-86.86667,33.45,ALABAMA,NORTH JOHNS,0135211
1132274,5284540,-86.86667,33.35,ALABAMA,BESSEMER,0135244
1132274,5284540,-87.06667,33.31667,ALABAMA,BESSEMER,0135111
1132274,5284541,-86.95,33.3,ALABAMA,HELENA,0135022
1132274,5284541,-86.36667,33.33333,ALABAMA,HELENA,0135078
1132274,5284542,-86.36667,33.31667,ALABAMA,CHILDERSBURG,0135014
1132274,5284542,-85.96667,33.31667,ALABAMA,CHILDERSBURG,0135160
1132274,5284543,-85.95,33.35,ALABAMA,ASHLAND,0135160
1208810,5503245,-86.18333,34.15,ALABAMA,SARDIS CITY,0135956
1208809,5503244,-85.33333,31.883329999999997,ALABAMA,CLAYTON,0136016
1140480,5312251,-88.31667,31.633329999999997,ALABAMA,MILLRY,0136558
1140474,5312245,-86.33333,31.0,ALABAMA,FLORALA,0136442
1140451,5312156,-87.06667,31.116670000000003,ALABAMA,BREWTON,0136426
1132274,5284543,-85.65,33.31667,ALABAMA,ASHLAND,0136266
1132274,5284544,-85.36667,33.21667,ALABAMA,WEDOWEE,0136274
1132273,5284539,-87.23333000000001,33.36667,ALABAMA,NORTH JOHNS,0135444
1132268,5284532,-87.15,34.48333,ALABAMA,MOULTON,0135650
1132268,5284532,-87.28333,34.48333,ALABAMA,MOULTON,0135650
37665,219141,-86.95,34.24,ALABAMA,WEST PT,0135057
1192563,5459885,-87.66667,34.8,ALABAMA,FLORENCE,0135630
1192563,5459893,-86.01666999999999,34.45,ALABAMA,FYFFE,0135975
1192563,5459894,-86.03333,34.5,ALABAMA,LANGSTON,0135771
1192563,5459895,-86.0,34.35,ALABAMA,GERALDINE,0135974
1192565,5460163,-86.25,34.75,ALABAMA,TRENTON,0135774
1192565,5460165,-86.98333000000001,34.61667,ALABAMA,DECATUR,0135601
1192565,5460168,-86.53333,34.31667,ALABAMA,ARAB,0135016
37665,219970,-85.58,34.57,ALABAMA,HIGH PT,0135984
37665,219970,-85.63,34.48,ALABAMA,RIVER PARK,0135967
37665,219965,-85.8671,34.5077,ALABAMA,RAINSVILLE,0135986
1132257,5284407,-86.45,34.25,ALABAMA,RED HILL,0135976
1132257,5284407,-86.28333,34.25,ALABAMA,RED HILL,0135950
1132262,5284525,-85.38333,32.76667,ALABAMA,LAFAYETTE,0136862
1132265,5284528,-87.58333,34.48333,ALABAMA,NEWBURG,0135654
1132266,5284530,-87.41667,34.56667,ALABAMA,HATTON,0135672
1132267,5284531,-87.08333,34.61667,ALABAMA,TRINITY,0135673
37665,219965,-85.7339,34.6282,ALABAMA,NEW HOME,0135978
37665,219141,-87.1,34.18,ALABAMA,JONES CHAPEL,0135057
37665,219144,-86.84,34.18,ALABAMA,CULLMAN,0135055
37665,219145,-86.96,34.07,ALABAMA,TRIMBLE,0135057
37665,219146,-86.75,34.7,ALABAMA,MADISON,0135758
37665,219147,-86.96,34.79,ALABAMA,ATHENS,0135611
37665,219148,-86.96,34.79,ALABAMA,ATHENS,0135611
1132274,5284544,-85.53333,33.25,ALABAMA,WEDOWEE,0136278
37665,219149,-86.75,34.7,ALABAMA,MADISON,0135758
37665,219151,-86.69,34.25,ALABAMA,FAIRVIEW,0135058
37665,219947,-86.71,34.28,ALABAMA,COUNTY LINE,0135058
37665,219948,-86.84,34.17,ALABAMA,CULLMAN,0135055
37665,219950,-86.2919,34.3607,ALABAMA,GUNTERSVILLE MUNI AR,0135976
37665,219951,-86.22,34.37,ALABAMA,MARTLING,0135976
37665,219963,-86.0027,34.3652,ALABAMA,GERALDINE,0135974
37665,219150,-86.7144,34.7861,ALABAMA,MONROVIA,0135806
1132276,5284653,-85.46667,34.08333,ALABAMA,FORNEY,0135960
1132277,5284654,-86.95,34.23333,ALABAMA,WEST PT,0135057
1132280,5284657,-86.81667,33.31667,ALABAMA,HOOVER,0135124
17649,102046,-86.7654,31.3255,ALABAMA,PAUL,0136401
17649,102046,-86.67200000000001,31.392,ALABAMA,MELROSE,0136474
17649,102052,-86.5785,31.4712,ALABAMA,SOUTH,0136474
17649,102052,-86.6725,31.392,ALABAMA,RED LEVEL,0136474
17655,102078,-87.68,30.42,ALABAMA,FOLEY,0136535
1208802,5503237,-87.63333,33.21667,ALABAMA,NORTHPORT,0135476
1208800,5503235,-87.61667,34.23333,ALABAMA,HALEYVILLE,0135565
1208799,5503234,-87.28333,33.83333,ALABAMA,JASPER,0135501
1208798,5503233,-87.41667,33.88333,ALABAMA,JASPER,0135549
1208797,5503232,-87.38333,33.91667,ALABAMA,JASPER,0135578
1208796,5503231,-87.58333,33.21667,ALABAMA,NORTHPORT,0135476
1208795,5503230,-87.58333,33.25,ALABAMA,NORTHPORT,0135473
1208794,5504835,-86.6,33.18333,ALABAMA,COLUMBIANA,0135051
1208793,5504834,-87.91667,34.06667,ALABAMA,HAMILTON,0135570
1208792,5504833,-87.86667,34.0,ALABAMA,GUIN,0135563
1208791,5504832,-86.76666999999999,33.1,ALABAMA,CALERA,0135040
1208790,5504831,-86.95,33.51667,ALABAMA,PLEASANT GROVE,0135224
1208771,5504762,-86.4,33.9,ALABAMA,ONEONTA,0135121
1208773,5504814,-86.73333000000001,33.45,ALABAMA,CAHABA HGTS,0135243
84425,509704,-85.54,31.31,ALABAMA,PINCKARD,0136371
1208775,5504816,-86.2,33.93333,ALABAMA,STEELE,0135987
1208776,5504817,-86.46667,33.95,ALABAMA,ONEONTA,0135121
1208777,5504818,-86.95,33.41667,ALABAMA,BESSEMER,0135020
36711,213094,-87.48,33.84,ALABAMA,POCAHONTAS,0135587
1208778,5504819,-86.95,33.41667,ALABAMA,BESSEMER,0135020
1208781,5504822,-86.81667,33.31667,ALABAMA,HOOVER,0135124
1208782,5504823,-86.76666999999999,33.48333,ALABAMA,HOMEWOOD,0135223
1208785,5504826,-86.76666999999999,33.48333,ALABAMA,HOMEWOOD,0135223
1208787,5504828,-86.81667,33.31667,ALABAMA,HOOVER,0135124
1208788,5504829,-88.11667,33.75,ALABAMA,VERNON,0135592
1208789,5504830,-86.98333000000001,33.48333,ALABAMA,PLEASANT GROVE,0135127
1208780,5504821,-86.93333,33.43333,ALABAMA,BESSEMER,0135020
37834,220277,-85.9602,34.2203,ALABAMA,RODENTOWN,0135954
36711,213095,-87.3468,33.8921,ALABAMA,GAMBLE,0135503
36721,216187,-87.037,34.372,ALABAMA,MASSEY,0135619
1132281,5284658,-85.73333000000001,34.43333,ALABAMA,FT PAYNE,0135967
1132282,5284660,-86.0,34.13333,ALABAMA,DUCK SPGS,0135954
1132283,5284661,-86.35,32.26667,ALABAMA,HOPE HULL,0136043
1132284,5284663,-85.26666999999999,31.98333,ALABAMA,EUFAULA,0136053
1132285,5284664,-85.06667,32.11667,ALABAMA,COTTONTON,0136027
1132285,5284665,-85.01666999999999,32.33333,ALABAMA,FT MITCHELL,0136856
1208803,5503238,-87.58333,33.21667,ALABAMA,NORTHPORT,0135476
114840,688906,-85.72,34.16,ALABAMA,LEESBURG,0135960
114840,688908,-87.25,33.92,ALABAMA,MARIGOLD,0135503
114840,688909,-85.68,34.16,ALABAMA,CENTRE,0135960
114840,688910,-85.6,34.22,ALABAMA,CEDAR BLUFF,0135959
114840,688911,-87.3,33.91,ALABAMA,MANCHESTER,0135503
114840,688912,-87.28,33.91,ALABAMA,MARIGOLD,0135503
114840,688913,-88.16,34.29,ALABAMA,SHOTTSVILLE,0135593
114840,688914,-87.2,33.95,ALABAMA,MARIGOLD,0135504
114840,688915,-87.82,34.28,ALABAMA,HACKLEBURG,0135564
114840,688916,-86.82,33.82,ALABAMA,WARRIOR,0135180
36721,216187,-87.085,34.36,ALABAMA,PENN,0135619
36721,216190,-87.0,34.3,ALABAMA,BATTLEGROUND,0135179
36721,216195,-86.5037,34.3505,ALABAMA,NORTH ARAB,0135016
114869,689093,-85.82799999999999,31.3302,ALABAMA,ENTERPRISE,0136330
114840,688955,-85.78,34.01,ALABAMA,BALLPLAY,0135903
114840,688948,-85.78,33.99,ALABAMA,BALLPLAY,0136272
36721,216183,-87.68,34.88,ALABAMA,JACKSONBURG,0135633
114840,688946,-85.87,33.99,ALABAMA,HOKES BLUFF,0135903
114840,688925,-85.94,33.97,ALABAMA,GLENCOE,0135903
114840,688924,-86.06,34.0,ALABAMA,ATTALLA,0135904
114840,688922,-86.61,33.91,ALABAMA,LOCUST FORK,0135097
114840,688921,-87.61,34.25,ALABAMA,HALEYVILLE,0135565
114840,688920,-87.62,34.23,ALABAMA,HALEYVILLE,0135565
114840,688919,-86.59,34.08,ALABAMA,BLOUNTSVILLE,0135031
114840,688926,-86.0074,33.99,ALABAMA,EAST GASDEN,0135901
1208770,5504761,-86.2,33.93333,ALABAMA,STEELE,0135987
37834,220277,-85.7105,34.3439,ALABAMA,DOG TOWN,0135967
37834,220469,-86.7213,34.1481,ALABAMA,WELTI,0135055
38229,222118,-88.11,33.76,ALABAMA,VERNON,0135592
38229,222117,-87.7018,34.2743,ALABAMA,BEAR CREEK,0135543
38229,222111,-88.16,34.14,ALABAMA,BEXAR,0135570
38228,222393,-88.1891,32.3592,ALABAMA,SOCTUM HILL,0136922
38228,222384,-88.2659,32.3598,ALABAMA,SILOAM,0136907
38228,222381,-85.9747,32.5372,ALABAMA,BUTTS MILL,0136078
38228,222377,-86.58,32.18,ALABAMA,HAYNEVILLE,0136040
38228,222376,-86.2,32.54,ALABAMA,WETUMPKA,0136092
114341,685202,-85.76,33.8,ALABAMA,JACKSONVILLE,0136265
38181,221929,-86.25,34.8,ALABAMA,HOLLYTREE,0135751
38181,221921,-86.75,34.38,ALABAMA,ODEN RIDGE,0135621
38181,221918,-87.97,34.76,ALABAMA,CHEROKEE,0135616
63633,380939,-85.3,31.1224,ALABAMA,COTTONWOOD,0136312
63633,380945,-85.39,31.22,ALABAMA,DOTHAN,0136301
38229,222119,-87.617,34.2585,ALABAMA,HALEYVILLE POSEY ARP,0135565
114495,686575,-88.32,31.22,ALABAMA,DEER PARK,0136584
114495,686594,-87.25,31.63,ALABAMA,TUNNELL SPGS,0136471
114495,689006,-86.5671,31.8079,ALABAMA,GREENVILLE,0136037
114535,686892,-88.18,34.21,ALABAMA,BEXAR,0135593
114535,686893,-87.93,34.14,ALABAMA,HAMILTON,0135570
114535,686894,-88.13,34.08,ALABAMA,BARNESVILLE,0135552
114535,686895,-88.02,34.15,ALABAMA,HAMILTON ARPT,0135570
114535,686896,-87.99,34.14,ALABAMA,HAMILTON,0135570
114535,686897,-88.03,34.16,ALABAMA,HAMILTON ARPT,0135570
114535,686898,-87.84,34.22,ALABAMA,HACKLEBURG,0135564
1094108,5140725,-85.86667,31.316670000000002,ALABAMA,ENTERPRISE,0136330
1132020,5285721,-85.35,31.3,ALABAMA,KINSEY,0136303
1132053,5285794,-86.61667,31.4,ALABAMA,RED LEVEL,0136474
1154036,5360488,-87.5,34.96667,ALABAMA,ALBERTVILLE,0135645
1154036,5360489,-87.45,34.86667,ALABAMA,PAINTER,0135645
114495,686592,-87.02,31.3,ALABAMA,CASTLEBERRY,0136432
38229,222120,-88.02,33.93,ALABAMA,BEAVERTON,0135544
38229,222121,-88.0436,33.6731,ALABAMA,KINGVILLE,0135576
38229,222122,-88.3833,32.4203,ALABAMA,CUBA,0136907
38231,222088,-86.867,33.2391,ALABAMA,TURNER,0135114
38231,222088,-86.823,33.2538,ALABAMA,SCOTROCK,0135007
38231,222087,-86.6351,32.8553,ALABAMA,CLANTON GRAGG ARPT,0135045
38231,222087,-86.6814,32.8472,ALABAMA,CLANTON,0135045
38229,222141,-86.5262,32.851,ALABAMA,CLANTON GRAGG ARPT,0135046
38229,222137,-87.2167,34.0713,ALABAMA,ARLEY,0135541
38229,222136,-87.39,33.71,ALABAMA,COAL VLY,0135579
63543,405881,-88.31,32.87,ALABAMA,GEIGER,0135459
63543,405884,-85.47,33.01,ALABAMA,PENTON,0136862
63543,405885,-85.75,33.31,ALABAMA,LINEVILLE,0136266
63543,405886,-85.59,33.48,ALABAMA,PINE TUCKEY,0136264
63543,405887,-86.81,33.46,ALABAMA,MAGELLA,0135209
63543,405888,-87.26,33.42,ALABAMA,SHOOK,0135006
63543,405889,-85.18,32.82,ALABAMA,LANGDALE,0136854
63543,405890,-85.83,33.6,ALABAMA,(ANB)ANNISTON CALHOU,0136203
63543,405891,-85.21,32.87,ALABAMA,FAIRVIEW,0136863
63543,405892,-85.79,33.63,ALABAMA,HOBSON CITY,0136207
38229,222123,-87.7361,34.1279,ALABAMA,WHITEHOUSE,0135565
38229,222125,-87.5887,33.8068,ALABAMA,HOWARD,0135549
38229,222126,-87.79,33.45,ALABAMA,MOORES BRIDGE,0135458
38229,222129,-87.3971,33.9365,ALABAMA,SARAGOSSA,0135578
38229,222129,-87.5279,33.8917,ALABAMA,CARBON HILL,0135549
38229,222130,-87.43,33.83,ALABAMA,TOWNLEY,0135587
1154036,5361583,-87.66667,34.95,ALABAMA,HANCEVILLE,0135634
38229,222135,-87.4673,34.2042,ALABAMA,PLEASANT HILL,0135565
63543,405907,-86.27,33.6,ALABAMA,OAK RIDGE,0135125
63543,405905,-86.39,33.7,ALABAMA,ODENVILLE,0135120
63543,405901,-86.75,33.85,ALABAMA,NYOTA,0135180
63543,405900,-85.68,33.95,ALABAMA,PIEDMONT SPGS,0136272
63543,405898,-85.79,33.61,ALABAMA,HOBSON CITY,0136203
63543,405894,-86.91,32.9,ALABAMA,RANDOLPH,0136792
63543,405909,-85.6,34.22,ALABAMA,CEDAR BLUFF,0135959
1154036,5361584,-87.18333,34.63333,ALABAMA,HANCEVILLE,0135643
1154036,5361585,-86.61667,34.73333,ALABAMA,ALBERTVILLE,0135816
1154036,5361586,-86.08333,34.91667,ALABAMA,BOAZ,0135768
1154036,5362473,-86.58333,34.93333,ALABAMA,MT HOPE,0135750
1154036,5362474,-86.58333,34.93333,ALABAMA,COLBERT HGTS,0135750
1154036,5362474,-86.56667,34.91667,ALABAMA,COLBERT HGTS,0135750
1154036,5362475,-86.45,34.88333,ALABAMA,TONEY,0135761
1154036,5362476,-86.93333,34.43333,ALABAMA,MOULTON,0135640
1154036,5362477,-86.9,34.36667,ALABAMA,MOULTON,0135622
1154036,5362478,-86.5,34.31667,ALABAMA,HAZEL GREEN,0135016
1154036,5362479,-86.93333,34.43333,ALABAMA,MT HOPE,0135640
1154036,5362522,-87.0,34.3,ALABAMA,WOODVILLE,0135179
1154036,5362523,-86.25,34.75,ALABAMA,HAZEL GREEN,0135774
1154036,5362524,-86.06667,34.26667,ALABAMA,HAZEL GREEN,0135962
1154036,5362525,-85.78333,34.46667,ALABAMA,NEW MARKET,0135968
1154036,5362526,-86.96667,33.98333,ALABAMA,HARTSELLE,0135077
1154036,5362527,-86.76666999999999,34.06667,ALABAMA,FALKVILLE,0135077
1154036,5362528,-86.78333,34.06667,ALABAMA,ARAB,0135077
1154036,5362529,-86.86667,34.1,ALABAMA,HARTSELLE,0135057
1154036,5362530,-86.76666999999999,34.06667,ALABAMA,BATTLEGROUND,0135077
37834,221310,-85.5888,34.5256,ALABAMA,BANKHEAD,0135984
37834,221310,-85.5183,34.5474,ALABAMA,BANKHEAD,0135984
37834,232519,-86.3858,34.2035,ALABAMA,NIXON CHAPEL,0135980
37834,232519,-86.1085,34.3181,ALABAMA,MC VILLE,0135962
1154036,5362537,-86.16667,34.2,ALABAMA,GOOD HOPE,0135957
1154036,5362536,-86.06667,34.3,ALABAMA,HANCEVILLE,0135962
1154036,5362472,-86.28333,34.63333,ALABAMA,COLBERT HGTS,0135776
1154036,5362535,-86.21667,34.26667,ALABAMA,HANCEVILLE,0135950
1154036,5362533,-86.16667,34.2,ALABAMA,HENAGAR,0135957
1154036,5362532,-86.21667,34.26667,ALABAMA,KILPATRICK,0135950
1154036,5362531,-86.73333000000001,34.06667,ALABAMA,TRENTON,0135077
1154036,5362531,-86.76666999999999,34.06667,ALABAMA,TRENTON,0135077
37834,232520,-86.1085,34.3181,ALABAMA,RODGERS,0135962
37834,232520,-85.7752,34.4558,ALABAMA,HENAGAR,0135968
1154036,5362534,-86.16667,34.2,ALABAMA,BREMEN,0135957
37834,220469,-86.8062,34.1036,ALABAMA,MIDWAY,0135077
1154036,5362471,-87.48333000000001,34.45,ALABAMA,SHEFFIELD,0135651
1154036,5362288,-87.43333,34.48333,ALABAMA,MT HOPE,0135672
1154036,5361587,-87.9,34.88333,ALABAMA,BOAZ,0135633
1154036,5362017,-86.51666999999999,34.25,ALABAMA,GREEN HILL,0135016
1154036,5362239,-87.78333,34.9,ALABAMA,HYTOP,0135633
1154036,5362240,-86.51666999999999,34.2,ALABAMA,GRAVELLY SPGS,0135031
1154036,5362241,-87.68333,34.85,ALABAMA,JOPPA,0135633
1154036,5362242,-87.7,34.73333,ALABAMA,BAILEYTON,0135674
1154036,5362243,-86.5,34.31667,ALABAMA,ARAB,0135016
1154036,5362244,-86.25,34.33333,ALABAMA,ALBERTVILLE,0135976
1154036,5362274,-87.73333000000001,34.51667,ALABAMA,SULLIVAN XRDS,0135653
1154036,5362275,-86.3,34.2,ALABAMA,CLOVERDALE,0135980
1154036,5362276,-87.73333000000001,34.51667,ALABAMA,CENTRAL HGTS,0135653
1154036,5362277,-87.65,34.81667,ALABAMA,JOPPA,0135630
1154036,5362278,-87.51666999999999,34.7,ALABAMA,PETERSVILLE,0135646
1132056,5285797,-86.33333,31.0,ALABAMA,FLORALA,0136442
1132063,5285881,-86.4,31.3,ALABAMA,SANFORD,0136421
1192403,5459782,-85.4,32.25,ALABAMA,HURTSBORO,0136860
1192404,5459783,-86.11667,33.61667,ALABAMA,LINCOLN,0135096
1154036,5362287,-87.28333,34.48333,ALABAMA,RUSSELLVILLE,0135650
1154036,5362286,-86.75,34.93333,ALABAMA,LEIGHTON,0135739
1154036,5362285,-87.7,34.66667,ALABAMA,FLORENCE,0135674
1154036,5362284,-87.41667,34.5,ALABAMA,RUSSELLVILLE,0135672
1154036,5362284,-87.36667,34.45,ALABAMA,RUSSELLVILLE,0135650
1154036,5362283,-87.7,34.66667,ALABAMA,HORTON,0135674
1154036,5362289,-86.58333,34.93333,ALABAMA,COURTLAND,0135750
1154036,5362282,-87.7,34.76667,ALABAMA,RUSSELLVILLE,0135660
1154036,5362280,-87.48333000000001,34.45,ALABAMA,ARAB,0135651
1154036,5362279,-87.73333000000001,34.51667,ALABAMA,TUSCUMBIA,0135653
1192425,5459870,-85.76666999999999,34.21667,ALABAMA,LEESBURG,0135983
1192424,5459869,-85.91667,33.58333,ALABAMA,COLDWATER,0136203
1192414,5459793,-87.48333000000001,34.0,ALABAMA,NAUVOO,0135578
1192407,5459786,-85.75,33.26667,ALABAMA,LINEVILLE,0136266
1154036,5362281,-87.3,34.66667,ALABAMA,GUNTERSVILLE,0135618
1208769,5504760,-86.81667,33.51667,ALABAMA,BIRMINGHAM,0135203
1208768,5504759,-86.68333,33.73333,ALABAMA,PINSON,0135126
1208768,5504759,-86.65,33.71667,ALABAMA,PINSON,0135126
83782,523225,-86.5345,33.8019,ALABAMA,SPRINGVILLE,0135133
83782,523223,-86.3934,33.9705,ALABAMA,TAITS GAP,0135952
4458,25258,-87.1096,31.98,ALABAMA,CAMDEN,0136768
4458,25257,-87.2118,31.98,ALABAMA,CAMDEN,0136726
4458,25256,-87.28,31.98,ALABAMA,CAMDEN,0136726
4458,25255,-87.73,31.92,ALABAMA,THOMASVILLE,0136784
4456,25250,-88.12,30.25,ALABAMA,DAUPHIN IS,0136528
83782,523223,-86.4871,33.8908,ALABAMA,ALLGOOD,0135121
83782,523012,-86.995,33.3592,ALABAMA,ISHKOODA,0135022
83782,523012,-86.9344,33.4109,ALABAMA,BROADMOOR,0135020
83782,523004,-87.111,33.3162,ALABAMA,WELLER,0135111
83782,523004,-87.0313,33.4009,ALABAMA,VIRGINIA,0135023
83782,522988,-87.1667,33.3587,ALABAMA,SUMTER,0135006
83782,522988,-87.18,33.3375,ALABAMA,WELLER,0135444
83782,523225,-86.5395,33.7993,ALABAMA,SPRINGVILLE,0135146
83782,522984,-87.18,33.3375,ALABAMA,YOLANDE,0135444
83782,522952,-86.9323,33.6284,ALABAMA,BROOKSIDE,0135073
83782,522952,-87.0055,33.5856,ALABAMA,MULGA MINE,0135005
83782,522948,-86.7673,33.8406,ALABAMA,NYOTA,0135180
83782,522948,-86.7644,33.864000000000004,ALABAMA,HAYDEN,0135180
33886,196314,-87.3571,34.4309,ALABAMA,LANDERSVILLE,0135650
83782,522940,-86.7673,33.8406,ALABAMA,COUNTY LINE,0135180
83782,522940,-86.8303,33.7514,ALABAMA,MORRIS,0135071
1218804,5530190,-87.75,30.616670000000003,ALABAMA,LOXLEY,0136551
1218805,5530191,-87.6,30.41667,ALABAMA,ELBERTA,0136530
1218808,5530194,-88.25,30.78333,ALABAMA,SEMMES,0136575
1218810,5530196,-88.06667,30.85,ALABAMA,SATSUMA,0136572
83782,522933,-87.4513,33.1559,ALABAMA,COTTONDALE,0135453
1218828,5530264,-87.5,31.3,ALABAMA,URIAH,0136480
83782,522933,-87.6345,33.0625,ALABAMA,HULL,0135463
83782,522984,-87.2197,33.3129,ALABAMA,YOLANDE,0135444
83782,523235,-86.3652,33.9473,ALABAMA,ONEONTA ROBBINS ARPT,0135121
83782,523235,-86.5345,33.8019,ALABAMA,INLAND JCT,0135133
83782,523242,-86.0209,34.1995,ALABAMA,WHITESBORO,0135957
64338,385376,-87.6464,30.42,ALABAMA,FOLEY,0136535
64342,385384,-88.13,30.58,ALABAMA,TILLMANS CORNER,0136582
64342,385385,-88.3252,30.5981,ALABAMA,MOBILE BATES FLD,0136695
64342,385720,-88.1213,30.5586,ALABAMA,MOBILE BROOKLEY FLD,0136582
64342,385721,-87.42,31.43,ALABAMA,FRISCO CITY,0136445
1208666,5504392,-85.85,33.26667,ALABAMA,ASHLAND,0136251
64403,385582,-86.5289,33.1608,ALABAMA,SHELBY,0135051
64403,385583,-85.25,33.08,ALABAMA,HICKORY FLAT,0136855
64403,385585,-86.6997,32.4434,ALABAMA,AUTAUGAVILLE,0136003
64403,385587,-87.03,32.09,ALABAMA,CARLOWVILLE,0136761
64403,385588,-85.81,31.64,ALABAMA,HAMILTON XRDS,0136010
64403,385589,-86.13,31.72,ALABAMA,GOSHEN,0136035
64403,385600,-85.4479,31.9914,ALABAMA,MT ANDREW,0136053
64403,385602,-87.65,34.25,ALABAMA,GODDARD,0135565
64403,385603,-87.41,34.03,ALABAMA,POPLAR SPGS,0135578
64403,385609,-87.0766,33.4827,ALABAMA,HOPKINS,0135023
64403,385610,-88.1424,33.7929,ALABAMA,VERNON LAMAR CO ARPT,0135592
83782,523242,-86.0439,34.1703,ALABAMA,WHITESBORO,0135956
83782,523244,-86.155,34.0896,ALABAMA,ROCKLEDGE,0135956
83782,523244,-86.1319,34.1776,ALABAMA,SARDIS CITY,0135956
83782,523245,-85.447,32.4322,ALABAMA,SOCIETY HILL,0136804
83782,523245,-85.4585,32.417,ALABAMA,SOCIETY HILL,0136804
83782,523250,-85.2302,32.4704,ALABAMA,HUGLEY,0136874
83782,522921,-88.2611,32.4331,ALABAMA,SILOAM,0136925
83782,523250,-85.2336,32.465,ALABAMA,HUGLEY,0136874
83782,523251,-85.0804,32.568000000000005,ALABAMA,STONEWALL,0136877
83782,523312,-87.22,34.07,ALABAMA,ARLEY,0135541
83782,523313,-86.5406,32.4188,ALABAMA,PRATTVILLE,0136067
83782,523315,-86.37,32.48,ALABAMA,MILLBROOK,0136054
83782,523317,-86.22,32.55,ALABAMA,WETUMPKA,0136092
64403,385611,-87.39,33.71,ALABAMA,COAL VLY,0135579
83782,523251,-85.2302,32.4704,ALABAMA,PRINCE XRD,0136874
83782,522921,-88.271,32.4208,ALABAMA,SILOAM,0136925
83782,522875,-87.6937,33.9149,ALABAMA,BAZEMORE,0135594
83782,522875,-87.7094,33.8878,ALABAMA,BAZEMORE,0135594
1208663,5504389,-86.48333000000001,32.46667,ALABAMA,PRATTVILLE,0136067
1208662,5504388,-85.36667,32.65,ALABAMA,OPELIKA,0136801
1208661,5504387,-87.31667,32.8,ALABAMA,HEIBERGER,0136756
1093694,5139312,-87.18333,33.75,ALABAMA,CORDOVA,0135550
1093693,5140418,-87.18333,34.2,ALABAMA,ADDISON,0135540
1093692,5140129,-86.95,34.23333,ALABAMA,WEST PT,0135057
1093691,5140128,-86.11667,34.81667,ALABAMA,SKYLINE,0135768
1093689,5140126,-86.55,33.55,ALABAMA,MOODY,0135094
1093688,5140125,-86.81667,33.51667,ALABAMA,BIRMINGHAM,0135203
1093687,5140124,-86.9,34.31667,ALABAMA,FALKVILLE,0135622
64545,386196,-87.87,34.06,ALABAMA,TWIN,0135563
64545,386197,-87.82,33.4,ALABAMA,ECHOLA,0135458
64548,386199,-85.98,33.75,ALABAMA,OHATCHEE,
1093686,5140123,-87.58333,34.8,ALABAMA,FLORENCE,0135661
1093685,5140122,-86.75,33.56667,ALABAMA,BIRMINGHAM ARPT,0135212
1093684,5140121,-87.53333,33.88333,ALABAMA,CARBON HILL,0135549
64565,386865,-88.31,32.62,ALABAMA,BOYD,0135470
1154621,5364862,-86.76666999999999,34.7,ALABAMA,MADISON,0135758
1154621,5364862,-86.73333000000001,34.7,ALABAMA,MADISON,0135758
1154621,5364860,-87.01666999999999,34.83333,ALABAMA,ATHENS,0135614
1154621,5364859,-87.08333,34.85,ALABAMA,SHANGHAI,0135614
1154621,5364859,-87.01666999999999,34.83333,ALABAMA,SHANGHAI,0135614
1154621,5364858,-87.68333,34.85,ALABAMA,FLORENCE,0135633
1208664,5504390,-85.95,33.53333,ALABAMA,MUNFORD,0136268
1154621,5364858,-87.75,34.8,ALABAMA,FLORENCE,0135633
1154621,5364790,-85.73333000000001,34.95,ALABAMA,BRIDGEPORT,0135740
1154621,5364784,-86.21667,34.26667,ALABAMA,ALBERTVILLE,0135950
1154621,5364783,-86.25,34.33333,ALABAMA,GUNTERSVILLE,0135976
1154621,5364505,-86.98333000000001,34.61667,ALABAMA,DECATUR,0135601
1154621,5364504,-87.28333,34.38333,ALABAMA,MOULTON,0135650
1154621,5364502,-86.9,34.36667,ALABAMA,FALKVILLE,0135622
1154621,5364857,-87.66667,34.75,ALABAMA,MUSCLE SHOALS,0135661
64338,385375,-88.1,30.4711,ALABAMA,BELLEFONTAINE,0136582
1208665,5504391,-85.85,33.33333,ALABAMA,ASHLAND,0136266
64527,399503,-85.9964,34.3718,ALABAMA,GERALDINE,0135974
83782,522872,-87.99799999999999,34.1854,ALABAMA,PLEASANT RIDGE,0135570
83782,522872,-87.8874,34.246,ALABAMA,WIGINTON,0135564
83782,508054,-87.1945,33.8344,ALABAMA,JASPER,0135504
83782,508054,-87.1719,33.8617,ALABAMA,JASPER WALKER CO ARP,0135504
83782,508053,-87.6937,33.9149,ALABAMA,TEXAS,0135594
83782,508053,-87.6763,33.9842,ALABAMA,BAZEMORE,0135594
83782,508051,-88.1759,33.5107,ALABAMA,STAFFORD,0135461
83782,508051,-88.2802,33.4888,ALABAMA,STAFFORD,0135461
83782,508042,-88.1516,33.5785,ALABAMA,FERNBANK,0135576
33886,196314,-87.3701,34.4314,ALABAMA,LANDERSVILLE,0135650
83782,508042,-88.2741,33.5379,ALABAMA,FERNBANK,0135576
64489,386182,-87.2519,33.9146,ALABAMA,MARIGOLD,0135503
64489,386183,-86.48,33.94,ALABAMA,ONEONTA,0135121
64491,386232,-85.6614,32.6772,ALABAMA,ROXANA,0136832
64491,386232,-85.6899,32.6557,ALABAMA,ROXANA,0136850
64492,386249,-88.1501,34.1816,ALABAMA,BEXAR,0135570
64493,386272,-86.58,32.18,ALABAMA,HAYNEVILLE,0136040
64494,386853,-87.03,33.47,ALABAMA,CONCORD,0135023
64494,386850,-87.5292,33.1638,ALABAMA,TAYLORVILLE,0135405
64494,386849,-87.19,33.56,ALABAMA,GORGAS,0135130
64494,386848,-87.1462,33.4485,ALABAMA,OAK GROVE,0135006
64494,386847,-87.33,33.85,ALABAMA,GAMBLE,0135501
64494,386846,-87.7183,33.6302,ALABAMA,BANKSTON,0135542
83740,505632,-86.2979,31.2391,ALABAMA,OPP,0136467
64494,386845,-87.3477,33.8935,ALABAMA,GAMBLE,0135503
64494,386842,-87.728,33.806999999999995,ALABAMA,HUBERTVILLE,0135555
64493,386278,-85.7619,34.2132,ALABAMA,RICHARDSON,0135983
64493,386276,-85.17,32.46,ALABAMA,CRAWFORD,0136870
64493,386275,-85.19,32.46,ALABAMA,CRAWFORD,0136870
64493,386274,-85.37200000000001,32.6307,ALABAMA,OPELIKA,0136804
64493,386273,-85.38,32.65,ALABAMA,OPELIKA,0136801
64494,386844,-87.66,33.8,ALABAMA,HUBERTVILLE,0135542
64338,385374,-88.13,31.83,ALABAMA,WEST BEND,0136524
1208667,5504393,-85.85,33.26667,ALABAMA,ASHLAND,0136251
1208668,5504394,-85.61667,32.95,ALABAMA,DADEVILLE,0136850
1208727,5504626,-86.1,33.48333,ALABAMA,TALLADEGA,0135160
1208726,5504625,-86.2,33.6,ALABAMA,RIVERSIDE,0135135
36370,210773,-86.6398,34.7,ALABAMA,HUNTSVILLE PARK,0135808
36370,210773,-86.556,34.76,ALABAMA,HUNTSVILLE MILLS ARP,0135811
1093793,5140842,-88.26666999999999,30.683329999999998,ALABAMA,(MOB)MOBILE BATES FL,0136608
1093792,5140841,-87.78333,32.05,ALABAMA,DIXONS MILLS,0136736
1093786,5140835,-88.08333,30.7,ALABAMA,MOBILE,0136617
1093783,5143801,-88.31667,31.21667,ALABAMA,DEER PARK,0136529
1093779,5143797,-87.83333,32.51667,ALABAMA,DEMOPOLIS,0136732
1208725,5504624,-86.1,33.43333,ALABAMA,TALLADEGA,0135160
1208723,5504622,-86.2,33.6,ALABAMA,RIVERSIDE,0135135
1208722,5504621,-86.28333,33.61667,ALABAMA,PELL CITY,0135125
1208719,5504618,-86.28333,33.68333,ALABAMA,ODENVILLE,0135131
1093771,5143788,-88.25,30.78333,ALABAMA,SEMMES,0136575
1093767,5143383,-88.08333,30.7,ALABAMA,MOBILE,0136617
1208718,5504617,-86.36667,33.71667,ALABAMA,ODENVILLE,0135146
1208716,5504615,-86.35,33.73333,ALABAMA,ODENVILLE,0135146
1208709,5504520,-85.18333,32.88333,ALABAMA,LANETT,
1208710,5504521,-85.16667,32.83333,ALABAMA,LANETT,0136854
1208711,5504522,-87.18333,34.2,ALABAMA,ADDISON,0135540
1208712,5504523,-86.48333000000001,33.85,ALABAMA,REMLAP,0135146
1208713,5504524,-86.25,33.83333,ALABAMA,ASHVILLE,0135953
1208715,5504614,-86.58333,33.98333,ALABAMA,CLEVELAND,0135049
1208728,5504627,-86.1,33.43333,ALABAMA,TALLADEGA,0135160
35616,206028,-85.7952,31.5391,ALABAMA,JAVA,0136311
35616,206029,-85.7692,31.5689,ALABAMA,ROCKY HEAD,0136311
35616,206029,-85.7716,31.5682,ALABAMA,ROCKY HEAD,0136311
1093763,5143303,-87.4,32.23333,ALABAMA,ALBERTA,0136720
1093764,5143304,-88.21667,32.08333,ALABAMA,BUTLER,0136904
1093765,5143381,-88.35,31.98333,ALABAMA,NEEDHAM,0136915
1093765,5143381,-88.16667,32.1,ALABAMA,NEEDHAM,0136904
35616,206028,-85.7939,31.5394,ALABAMA,JAVA,0136311
1208708,5504519,-85.55,33.11667,ALABAMA,WADLEY,0136276
1208730,5504629,-86.15,33.46667,ALABAMA,TALLADEGA,0135160
1208733,5504632,-86.1,33.43333,ALABAMA,TALLADEGA,0135160
1208766,5504757,-86.81667,33.51667,ALABAMA,BIRMINGHAM,0135203
1208765,5504756,-86.68333,33.68333,ALABAMA,PINSON,0135126
1208764,5504755,-86.96667,33.63333,ALABAMA,GRAYSVILLE,0135073
1208763,5504754,-86.58333,33.98333,ALABAMA,CLEVELAND,0135049
1208762,5504753,-86.75,32.98333,ALABAMA,JEMISON,0135085
1208761,5504752,-86.3,32.38333,ALABAMA,MONTGOMERY,0136104
1208760,5504751,-86.48333000000001,32.46667,ALABAMA,PRATTVILLE,0136067
1208759,5504750,-86.36667,32.48333,ALABAMA,MILLBROOK,0136054
1208757,5504748,-86.36667,32.48333,ALABAMA,MILLBROOK,0136054
1208756,5504747,-86.46667,32.58333,ALABAMA,PINE LEVEL,0136022
1208756,5504747,-86.45,32.65,ALABAMA,PINE LEVEL,0136022
1208754,5504745,-86.65,32.83333,ALABAMA,CLANTON,0135045
1208752,5504743,-87.2,33.86667,ALABAMA,JASPER,0135504
1208751,5504742,-86.21667,32.88333,ALABAMA,ROCKFORD,0135136
1208750,5504741,-86.81667,33.15,ALABAMA,MONTEVALLO,0135115
1208749,5504740,-86.81667,33.23333,ALABAMA,ALABASTER,0135007
1208748,5504739,-86.81667,33.31667,ALABAMA,HOOVER,0135124
1208735,5504634,-86.1,33.43333,ALABAMA,TALLADEGA,0135160
84368,509965,-88.07,30.85,ALABAMA,SATSUMA,0136572
1208736,5504635,-86.76666999999999,33.95,ALABAMA,LOCUST FORK,0135079
1208737,5504636,-86.68333,33.68333,ALABAMA,PINSON,0135126
1208738,5504637,-86.2,33.31667,ALABAMA,WINTERBORO,0135014
1208740,5504639,-86.21667,33.25,ALABAMA,SYLACAUGA,0135149
1208731,5504630,-86.31667,33.3,ALABAMA,CHILDERSBURG,0135044
84390,509698,-85.6421,31.0012,ALABAMA,BLACK,0136344
1208742,5504733,-86.18333,33.16667,ALABAMA,SYLACAUGA,0135150
1208743,5504734,-86.05,33.06667,ALABAMA,GOODWATER,0135072
1208744,5504735,-86.03333,32.98333,ALABAMA,KELLYTON,0135089
1208745,5504736,-86.81667,33.81667,ALABAMA,WARRIOR,0135180
1208746,5504737,-86.8,33.83333,ALABAMA,WARRIOR,0135180
1208747,5504738,-86.85,33.3,ALABAMA,HELENA,0135080
84390,509698,-85.6088,31.0136,ALABAMA,FADETTE,0136375
114341,685198,-86.82,33.67,ALABAMA,CROCKER JCT,0135071
1208707,5504518,-85.18333,32.88333,ALABAMA,LANETT,
1208705,5504516,-85.46667,33.3,ALABAMA,WEDOWEE,0136278
4517,25646,-87.0362,31.3334,ALABAMA,CASTLEBERRY,0136432
4517,25638,-86.3912,32.0319,ALABAMA,SAVILLE,0136041
4517,25638,-86.3892,32.0302,ALABAMA,SAVILLE,0136041
4517,25619,-87.2999,31.82,ALABAMA,VREDENBURGH,0136481
4517,25619,-87.3154,31.8184,ALABAMA,VREDENBURGH,0136481
1208698,5504509,-86.56667,34.0,ALABAMA,CLEVELAND,0135049
1208697,5504508,-86.4,34.08333,ALABAMA,ONEONTA,0135952
1208696,5504507,-86.53333,34.08333,ALABAMA,BLOUNTSVILLE,0135031
1208695,5504506,-86.58333,34.08333,ALABAMA,BLOUNTSVILLE,0135031
1208694,5504505,-85.66667,34.18333,ALABAMA,LEESBURG,0135960
1208693,5504504,-85.38333,33.36667,ALABAMA,WOODLAND,0136280
1208692,5504503,-85.3,33.15,ALABAMA,ROANOKE,0136274
1208691,5504502,-85.35,33.2,ALABAMA,ROANOKE,0136274
1208690,5504501,-85.38333,33.46667,ALABAMA,NEWELL,0136263
1208689,5504500,-85.7,33.76667,ALABAMA,JACKSONVILLE,0136207
1208688,5504499,-85.41667,33.45,ALABAMA,NEWELL,0136280
1208687,5504498,-85.6,33.91667,ALABAMA,PIEDMONT,0136272
1208669,5504395,-86.16667,34.15,ALABAMA,GADSDEN,0135956
1208670,5504396,-86.05,34.01667,ALABAMA,GADSDEN,0135904
1208672,5504398,-86.03333,33.95,ALABAMA,RAINBOW CITY,0135906
1208674,5504400,-85.88333,33.81667,ALABAMA,OHATCHEE,0136279
1208677,5504403,-85.51666999999999,34.3,ALABAMA,GAYLESVILLE,0135973
1208678,5504404,-85.6,34.21667,ALABAMA,CEDAR BLUFF,0135959
1169452,5395869,-87.4,31.5,ALABAMA,MEXIA,0136445
1208679,5504405,-85.6,34.21667,ALABAMA,CEDAR BLUFF,0135959
1208681,5504407,-85.65,34.08333,ALABAMA,CENTRE,0136272
1208682,5504408,-85.73333000000001,34.15,ALABAMA,CENTRE,0135983
1208683,5504494,-85.68333,34.15,ALABAMA,CENTRE,0135960
1208684,5504495,-85.8,34.05,ALABAMA,HOKES BLUFF,0135903
1208685,5504496,-85.68333,33.91667,ALABAMA,PIEDMONT,0136272
1208686,5504497,-85.76666999999999,33.85,ALABAMA,JACKSONVILLE,0136265
1208680,5504406,-85.46667,34.08333,ALABAMA,FORNEY,0135960
1208706,5504517,-86.46667,33.95,ALABAMA,ONEONTA,0135121
1169454,5395871,-87.5,31.03333,ALABAMA,ATMORE,0136502
1169464,5395938,-86.33333,31.0,ALABAMA,FLORALA,0136442
1208704,5504515,-85.35,33.15,ALABAMA,ROANOKE,0136274
1208703,5504514,-85.38333,33.36667,ALABAMA,WOODLAND,0136280
1208702,5504513,-85.31667,33.05,ALABAMA,STROUD,0136855
1208701,5504512,-86.46667,33.95,ALABAMA,ONEONTA,0135121
1208700,5504511,-85.86667,34.0,ALABAMA,HOKES BLUFF,0135903
114981,694364,-87.48,34.46,ALABAMA,MT HOPE,0135651
1139773,5306620,-86.31667,33.01667,ALABAMA,WEOGUFKA,0135183
1139772,5306619,-86.11667,34.81667,ALABAMA,SKYLINE,0135768
1139760,5306526,-86.46667,33.76667,ALABAMA,SPRINGVILLE,0135146
1139751,5306517,-86.4,33.33333,ALABAMA,HARPERSVILLE,0135078
1139747,5307814,-85.35,33.15,ALABAMA,ROANOKE,0136274
1139746,5307813,-86.81667,33.65,ALABAMA,GARDENDALE,0135071
1139741,5307808,-87.41667,34.36667,ALABAMA,MOULTON,0135565
1139740,5307807,-87.61667,34.23333,ALABAMA,HALEYVILLE,0135565
1208699,5504510,-86.0,34.13333,ALABAMA,KEENER,0135954
1139738,5307803,-87.81667,34.26667,ALABAMA,HACKLEBURG,0135564
1139737,5307802,-86.28333,34.25,ALABAMA,HIGHPOINT,0135950
1139728,5307701,-86.33333,33.71667,ALABAMA,SPRINGVILLE,0135953
1139730,5307706,-85.91667,34.45,ALABAMA,FYFFE,0135971
1139731,5307707,-86.51666999999999,33.46667,ALABAMA,VANDIVER,0135147
1139735,5307711,-86.03333,33.95,ALABAMA,RAINBOW CITY,0135906
1139736,5307800,-86.08333,34.01667,ALABAMA,ATTALLA,0135954
34197,198019,-86.6605,32.8737,ALABAMA,LOMAX,0135045
1169455,5395872,-86.25,31.28333,ALABAMA,OPP,0136467
34197,198019,-86.6552,32.8822,ALABAMA,LOMAX,0135045
34203,198088,-88.1427,32.7012,ALABAMA,EPES,0135460
34206,198091,-87.7597,33.2745,ALABAMA,BUHL,0135457
34220,199941,-88.04,34.14,ALABAMA,BARNESVILLE,0135570
34220,199945,-88.2068,33.8808,ALABAMA,CREWS,0135586
34222,199974,-87.6457,34.2036,ALABAMA,THORN HILL,0135565
34222,199974,-87.6718,34.1692,ALABAMA,THORN HILL,0135565
34203,198087,-88.32,32.73,ALABAMA,EMELLE,0135459
114341,685197,-88.62,33.81,ALABAMA,TAYLORS FERRY,
114341,685186,-87.2,33.75,ALABAMA,CORDOVA,0135550
114341,685185,-87.83,33.69,ALABAMA,FAYETTE,0135555
39694,230688,-86.69,34.86,ALABAMA,GLADSTONE,0135773
39643,230391,-86.9,33.94,ALABAMA,BREMEN,0135077
109140,653667,-85.72,34.44,ALABAMA,FT PAYNE,0135967
109141,653671,-87.6798,34.8423,ALABAMA,PETERSVILLE,0135633
5144,30021,-85.6725,31.9033,ALABAMA,TANYARD,0136005
5144,30021,-85.7189,31.88,ALABAMA,TANYARD,0136005
5144,30016,-86.6,32.18,ALABAMA,HAYNEVILLE,0136040
5141,29957,-85.5126,34.22,ALABAMA,CEDAR BLUFF,0135959
5141,29956,-85.6,34.22,ALABAMA,CEDAR BLUFF,0135959
5141,29955,-85.6,34.22,ALABAMA,CEDAR BLUFF,0135959
5141,29953,-86.2215,33.5171,ALABAMA,STEMLEY,0135160
5141,29952,-85.75,34.28,ALABAMA,SAND ROCK,0135961
5141,29951,-86.48,32.47,ALABAMA,PRATTVILLE,0136067
5140,30015,-85.40299999999999,32.3315,ALABAMA,UCHEE,0136860
39705,242401,-85.6486,34.467,ALABAMA,FISHER XRDS,0135967
5140,30015,-85.4354,32.35,ALABAMA,UCHEE,0136860
5140,30014,-86.8748,32.9,ALABAMA,HUBBARD,0136792
5140,30013,-85.4,32.25,ALABAMA,HURTSBORO,0136860
5140,30012,-86.45,32.85,ALABAMA,LAKE MITCHELL,0135046
5140,30011,-86.478,32.83,ALABAMA,CLANTON,0136091
5140,30009,-85.17,32.3,ALABAMA,SEALE,0136875
5140,30009,-85.02,32.33,ALABAMA,FT MITCHELL,0136856
5140,30007,-85.4307,32.3394,ALABAMA,BOROM,0136860
5140,30007,-85.6019,32.365,ALABAMA,LITTLE TEXAS,0136083
5140,30006,-85.38,32.9,ALABAMA,LAFAYETTE,0136862
5140,30005,-85.9686,32.53,ALABAMA,TALLASSEE,0136078
5140,30004,-85.9355,32.95,ALABAMA,ALEXANDER CITY,0135010
5140,30003,-85.7409,32.8332,ALABAMA,DADEVILLE,0136853
5140,30003,-85.7567,32.8356,ALABAMA,DADEVILLE,0136853
5140,30001,-86.1539,32.4806,ALABAMA,WETUMPKA,0136093
5140,30014,-86.8761,32.9,ALABAMA,HUBBARD,0136792
39705,242403,-87.6954,34.6628,ALABAMA,COLBERT HGTS,0135674
39706,242407,-86.3944,34.537,ALABAMA,NEW HOPE,0135760
39742,230854,-88.0489,31.75,ALABAMA,COFFEEVILLE,0136524
1124922,5272275,-87.63333,34.21667,ALABAMA,WHITEHOUSE,0135565
1124922,5272276,-87.6,34.23333,ALABAMA,HALEYVILLE,0135565
1094903,5142410,-88.26666999999999,32.45,ALABAMA,YORK,0136925
1094902,5142409,-88.15,34.18333,ALABAMA,BEXAR,0135570
1094901,5143346,-87.23333000000001,33.96667,ALABAMA,MANCHESTER,0135503
1094897,5143254,-87.78333,34.73333,ALABAMA,TUSCUMBIA,0135633
1094896,5143253,-88.0,34.71667,ALABAMA,CHEROKEE,0135616
1124922,5272276,-87.63333,34.21667,ALABAMA,HALEYVILLE,0135565
1124923,5272277,-88.05,33.53333,ALABAMA,PALMETTO,0135576
1124923,5272278,-87.95,33.61667,ALABAMA,KENNEDY,0135574
1124923,5272278,-88.05,33.51667,ALABAMA,KENNEDY,0135576
1124923,5272279,-87.95,33.61667,ALABAMA,BELK,0135574
1124923,5272279,-87.56667,33.86667,ALABAMA,BELK,0135549
1124923,5272280,-87.55,33.86667,ALABAMA,CARBON HILL,0135549
1124923,5272280,-87.53333,33.86667,ALABAMA,CARBON HILL,0135549
1124924,5272365,-85.76666999999999,34.25,ALABAMA,SAND ROCK,0135983
1124924,5272365,-85.68333,34.33333,ALABAMA,SAND ROCK,0135967
39742,230857,-88.13,31.83,ALABAMA,WEST BEND,0136524
39751,230884,-88.12,30.75,ALABAMA,WHISTLER,0136612
39791,231252,-88.0613,34.9201,ALABAMA,WATERLOO,0135677
39791,231253,-87.97,34.76,ALABAMA,CHEROKEE,0135616
62967,377021,-85.86,31.42,ALABAMA,CAMP ALAFLO BSA,0136351
1124934,5272575,-85.73333000000001,31.28333,ALABAMA,DALEVILLE,0136322
5140,29999,-85.97,32.9211,ALABAMA,ALEXANDER CITY,0135010
1124934,5272575,-85.7,31.316670000000002,ALABAMA,DALEVILLE,0136322
1124926,5272368,-86.5,33.68333,ALABAMA,MARGARET,0135120
1124926,5272368,-86.38333,33.76667,ALABAMA,MARGARET,0135146
1124926,5272367,-86.56667,33.65,ALABAMA,ARGO,0135173
1124926,5272367,-86.53333,33.68333,ALABAMA,ARGO,0135173
1124925,5272366,-86.23333000000001,33.61667,ALABAMA,PELL CITY,0135125
1124925,5272366,-86.28333,33.58333,ALABAMA,PELL CITY,0135128
1124933,5272378,-85.58333,31.4,ALABAMA,EWELL,0136360
5140,29997,-86.37,32.48,ALABAMA,MILLBROOK,0136054
5140,29995,-86.0856,32.83,ALABAMA,NIXBURG,0135010
5140,29994,-86.37,32.48,ALABAMA,MILLBROOK,0136054
16976,97989,-86.4064,33.1468,ALABAMA,FAYETTEVILLE,0135151
16976,97994,-86.28,33.59,ALABAMA,PELL CITY,0135125
16976,97996,-85.7708,33.0337,ALABAMA,NEWSITE,0136256
16976,97997,-85.64,33.06,ALABAMA,DAVISTON,0136256
16976,97998,-87.23,33.2,ALABAMA,VANCE,0135490
16976,98000,-85.89,33.77,ALABAMA,ALEXANDRIA,0136250
16976,98007,-85.43,33.73,ALABAMA,FRUITHURST,0136262
16976,98011,-86.82,32.19,ALABAMA,COLLIRENE,0136785
16976,98012,-85.8276,33.0349,ALABAMA,COWPENS,0135010
16976,98015,-85.78,33.04,ALABAMA,NEWSITE,0136256
16976,98016,-85.6405,33.0536,ALABAMA,DAVISTON,0136256
16976,98017,-86.04,32.87,ALABAMA,COTTAGE GROVE,0135010
16976,98018,-85.81,33.76,ALABAMA,WEAVER,0136277
16976,98019,-85.5287,33.0996,ALABAMA,ABANDA,0136276
16976,98020,-85.57,33.12,ALABAMA,WADLEY,0136276
16976,98022,-85.37,33.15,ALABAMA,ROANOKE,0136274
16976,98024,-85.9756,32.5376,ALABAMA,BUTTS MILL,0136078
16995,98106,-87.2146,33.9565,ALABAMA,MARIGOLD,0135503
16995,98104,-87.5246,33.9229,ALABAMA,KANSAS,0135549
16995,98103,-87.8024,33.5466,ALABAMA,NEWTONVILLE,0135555
16995,98101,-87.53,33.91,ALABAMA,KANSAS,0135549
16995,98099,-88.1126,33.846,ALABAMA,VERNON LAMAR CO ARPT,0135586
16976,98281,-85.77,33.82,ALABAMA,JACKSONVILLE,0136265
16976,97988,-85.8884,32.9003,ALABAMA,STURDIVANT,0135010
