EPISODE_ID,EVENT_ID,LONGITUDE,LATITUDE,STATE,LOCATION,ZIPCODE
86664,523083,-85.85,41.24,INDIANA,WARSAW,1846580
63080,377790,-87.68,38.27,INDIANA,OWENSVILLE,1847665
1094363,5143838,-85.83333,40.51667,INDIANA,SWAYZEE,1846986
1094363,5142562,-86.41667,41.18333,INDIANA,DELONG,1846511
61187,369422,-86.38,39.76,INDIANA,AVON,1846123
61187,369425,-86.31,39.66,INDIANA,CAMBY,1846113
61187,369438,-86.11,39.97,INDIANA,CARMEL,1846033
61187,369445,-86.03,40.06,INDIANA,NOBLESVILLE,1846060
61187,369469,-85.27,39.81,INDIANA,STRAUGHN,1847327
1094363,5143839,-85.61667,40.48333,INDIANA,GAS CITY,1846933
61187,369483,-87.1254,39.5251,INDIANA,BRAZIL,1847834
61188,369515,-85.9041,39.2101,INDIANA,EAST COLUMBUS,1847201
61189,369546,-87.44,38.65,INDIANA,FRITCHTON,1847591
61189,369580,-87.32,38.86,INDIANA,FREELANDVILLE,1847512
1188893,5446897,-84.83333,40.56667,INDIANA,FAIRMOUNT,1847326
61189,369582,-87.4,38.96,INDIANA,CARLISLE,1847838
61189,369583,-87.31,39.11,INDIANA,CALEDONIA,1847882
61189,369584,-87.26,39.07,INDIANA,DUGGER,1847848
61187,369486,-86.1865,39.6959,INDIANA,SUNSHINE GARDENS,1846217
1094363,5143841,-86.63333,41.3,INDIANA,KNOX,1846534
1188893,5446594,-85.43333,40.45,INDIANA,WARREN,1847348
1188893,5446593,-85.56667,40.41667,INDIANA,WARREN,1846938
61187,369398,-87.125,39.5263,INDIANA,BRAZIL,1847834
1094374,5143057,-85.38333,40.55,INDIANA,ROLL,1847348
1094373,5142970,-87.03333,40.68333,INDIANA,WOLCOTT,1847995
61187,369403,-86.8598,39.6415,INDIANA,GREENCASTLE,1846135
61187,369404,-86.74,39.74,INDIANA,GROVELAND,1846105
61187,369405,-86.4702,40.0393,INDIANA,LEBANON,1846052
61187,369408,-86.39,39.7,INDIANA,PLAINFIELD,1846168
61187,369409,-86.39,39.7,INDIANA,PLAINFIELD,1846168
61187,369412,-86.37,39.62,INDIANA,MOORESVILLE,1846158
61187,369416,-86.27,39.95,INDIANA,EAGLE VLG,1846077
1094367,5142574,-85.31667,41.0,INDIANA,ABOITE,1846783
1094366,5142573,-85.81667,40.78333,INDIANA,WABASH,1846992
1094365,5142570,-85.48333000000001,40.88333,INDIANA,HUNTINGTON,1846750
1094364,5142565,-85.83333,40.78333,INDIANA,WABASH,1846992
1094364,5142564,-86.06667,40.75,INDIANA,PERU,1846970
1094364,5142563,-86.21667,41.06667,INDIANA,ROCHESTER,1846975
1188893,5446592,-85.66667,40.41667,INDIANA,WARREN,1846928
61189,369585,-86.99,38.77,INDIANA,RAGLESVILLE,1847558
1094360,5143830,-85.71667,41.23333,INDIANA,PIERCETON,1846562
1094360,5143829,-86.21667,41.11667,INDIANA,ROCHESTER,1846975
17140,99705,-84.93,39.63,INDIANA,LIBERTY,1847353
61189,370445,-86.2552,39.2784,INDIANA,BEAN BLOSSOM,1846160
61189,370446,-86.24,39.25,INDIANA,BEAN BLOSSOM,1847448
61189,370448,-86.2,39.33,INDIANA,SPEARSVILLE,1846160
61189,370449,-85.863,39.5883,INDIANA,FAIRLAND,1846126
61189,370450,-85.3865,40.1936,INDIANA,MUNCIE,1847305
61189,370461,-85.36,40.18,INDIANA,MAYFIELD,1847302
86003,524144,-87.5,41.55,INDIANA,MAYNARD,1846321
86003,524145,-87.4802,41.5742,INDIANA,HAMMOND,1846323
1188893,5446902,-85.43333,40.68333,INDIANA,FAIRMOUNT,1846792
1188893,5446903,-85.58333,40.4,INDIANA,FOWLERTON,1846928
1093718,5139125,-87.1,40.38333,INDIANA,WEST PT,1847970
1188893,5446904,-85.16667,40.78333,INDIANA,SHAMROCK LAKES,1846714
1123452,5268618,-87.45,39.93333,INDIANA,EMINENCE,1847928
1123452,5268619,-85.36667,39.91667,INDIANA,FRANKFORT,1847362
1123452,5268621,-86.48333000000001,39.58333,INDIANA,FISHERS,1846157
1093718,5139124,-87.25,40.45,INDIANA,PINE VLG,1847975
1093717,5140476,-85.95,40.28333,INDIANA,HOBBS,1846072
61189,370021,-86.2446,39.2057,INDIANA,NASHVILLE,1847448
61187,369396,-87.38,39.43,INDIANA,BELT JCT,1847802
61189,370017,-86.5311,39.1656,INDIANA,BLOOMINGTON,1847408
1188893,5446901,-85.43333,40.73333,INDIANA,REDKEY,1846792
1094359,5143828,-85.98333000000001,41.3,INDIANA,ATWOOD,1846582
1094359,5143761,-86.25,41.23333,INDIANA,ARGOS,1846501
1094359,5143759,-86.61667,41.16667,INDIANA,BEARDSTOWN,1846996
1094359,5143758,-86.7,41.21667,INDIANA,BASS LAKE,1846366
1094358,5143757,-86.9,41.08333,INDIANA,MEDARYVILLE,1847957
1094358,5143755,-86.78333,41.23333,INDIANA,NORTH JUDSON,1846366
1094358,5143754,-86.78333,41.21667,INDIANA,NORTH JUDSON,1846366
1094358,5143753,-86.9,41.2,INDIANA,SAN PIERRE,1846374
61189,369586,-86.95,38.81,INDIANA,RAGLESVILLE,1847562
1093718,5139125,-87.0,40.41667,INDIANA,WEST PT,1847906
1131297,5280255,-87.58333,38.18333,INDIANA,ST JAMES,1847639
61189,370010,-86.7941,39.5141,INDIANA,CLOVERDALE,1846120
61189,370011,-86.62,38.93,INDIANA,SPRINGVILLE,1847462
61189,370012,-86.59,39.06,INDIANA,KIRKSVILLE,1847403
1188893,5446898,-85.58333,40.61667,INDIANA,BLUFFTON,1846952
1188893,5446899,-85.5,40.66667,INDIANA,HARTFORD CITY,1846792
1188893,5446900,-85.46667,40.7,INDIANA,SHAMROCK LAKES,1846792
61189,370014,-86.53299999999999,39.1635,INDIANA,BLOOMINGTON,1847401
63084,377804,-86.9722,37.9414,INDIANA,ROCKPORT,1847615
61187,369395,-86.87,40.41,INDIANA,LAFAYETTE,1847904
61187,369393,-86.26,39.72,INDIANA,DREXEL GARDENS,1846241
40421,237472,-86.91,38.63,INDIANA,WHITFIELD,1847553
1093719,5140150,-85.01666999999999,40.15,INDIANA,CENTRAL PORTION,1847394
1093719,5140149,-86.15,40.43333,INDIANA,SHARPSVILLE,1846902
1093719,5140147,-85.96667,40.48333,INDIANA,GREENTOWN,1846936
113281,677881,-87.7997,38.2041,INDIANA,STEWARTSVILLE,1847633
113281,677881,-87.9474,38.1797,INDIANA,GRIFFIN,1847616
113281,677883,-87.3355,38.3175,INDIANA,OAKLAND CITY,1847660
40421,237467,-87.44,38.68,INDIANA,FRITCHTON,1847591
113281,677883,-87.7997,38.2041,INDIANA,CRAWLEYVILLE,1847633
1152316,5357576,-87.5,40.61667,INDIANA,FREE,1847944
1152316,5357576,-87.31667,40.61667,INDIANA,FREE,1847944
17140,109992,-84.8769,39.1029,INDIANA,GREENDALE,1847025
1093719,5140146,-85.53333,40.05,INDIANA,MIDDLETOWN,1847356
1093719,5140145,-85.38333,40.1,INDIANA,COWAN,1847302
1093719,5140145,-85.4,40.18333,INDIANA,COWAN,1847302
1093719,5140144,-85.16667,40.18333,INDIANA,FARMLAND,1847368
1140168,5311725,-87.45,38.33333,INDIANA,FRANCISCO,1847649
1093719,5140489,-87.25,40.16667,INDIANA,STONEBLUFF,1847987
1093719,5140490,-87.15,40.2,INDIANA,NEWTOWN,1847987
1093719,5140491,-87.43333,39.95,INDIANA,CAYUGA,1847928
63078,377787,-87.55,37.98,INDIANA,EVANSVILLE,1847711
63078,377786,-87.55,37.98,INDIANA,EVANSVILLE,1847711
63078,377785,-87.63,38.02,INDIANA,KASSON,1847720
63078,377784,-87.55,37.98,INDIANA,EVANSVILLE,1847711
63078,377783,-87.78,38.1,INDIANA,WADESVILLE,1847638
110739,661239,-86.4,39.76,INDIANA,AVON,1846123
36570,211959,-85.2027,39.2945,INDIANA,BATESVILLE,1847006
36570,211961,-85.15,38.97,INDIANA,FRIENDSHIP,1847042
60724,362573,-86.0357,38.4544,INDIANA,MARTINSBURG,1847165
36570,211962,-85.25,39.07,INDIANA,VERSAILLES,1847042
36570,216050,-85.22,39.18,INDIANA,LOOKOUT,1847037
36570,216051,-85.22,39.2855,INDIANA,BATESVILLE,1847006
1095218,5145033,-87.31667,41.15,INDIANA,ROSELAWN,1846310
1095218,5145034,-87.41667,41.28333,INDIANA,LOWELL,1846356
1095218,5145035,-87.11667,41.31667,INDIANA,HEBRON,1846341
40421,237461,-87.49,38.68,INDIANA,VINCENNES,1847591
40421,237463,-87.46,38.68,INDIANA,FRITCHTON,1847591
1093719,5140143,-85.53333,40.05,INDIANA,MIDDLETOWN,1847356
17140,99706,-85.17,39.81,INDIANA,CAMBRIDGE CITY,1847327
1123452,5268613,-86.9,40.03333,INDIANA,LAFAYETTE,1847933
1123452,5268616,-86.86667,40.41667,INDIANA,NEW CASTLE,1847904
1093719,5140137,-86.01666999999999,40.13333,INDIANA,SHERIDAN,1846034
1093719,5140137,-86.21667,40.13333,INDIANA,SHERIDAN,1846069
61187,369375,-87.1254,39.5251,INDIANA,BRAZIL,1847834
61187,369376,-87.23,39.77,INDIANA,ROCKVILLE,1847872
1093719,5140136,-85.95,40.28333,INDIANA,HOBBS,1846072
61187,369377,-86.8,39.61,INDIANA,FOX RIDGE,1846135
1093718,5140485,-86.15,39.45,INDIANA,TRAFALGAR,1846131
1093718,5139134,-87.4,39.66667,INDIANA,CLINTON,1847842
61187,369378,-86.84,39.74,INDIANA,BRICK CHAPEL,1846105
61187,369379,-86.82,39.77,INDIANA,BAINBRIDGE,1846105
61187,369381,-86.39,39.7,INDIANA,PLAINFIELD,1846168
61187,369382,-86.6448,39.8596,INDIANA,NORTH SALEM,1846165
61187,369384,-86.2807,39.7063,INDIANA,VALLEY MILLS,1846241
61187,369386,-86.2807,39.7063,INDIANA,VALLEY MILLS,1846241
61187,369387,-86.08,39.73,INDIANA,BEECH GROVE,1846203
61187,369388,-86.0828,39.7446,INDIANA,BEECH GROVE,1846203
61187,369391,-86.1344,39.7102,INDIANA,EDGEWOOD,1846227
1188893,5446591,-85.15,40.33333,INDIANA,VAN BUREN,1847373
61187,369394,-86.91,40.44,INDIANA,WEST LAFAYETTE,1847906
1188893,5446590,-85.43333,40.4,INDIANA,MARION,1847348
1188890,5446576,-85.76666999999999,41.0,INDIANA,NORTH MANCHESTER,1846962
61187,369369,-86.06,39.49,INDIANA,FRANKLIN,1846131
61187,369372,-87.3979,39.4985,INDIANA,PRESTON,1847804
61187,369373,-87.3977,39.4678,INDIANA,TERRE HAUTE,1847807
1093719,5140142,-85.56667,40.11667,INDIANA,DALEVILLE,1847334
85009,515615,-86.71,39.96,INDIANA,NEW ROSS,1847968
1093719,5140141,-85.68333,40.1,INDIANA,ANDERSON,1846016
1093719,5140140,-86.2,40.35,INDIANA,TIPTON,1846072
1093719,5140140,-86.06667,40.3,INDIANA,TIPTON,1846072
1123452,5268617,-86.4,39.76667,INDIANA,SPEEDWAY,1846123
1093719,5140139,-86.13333,40.43333,INDIANA,KOKOMO,1846902
1188890,5446330,-85.36667,40.45,INDIANA,HARTFORD CITY,1847348
1188890,5446331,-85.38333,40.45,INDIANA,HARTFORD CITY,1847348
1188890,5446569,-84.9,40.8,INDIANA,DECATUR,1846733
1188890,5446570,-86.35,40.75,INDIANA,LOGANSPORT,1846947
61187,369374,-87.3942,39.4654,INDIANA,TERRE HAUTE,1847807
1093719,5140138,-86.28333,40.16667,INDIANA,TERHUNE,1846069
1188890,5446574,-86.35,40.75,INDIANA,LOGANSPORT,1846947
1188893,5446589,-85.3,40.56667,INDIANA,NEW CORYDON,1847359
1093719,5140148,-86.9,39.98333,INDIANA,CRAWFORDSVILLE,1847933
104428,625790,-86.9763,40.7463,INDIANA,SEAFIELD,1847995
1094554,5143160,-87.03333,38.01667,INDIANA,CHRISNEY,1847611
1113605,5241362,-87.13333,39.81667,INDIANA,JUDSON,1847872
1170557,5397861,-87.55,37.98333,INDIANA,EVANSVILLE,1847711
1170558,5397864,-87.61667,38.11667,INDIANA,EVANSVILLE,1847720
42689,248951,-86.78,40.68,INDIANA,WHITE CO ARPT,1847960
42689,248950,-86.8,40.9,INDIANA,GARWOOD ARPT,1847959
42689,248949,-86.8,40.9,INDIANA,GARWOOD ARPT,1847959
42689,248945,-86.75,40.92,INDIANA,LAKESIDE,1846996
1170558,5397864,-87.65,38.06667,INDIANA,EVANSVILLE,1847720
104345,624996,-86.8714,41.3748,INDIANA,THOMASTON,1846390
104345,624996,-86.8731,41.3747,INDIANA,THOMASTON,1846390
1113605,5241364,-86.66667,40.4,INDIANA,EDNA MILLS,1846058
104345,625453,-86.7301,41.4392,INDIANA,KINGSFORD HGTS,1846382
84658,524374,-87.36,39.66,INDIANA,LYFORD,1847874
1113607,5241366,-86.83333,39.93333,INDIANA,LADOGA,1847954
1113607,5241366,-86.81667,39.93333,INDIANA,LADOGA,1847954
60891,363936,-86.26,40.95,INDIANA,FULTON,1846975
60891,363935,-86.06,40.88,INDIANA,DENVER,1846926
60891,363934,-86.78,41.22,INDIANA,NORTH JUDSON,1846366
60891,363933,-86.56,40.97,INDIANA,STAR CITY,1846985
60891,363932,-86.88,40.99,INDIANA,FRANCESVILLE,1847946
60891,363931,-85.82,41.23,INDIANA,WARSAW,1846590
60891,363930,-85.84,41.2,INDIANA,WINONA LAKE,1846580
1170565,5398011,-87.46667,38.43333,INDIANA,HAZLETON,1847666
62184,372096,-85.04700000000001,38.8307,INDIANA,JACKSONVILLE,1847043
62184,372096,-85.046,38.8312,INDIANA,JACKSONVILLE,1847043
1113605,5241361,-86.13333,40.48333,INDIANA,KOKOMO,1846901
1124528,5272281,-85.78333,39.45,INDIANA,SHELBYVILLE,1846176
1124528,5272281,-85.65,39.66667,INDIANA,SHELBYVILLE,1846161
1124524,5272201,-85.16667,40.73333,INDIANA,BLUFFTON,1846714
1113605,5241357,-87.4,39.46667,INDIANA,TERRE HAUTE,1847807
1113605,5241360,-86.51666999999999,40.28333,INDIANA,FRANKFORT,1846041
56763,340123,-85.37,40.96,INDIANA,ROANOKE,1846783
56760,340114,-86.35,41.69,INDIANA,SBN CHAIN LAKES ARPT,1846628
31187,183081,-87.08,38.98,INDIANA,LYONS,1847443
31187,183082,-87.05,39.03,INDIANA,SWITZ CITY,1847465
31194,183113,-85.0,39.58,INDIANA,QUAKERTOWN,1847331
1093719,5140496,-87.26666999999999,40.11667,INDIANA,VEEDERSBURG,1847987
1194793,5464291,-87.05,41.46667,INDIANA,VALPARAISO,1846383
1194793,5464291,-87.05,41.45,INDIANA,VALPARAISO,1846383
1194789,5464198,-87.31667,41.15,INDIANA,ROSELAWN,1846310
56760,340113,-85.83,41.58,INDIANA,GOSHEN,1846526
1170565,5398011,-87.53333,38.48333,INDIANA,HAZLETON,1847640
56760,340112,-85.83,41.58,INDIANA,GOSHEN,1846526
1093719,5140497,-87.0,40.03333,INDIANA,CRAWFORDSVILLE,1847933
1124437,5270647,-85.21667,41.48333,INDIANA,KENDALLVILLE,1846755
1093719,5140498,-85.4,40.18333,INDIANA,GASTON,1847302
1093719,5140498,-85.5,40.31667,INDIANA,GASTON,1847342
1093719,5140499,-87.15,40.16667,INDIANA,MELLOTT,1847958
1093719,5140500,-86.71667,40.25,INDIANA,ROMNEY,1847930
1093719,5140500,-86.9,40.25,INDIANA,ROMNEY,1847981
1093719,5140502,-86.58333,40.28333,INDIANA,JEFFERSON,1846041
1151586,5355550,-86.26666999999999,38.08333,INDIANA,NEW AMSTERDAM,1847142
1151586,5355550,-86.26666999999999,38.1,INDIANA,NEW AMSTERDAM,1847142
1093719,5140502,-86.51666999999999,40.28333,INDIANA,JEFFERSON,1846041
1093720,5140152,-87.5,39.8,INDIANA,DANA,1847847
56760,340111,-85.83,41.58,INDIANA,GOSHEN,1846526
1113605,5241356,-87.36667,39.8,INDIANA,MONTEZUMA,1847862
1170566,5398014,-87.9,37.93333,INDIANA,MT VERNON,1847620
38847,228332,-86.67,39.35,INDIANA,GOSPORT,1847433
4896,28045,-86.5218,40.6924,INDIANA,DELPHI,1846917
4896,28046,-86.4,40.48,INDIANA,BURLINGTON,1846915
4896,28047,-86.63,40.52,INDIANA,RADNOR,1846923
4896,28048,-86.4,40.48,INDIANA,BURLINGTON,1846915
4896,28049,-86.27,40.42,INDIANA,RUSSIAVILLE,1846979
4896,28050,-86.27,40.42,INDIANA,RUSSIAVILLE,1846979
4896,28051,-86.13,40.4077,INDIANA,KOKOMO,1846902
4896,28052,-85.83,40.27,INDIANA,ELWOOD,1846036
4896,28053,-86.13,40.48,INDIANA,KOKOMO,1846901
4896,28055,-85.97,40.48,INDIANA,GREENTOWN,1846936
1111960,5236643,-84.98333000000001,40.28333,INDIANA,DEERFIELD,1847380
1111960,5236646,-86.13333,40.48333,INDIANA,KOKOMO,1846901
1111960,5236647,-86.01666999999999,40.05,INDIANA,CARMEL,1846060
57020,341617,-87.03,40.44,INDIANA,MONTMORENCIE,1847906
1111960,5236647,-86.16667,39.98333,INDIANA,CARMEL,1846032
15953,91783,-85.8277,40.760999999999996,INDIANA,WABASH ARPT,1846992
1093116,5137286,-87.53333,38.48333,INDIANA,HAZLETON,1847640
38847,228323,-85.48,39.34,INDIANA,GREENSBURG,1847240
38847,228322,-85.77,39.3,INDIANA,HOPE,1847246
57020,341618,-86.91,40.44,INDIANA,WEST LAFAYETTE,1847906
15953,91783,-85.8319,40.7608,INDIANA,HARTMAN,1846992
57020,341619,-86.94,40.47,INDIANA,KLONDYKE,1847906
57020,341620,-86.91,40.44,INDIANA,WEST LAFAYETTE,1847906
57020,341621,-86.91,40.44,INDIANA,WEST LAFAYETTE,1847906
15953,91784,-85.6756,40.7902,INDIANA,DORA,1846941
57020,341616,-86.98,40.49,INDIANA,KLONDYKE,1847906
57020,341615,-86.98,40.49,INDIANA,KLONDYKE,1847906
57019,345486,-85.77,39.37,INDIANA,NORRISTOWN,1847234
1111960,5236642,-85.03333,40.28333,INDIANA,RIDGEVILLE,1847380
106474,639137,-85.9499,39.7972,INDIANA,MT COMFORT,1846229
38847,228327,-85.84,39.35,INDIANA,FLAT ROCK,1847234
38847,228326,-85.77,39.3,INDIANA,HOPE,1847246
104345,625453,-86.7133,41.4442,INDIANA,KINGSFORD HGTS,1846382
106474,639127,-86.29,39.31,INDIANA,CORNELIUS,1846160
62137,371737,-85.13,39.65,INDIANA,CONNERSVILLE,1847331
57006,341563,-86.4157,39.9971,INDIANA,LEBANON BOONE CO ARP,1846052
57019,341612,-86.39,39.84,INDIANA,BROWNSBURG,1846112
38847,228325,-86.56,39.35,INDIANA,PARAGON,1847433
1170573,5398331,-87.55,37.98333,INDIANA,EVANSVILLE,1847711
1170573,5398402,-87.63333,38.1,INDIANA,DARMSTADT,1847720
1170573,5398402,-87.53333,38.11667,INDIANA,DARMSTADT,1847725
38847,228334,-86.67,39.35,INDIANA,GOSPORT,1847433
1170573,5398404,-87.41667,37.95,INDIANA,NEWBURGH,1847630
104345,625456,-86.6698,41.4333,INDIANA,KINGSFORD HGTS,1846382
104345,625456,-86.679,41.43600000000001,INDIANA,KINGSFORD HGTS,1846382
1170573,5398404,-87.45,37.91667,INDIANA,NEWBURGH,
84658,524375,-86.47,39.21,INDIANA,NEW UNIONVILLE,1847408
57019,344800,-86.63,39.94,INDIANA,JAMESTOWN,1846147
57019,344802,-86.2032,39.9118,INDIANA,AUGUSTA,1846268
84658,524376,-86.59,39.12,INDIANA,KIRBY,1847403
57019,344893,-86.32,39.83,INDIANA,IND EAGLE CREEK ARPT,1846234
57019,344896,-86.0897,39.6656,INDIANA,SOUTHPORT,1846237
57019,344897,-86.05,39.7,INDIANA,NEW BETHEL,1846237
1111959,5236632,-87.26666999999999,40.11667,INDIANA,COVINGTON,1847987
1111959,5236641,-87.53333,40.1,INDIANA,RILEYSBURG,
38847,228324,-86.41,39.41,INDIANA,MARTINSVILLE,1846151
15953,91784,-85.6776,40.7898,INDIANA,DORA,1846941
1113605,5241355,-87.4,39.66667,INDIANA,HILLSDALE,1847842
84658,524370,-86.37,39.54,INDIANA,BETHANY,1846111
18361,107334,-86.27,41.68,INDIANA,SOUTH BEND,1846628
18361,107333,-86.27,41.68,INDIANA,SOUTH BEND,1846628
18361,107332,-86.27,41.68,INDIANA,SOUTH BEND,1846628
1124437,5270648,-85.01666999999999,41.53333,INDIANA,CORUNNA,1846705
1124437,5270648,-85.2,41.46667,INDIANA,CORUNNA,1846755
1124437,5270649,-85.01666999999999,41.53333,INDIANA,STEUBENVILLE,1846705
18359,107330,-85.73,40.84,INDIANA,LAGRO,1846941
18359,107329,-85.92,40.91,INDIANA,ROANN,1846974
38861,225407,-85.18,39.5,INDIANA,LAUREL,1847024
1124437,5270649,-85.01666999999999,41.55,INDIANA,STEUBENVILLE,1846779
1151586,5355549,-86.61667,37.96667,INDIANA,ROME,1847520
1113605,5241276,-86.51666999999999,40.38333,INDIANA,MORAN,1846041
1124440,5270653,-86.71667,41.6,INDIANA,LA PORTE,1846350
1113605,5241277,-87.11667,39.5,INDIANA,BRAZIL,1847834
1208086,5500488,-85.18333,39.91667,INDIANA,LIBERTY,1847346
1208090,5499239,-84.78333,39.15,INDIANA,LAWRENCEBURG,
1208090,5499240,-84.96667,39.3,INDIANA,ST LEON,1847060
1208090,5499241,-85.18333,39.5,INDIANA,LAUREL,1847024
84658,523865,-86.1744,39.7745,INDIANA,FLACKVILLE,1846202
84658,523867,-86.09,39.72,INDIANA,BEECH GROVE,1846107
84658,523871,-86.12,39.67,INDIANA,SOUTHPORT,1846227
84658,523872,-86.15,39.78,INDIANA,INDIANAPOLIS,1846202
84658,523880,-86.15,39.69,INDIANA,EDGEWOOD,1846227
84658,523887,-86.1043,39.7034,INDIANA,BEECH GROVE,1846237
1208090,5499242,-85.16667,39.91667,INDIANA,HAGERSTOWN,1847346
18361,107336,-86.19,41.71,INDIANA,INDIAN VLG,1846545
18361,107337,-86.15,41.68,INDIANA,MISHAWAKA,1846545
18361,107338,-86.08,41.67,INDIANA,GLENWOOD,1846561
18361,107339,-86.14,41.71,INDIANA,SPORTSMAN ARPT,1846545
1111959,5236633,-87.25,39.98333,INDIANA,KINGMAN,1847952
1111959,5236634,-87.53333,40.16667,INDIANA,STATE LINE,
1111959,5236635,-87.05,39.88333,INDIANA,WAVELAND,1847989
1111959,5236636,-86.98333000000001,39.85,INDIANA,RUSSELLVILLE,1846175
1111959,5236637,-86.86667,39.65,INDIANA,GREENCASTLE,1846135
104234,624020,-84.89,39.25,INDIANA,LOGAN,1847060
1111959,5236638,-86.63333,39.56667,INDIANA,LITTLE PT,1846180
1111959,5236639,-86.55,39.55,INDIANA,HALL,1846157
1111959,5236640,-86.48333000000001,39.56667,INDIANA,MONROVIA,1846157
112765,673563,-84.86,39.22,INDIANA,BRIGHT,1847025
112765,673562,-85.14,39.14,INDIANA,OLD MILAN,1847031
112765,673555,-85.24,39.17,INDIANA,LOOKOUT,1847037
1208090,5499243,-84.95,38.83333,INDIANA,EAST ENTERPRISE,1847020
1113605,5241274,-87.1,39.76667,INDIANA,BELLMORE,1847872
112569,671556,-85.1,39.23,INDIANA,SUNMAN,1847041
112569,671555,-85.28,39.5,INDIANA,ANDERSONVILLE,1847024
1093719,5140495,-87.43333,40.05,INDIANA,CAYUGA,1847974
1093719,5140493,-86.9,40.03333,INDIANA,CRAWFORDSVILLE,1847933
1093719,5140492,-87.45,39.98333,INDIANA,CAYUGA,1847974
18361,107346,-85.7,41.34,INDIANA,NORTH WEBSTER,1846555
18361,107345,-85.77,41.33,INDIANA,OSWEGO,1846538
18361,107344,-86.41,41.02,INDIANA,KEWANNA,1846939
18361,107343,-86.17,41.67,INDIANA,MISHAWAKA,1846545
18361,107342,-85.97,41.69,INDIANA,ELKHART,1846516
18361,107341,-85.97,41.7,INDIANA,ELKHART,1846514
18361,107340,-85.97,41.69,INDIANA,ELKHART,1846516
1113605,5241275,-87.08333,39.76667,INDIANA,HOLLANDSBURG,1847872
84658,524373,-87.05,39.88,INDIANA,WAVELAND,1847989
84658,523920,-86.4594,39.8427,INDIANA,BROWNSBURG ARPT,1846167
84658,523965,-87.3,39.95,INDIANA,KINGMAN,1847952
84658,524367,-86.37,39.54,INDIANA,BETHANY,1846111
84658,524368,-86.41,39.7,INDIANA,PLAINFIELD,1846168
1151583,5357148,-86.11667,38.21667,INDIANA,CORYDON,1847112
1151583,5357147,-86.76666999999999,38.11667,INDIANA,TELL CITY,1847588
63420,379739,-85.01,40.25,INDIANA,STONE,1847380
63420,379738,-85.2,40.26,INDIANA,FAIRVIEW,1847368
63420,379736,-85.39,40.2,INDIANA,MUNCIE,1847305
63420,379735,-85.3357,40.2074,INDIANA,MORNINGSIDE,1847303
63420,379734,-85.3682,40.2014,INDIANA,MORNINGSIDE,1847303
1113605,5241278,-86.83333,40.51667,INDIANA,BATTLE GROUND,1847920
1124440,5270743,-85.48333000000001,41.16667,INDIANA,COLUMBIA CITY,1846725
1113605,5241279,-87.23333000000001,39.85,INDIANA,ROCKVILLE,1847859
1124440,5270745,-84.86667,40.7,INDIANA,MONROE,1846772
63420,379732,-85.3793,40.219,INDIANA,MORNINGSIDE,1847303
63420,379731,-85.42,40.18,INDIANA,MUNCIE,1847302
63418,386889,-86.45,38.79,INDIANA,YOCKEY,1847446
63418,386888,-86.62,39.23,INDIANA,ELLETTSVILLE,1847429
106591,639802,-87.3977,39.4592,INDIANA,TERRE HAUTE,1847807
106591,639782,-86.29,39.91,INDIANA,TRADERS PT,1846278
1093719,5140495,-87.45,39.96667,INDIANA,CAYUGA,1847974
1113605,5241353,-86.76666999999999,40.38333,INDIANA,BATTLE GROUND,1847905
1113605,5241353,-86.83333,40.51667,INDIANA,BATTLE GROUND,1847920
1113605,5241354,-87.23333000000001,39.76667,INDIANA,ROCKVILLE,1847872
1113605,5241355,-87.38333,39.78333,INDIANA,HILLSDALE,1847854
84658,524369,-86.37,39.62,INDIANA,MOORESVILLE,1846158
84658,524364,-86.37,39.62,INDIANA,MOORESVILLE,1846158
1151586,5355549,-86.61667,37.9,INDIANA,ROME,1847520
1124440,5270739,-85.73333000000001,40.68333,INDIANA,LA FONTAINE,1846940
1124440,5270736,-85.45,41.16667,INDIANA,COLUMBIA CITY,1846725
84658,523969,-86.15,39.69,INDIANA,EDGEWOOD,1846227
84658,524052,-86.15,39.69,INDIANA,EDGEWOOD,1846227
84658,524056,-87.28,39.97,INDIANA,KINGMAN,1847952
84658,524057,-86.15,39.67,INDIANA,HOMECROFT,1846227
1208090,5499245,-84.93333,39.63333,INDIANA,LIBERTY,1847353
1208090,5499248,-85.2,39.3,INDIANA,OLDENBURG,1847006
1208090,5499249,-85.33333,39.21667,INDIANA,NAPOLEON,1847037
1208090,5499250,-85.06667,38.75,INDIANA,VEVAY,1847043
84658,524059,-86.27,40.0,INDIANA,NORTHFIELD,1846077
84658,524060,-86.38,39.83,INDIANA,BROWNSBURG,1846112
84658,524061,-86.02,39.66,INDIANA,ACTON,1846259
84658,524063,-86.07,39.71,INDIANA,BEECH GROVE,1846203
84658,523921,-86.09,39.72,INDIANA,BEECH GROVE,1846107
84658,524064,-86.8,39.77,INDIANA,BAINBRIDGE,1846105
84658,524074,-86.01,39.67,INDIANA,ACTON,1846259
84658,524360,-86.67,39.69,INDIANA,COATESVILLE,1846121
1170548,5397759,-87.56667,38.2,INDIANA,HAUBSTADT,1847639
1170548,5397760,-87.98333000000001,38.01667,INDIANA,SAVAH,1847620
1170548,5397761,-87.78333,38.1,INDIANA,WADESVILLE,1847638
1170548,5397761,-87.83333,38.16667,INDIANA,WADESVILLE,1847633
1124440,5270733,-85.7,41.35,INDIANA,NORTH WEBSTER,1846555
84658,524361,-86.98,39.88,INDIANA,BROWNS VLY,1847989
84658,524362,-86.52,39.69,INDIANA,CLAYTON,1846118
1208090,5499251,-85.08333,39.56667,INDIANA,CONNERSVILLE,1847331
84658,524363,-85.48,39.34,INDIANA,GREENSBURG,1847240
1124440,5270735,-85.9,40.58333,INDIANA,CONVERSE,1846919
84658,524070,-85.78,39.52,INDIANA,SHELBYVILLE,1846176
15953,95316,-84.803,40.8382,INDIANA,RIVARE,1846733
15953,95316,-84.8025,40.8381,INDIANA,RIVARE,1846733
18292,107315,-85.04,41.68,INDIANA,CROOKED LAKE,1846703
116312,703268,-86.3514,40.3602,INDIANA,FOREST,1846039
116312,703268,-86.3318,40.3749,INDIANA,FOREST,1846039
116312,703193,-86.6956,40.134,INDIANA,THORNTOWN,1846071
116312,703193,-86.6941,40.1338,INDIANA,THORNTOWN,1846071
1132800,5290615,-85.13333,41.06667,INDIANA,FT WAYNE,1846803
1111961,5236750,-86.88333,38.9,INDIANA,CRANE,
1141747,5314280,-85.96667,41.68333,INDIANA,ELKHART,1846516
1141747,5314279,-86.0,41.68333,INDIANA,ELKHART,1846514
1111961,5236751,-86.75,38.93333,INDIANA,OWENSBURG,1847424
1138240,5304106,-85.4,40.18333,INDIANA,MUNCIE,1847302
116290,699335,-84.89,39.8,INDIANA,RICHMOND,1847374
42372,248328,-86.91,40.44,INDIANA,WEST LAFAYETTE,1847906
16426,94859,-87.4096,41.2909,INDIANA,LOWELL,1846356
16426,94856,-87.4922,40.6143,INDIANA,FREELAND PARK,1847944
42372,248319,-86.38,39.79,INDIANA,SPEEDWAY ARPT,1846123
1141731,5314744,-85.65,38.8,INDIANA,DEPUTY,1847230
1141731,5314744,-85.6,38.83333,INDIANA,DEPUTY,1847230
1141730,5314742,-86.15,38.1,INDIANA,CENTRAL,1847112
1111961,5236752,-86.48333000000001,38.86667,INDIANA,BEDFORD,1847421
1111961,5236753,-86.16667,38.83333,INDIANA,MEDORA,1847260
1111962,5236754,-87.26666999999999,39.06667,INDIANA,DUGGER,1847848
1111962,5236755,-87.16667,39.03333,INDIANA,LINTON,1847441
1111962,5236757,-85.83333,39.03333,INDIANA,REDDINGTON,1847274
85997,521070,-87.33,41.48,INDIANA,MERRILLVILLE,1846410
116243,699020,-85.72,38.74,INDIANA,NEW FRANKFORT,1847102
116313,702871,-87.45,40.25,INDIANA,MARSHFIELD,1847993
116313,702873,-87.29,40.29,INDIANA,WILLIAMSPORT,1847993
116313,702902,-87.11,40.17,INDIANA,MELLOTT,1847987
87372,527314,-86.3,39.97,INDIANA,EAGLE VLG,1846077
40319,235690,-86.7231,40.6686,INDIANA,YOEMAN,1847997
40322,235681,-86.37,39.54,INDIANA,BETHANY,1846111
17215,99646,-87.1646,40.7967,INDIANA,REMINGTON,1847977
17215,99647,-87.3,40.95,INDIANA,MT AYR,1847964
56713,339804,-87.2318,40.7,INDIANA,WADENA,1847948
17215,99648,-87.43,41.53,INDIANA,GRIFFITH,1846319
1130987,5283384,-87.0,38.41667,INDIANA,IRELAND,1847546
104428,625785,-85.8678,40.813,INDIANA,HARTMAN,1846992
1094592,5142266,-87.55,37.98333,INDIANA,EVANSVILLE,1847711
104428,625785,-85.8807,40.8085,INDIANA,HARTMAN,1846992
104428,625790,-86.925,40.7691,INDIANA,REYNOLDS,1847980
61189,370462,-85.4,40.19,INDIANA,MUNCIE,1847305
116243,699019,-85.74,38.77,INDIANA,NEW FRANKFORT,1847102
1111960,5236648,-85.68333,40.16667,INDIANA,ANDERSON,1846011
1111961,5236747,-87.41667,38.75,INDIANA,BRUCEVILLE,1847516
1111961,5236748,-87.41667,39.1,INDIANA,SULLIVAN,1847882
1111961,5236749,-87.08333,38.86667,INDIANA,ELNORA,1847529
4982,28820,-86.67,40.58,INDIANA,DELPHI,1846923
4982,28821,-86.83,40.52,INDIANA,BATTLE GROUND,1847920
4982,28822,-86.87,40.42,INDIANA,LAFAYETTE,1847904
4982,28823,-86.67,40.58,INDIANA,DELPHI,1846923
85832,518263,-85.38,39.08,INDIANA,HOLTON,1847023
1138239,5304105,-85.36667,39.88333,INDIANA,NEW CASTLE,1847362
1138239,5304105,-85.4,39.9,INDIANA,NEW CASTLE,1847362
84835,512226,-87.35,38.33,INDIANA,OAKLAND CITY,1847660
87372,527313,-85.84,40.28,INDIANA,ELWOOD,1846036
1111961,5236747,-87.25,38.81667,INDIANA,BRUCEVILLE,1847528
1130987,5283385,-86.26666999999999,38.1,INDIANA,NEW AMSTERDAM,1847142
84847,512304,-87.1539,38.4505,INDIANA,CATO,1847598
1130873,5282770,-87.03333,38.01667,INDIANA,MIDWAY,1847611
1193874,5464890,-86.05,39.78333,INDIANA,INDIANAPOLIS,1846219
1193874,5464886,-86.05,39.78333,INDIANA,INDIANAPOLIS,1846219
1193874,5464816,-86.4,40.1,INDIANA,LEBANON,1846052
1193874,5464815,-86.51666999999999,40.28333,INDIANA,FRANKFORT,1846041
1193874,5464814,-86.65,40.33333,INDIANA,FRANKFORT,1846058
1193873,5464810,-87.01666999999999,40.13333,INDIANA,CRAWFORDSVILLE,1847933
42263,246813,-86.81,40.3,INDIANA,CONCORD,1847909
42263,246812,-86.93,40.41,INDIANA,(LAF)PURDUE UNIV LAF,1847906
106397,638835,-86.03,40.21,INDIANA,ATLANTA,1846031
106397,638834,-86.0,39.66,INDIANA,ACTON,1846259
17672,102193,-87.72,37.98,INDIANA,ST PHILIP,1847620
106397,638833,-85.89,39.72,INDIANA,NEW PALESTINE,1846163
106397,638830,-86.1256,40.3603,INDIANA,SHARPSVILLE,1846068
106397,638828,-85.89,39.72,INDIANA,NEW PALESTINE,1846163
106397,638827,-86.0259,39.7399,INDIANA,FIVE PTS,1846239
106397,638824,-86.36,40.15,INDIANA,ELIZAVILLE,1846052
106397,638822,-86.3356,39.6977,INDIANA,SIX PTS,1846231
106397,638820,-86.67,39.66,INDIANA,COATESVILLE,1846121
106397,638819,-86.9,40.19,INDIANA,LINDEN,1847955
106397,638817,-86.84,39.64,INDIANA,COMMERCIAL PLACE,1846135
106397,638816,-87.4098,39.6797,INDIANA,FAIRVIEW PARK,1847842
106397,638814,-86.0082,39.711,INDIANA,WANAMAKER,1846239
106397,638810,-87.25,39.47,INDIANA,SWALLS,1847834
106397,638792,-87.44,38.91,INDIANA,CARLISLE,1847561
1094554,5143160,-86.98333000000001,37.93333,INDIANA,CHRISNEY,1847615
1193874,5464891,-86.15,39.78333,INDIANA,INDIANAPOLIS,1846202
1193874,5464993,-85.38333,39.41667,INDIANA,GREENSBURG,1847240
1193879,5465010,-86.2,40.46667,INDIANA,KOKOMO,1846901
1193879,5465111,-86.51666999999999,40.28333,INDIANA,FRANKFORT,1846041
106399,638855,-87.17,38.66,INDIANA,WASHINGTON,1847501
106399,638854,-87.18,38.66,INDIANA,WASHINGTON,1847501
106399,638852,-87.33,38.75,INDIANA,RAGSDALE,1847512
106397,638957,-86.917,40.1701,INDIANA,LINDEN,1847955
110930,664339,-85.79,39.5,INDIANA,SHELBYVILLE,1846176
110930,664337,-87.31,38.89,INDIANA,FREELANDVILLE,1847578
106397,638840,-85.88,40.28,INDIANA,ELWOOD,1846036
106397,638839,-85.69,40.09,INDIANA,ANDERSON,1846016
110930,664335,-87.4,38.96,INDIANA,CARLISLE,1847838
110930,664333,-87.44,38.87,INDIANA,OAKTOWN,1847561
110930,664153,-86.05,38.88,INDIANA,EWING,1847220
1175726,5411926,-86.25,41.66667,INDIANA,SOUTH BEND,1846601
1130873,5282770,-87.13333,38.0,INDIANA,MIDWAY,1847634
106397,638838,-85.7475,40.1496,INDIANA,FLORIDA,1846011
110877,661859,-86.23,41.6689,INDIANA,SOUTH BEND,1846615
110877,661859,-86.2307,41.6685,INDIANA,SOUTH BEND,1846615
1175726,5411921,-85.83333,41.23333,INDIANA,WARSAW,1846580
1175726,5411920,-86.1,40.61667,INDIANA,BUNKER HILL,1846959
1175723,5411913,-85.13333,40.98333,INDIANA,FT WAYNE BAER ARPT,1846819
1175720,5413318,-86.15,41.73333,INDIANA,GRANGER,1846530
106397,638836,-85.8599,39.7135,INDIANA,NEW PALESTINE,1846163
110877,661858,-86.3046,41.6421,INDIANA,GILMER PARK,1846614
110877,661858,-86.2886,41.6557,INDIANA,SOUTH BEND,1846613
1152323,5357839,-87.48333000000001,41.58333,INDIANA,HAMMOND,1846324
1193879,5465113,-86.76666999999999,40.38333,INDIANA,DAYTON,1847905
1193879,5465112,-86.38333,40.33333,INDIANA,MICHIGANTOWN,1846057
106397,638837,-85.88,40.28,INDIANA,ELWOOD,1846036
4982,28819,-87.0904,40.5807,INDIANA,MONTMORENCI ARPT,1847923
4982,28818,-87.25,40.45,INDIANA,PINE VLG,1847975
4981,28816,-85.72200000000001,38.9284,INDIANA,NORTH VERNON,1847265
1210007,5505350,-86.6,39.63333,INDIANA,STILESVILLE,1846180
38847,228316,-86.56,39.39,INDIANA,PARAGON,1846166
38847,228315,-86.11,39.62,INDIANA,GREENWOOD,1846142
38847,228314,-86.67,39.35,INDIANA,GOSPORT,1847433
1210007,5505349,-86.15,39.75,INDIANA,OAKLANDON,1846225
38847,228313,-86.77,39.36,INDIANA,CARP,1847460
56719,339852,-87.4848,40.4911,INDIANA,AMBIA,1847917
38847,228312,-86.77,39.35,INDIANA,CARP,1847460
38847,228311,-86.73,39.33,INDIANA,ROMONA,1847460
38847,228310,-86.1,39.31,INDIANA,CORDRY LAKE,1846164
38847,228309,-87.03,39.38,INDIANA,BOWLING GREEN,1847840
1132802,5290621,-85.81667,40.8,INDIANA,WABASH,1846992
1132802,5290620,-86.06667,40.75,INDIANA,PERU,1846970
1132802,5290619,-86.23333000000001,40.66667,INDIANA,WALTON,1846994
1132802,5290618,-86.61667,40.9,INDIANA,WINAMAC,1846985
56719,339851,-87.2074,41.2134,INDIANA,DEMOTTE,1846310
38847,228308,-86.42,39.32,INDIANA,HINDUSTAN,1847468
1188853,5446983,-86.95,38.3,INDIANA,HUNTINGBURG,1847542
1210007,5505349,-85.95,39.88333,INDIANA,OAKLANDON,1846236
1210007,5505347,-86.01666999999999,40.05,INDIANA,NOBLESVILLE,1846060
1210007,5505345,-86.1,39.98333,INDIANA,CARMEL,1846033
56719,339850,-87.3248,41.3806,INDIANA,LEROY,1846307
1210007,5505344,-86.13333,39.98333,INDIANA,CARMEL,1846032
1210007,5505343,-86.15,39.9,INDIANA,INDIANAPOLIS,1846240
56719,339849,-87.301,41.2893,INDIANA,DINWIDDIE,1846341
1210007,5505351,-85.58333,40.03333,INDIANA,ANDERSON,1847356
1210007,5505352,-86.56667,39.76667,INDIANA,DANVILLE,1846122
1210007,5505353,-86.36667,39.61667,INDIANA,MOORESVILLE,1846158
57025,341889,-87.05,38.79,INDIANA,EPSOM,1847562
1210008,5505419,-86.76666999999999,39.58333,INDIANA,GREENCASTLE,1846135
1210007,5505358,-85.26666999999999,40.2,INDIANA,SELMA,1847383
57020,341623,-86.87,40.41,INDIANA,LAFAYETTE,1847904
38847,228321,-85.77,39.3,INDIANA,HOPE,1847246
38847,228320,-85.83,39.32,INDIANA,ST LOUIS CROSSING,1847246
1210007,5505355,-85.28333,39.8,INDIANA,STRAUGHN,1847387
38847,228319,-85.97,39.35,INDIANA,EDINBURG,1846124
38847,228318,-85.97,39.35,INDIANA,EDINBURG,1846124
57020,341624,-86.7742,40.3798,INDIANA,DAYTON,1847941
57020,345537,-86.87,40.4,INDIANA,LAFAYETTE,1847905
57020,345541,-87.4347,39.6586,INDIANA,KLONDYKE,1847842
57020,345703,-85.74,40.01,INDIANA,HUNTSVILLE,1846064
1210007,5505342,-86.9,40.03333,INDIANA,CRAWFORDSVILLE,1847933
57020,345709,-86.56,39.17,INDIANA,HUNTERS,1847404
1208094,5499410,-85.18333,39.5,INDIANA,LAUREL,1847024
1208094,5499411,-84.91667,39.16667,INDIANA,GUILFORD,1847022
1208094,5499412,-85.21667,39.3,INDIANA,BATESVILLE,1847006
1208094,5499413,-85.1,39.18333,INDIANA,SUNMAN,1847031
1208094,5499414,-85.01666999999999,39.41667,INDIANA,BROOKVILLE,1847012
1208094,5499415,-84.86667,39.25,INDIANA,BRIGHT,1847060
1208094,5499416,-85.15,39.55,INDIANA,ALPINE,1847331
1208094,5499417,-85.3,39.13333,INDIANA,NAPOLEON,1847037
1208094,5499417,-85.33333,39.2,INDIANA,NAPOLEON,1847037
1208094,5499419,-85.16667,39.65,INDIANA,CONNERSVILLE,1847331
57020,345711,-86.56,39.14,INDIANA,BROADVIEW,1847403
56719,339853,-87.4158,40.5347,INDIANA,BOSWELL,1847944
38847,228317,-85.97,39.35,INDIANA,EDINBURG,1846124
1210007,5505340,-86.51666999999999,40.23333,INDIANA,FRANKFORT,1846041
1210007,5505339,-86.01666999999999,39.85,INDIANA,LAWRENCE,1846216
116461,714992,-85.956,40.8982,INDIANA,STOCKDALE,1846974
38847,228297,-86.52,39.76,INDIANA,DANVILLE,1846122
38847,228296,-86.39,39.69,INDIANA,PLAINFIELD,1846168
87359,527167,-86.43,41.53,INDIANA,NORTH LIBERTY,1846554
87359,527168,-86.43,41.53,INDIANA,NORTH LIBERTY,1846554
87359,527170,-86.43,41.55,INDIANA,NORTH LIBERTY,1846554
87359,527171,-86.31,41.7,INDIANA,(SBN)MICHIANA ARPT S,1846628
104426,625500,-85.15,41.13,INDIANA,FT WAYNE SMITH ARPT,1846825
104426,625501,-84.99,40.95,INDIANA,HOAGLAND,1846745
104426,625502,-84.99,40.95,INDIANA,HOAGLAND,1846745
104426,625503,-84.93,40.86,INDIANA,MONMOUTH,1846733
104426,625504,-84.87,40.97,INDIANA,MONROEVILLE,1846773
104426,625505,-84.9,41.28,INDIANA,SPENCERVILLE,1846788
38847,228298,-86.42,39.76,INDIANA,AVON,1846123
104426,625506,-84.96,40.98,INDIANA,MAPLES,1846773
1210006,5505260,-86.15,39.78333,INDIANA,INDIANAPOLIS,1846202
1210006,5505259,-86.03333,38.88333,INDIANA,BROWNSTOWN,1847220
1130987,5283388,-85.96667,38.11667,INDIANA,ELIZABETH,1847117
104428,625545,-85.3924,41.4102,INDIANA,ALBION,1846701
38829,225238,-85.17,40.74,INDIANA,BLUFFTON,1846714
104428,625545,-85.3833,41.413000000000004,INDIANA,ALBION,1846701
38829,225237,-85.43,40.68,INDIANA,WARREN,1846792
38829,225236,-85.43,40.68,INDIANA,WARREN,1846792
38829,225235,-85.43,40.68,INDIANA,WARREN,1846792
38829,225234,-85.49,40.7,INDIANA,MILO,1846792
38827,225231,-86.34,40.75,INDIANA,LOGANSPORT,1846947
4980,28815,-86.6938,38.7204,INDIANA,WILLOW VLY,1847446
1210007,5505336,-85.78333,39.78333,INDIANA,GREENFIELD,1846140
1094546,5142729,-87.5,38.16667,INDIANA,INGLEFIELD,1847725
38847,228299,-86.44,39.7,INDIANA,CARTERSBURG,1846168
38847,228300,-86.4,39.79,INDIANA,AVON,1846123
116461,714992,-86.0083,40.8819,INDIANA,CHILI,1846926
104426,625485,-85.66,40.56,INDIANA,SHADY HILLS,1846952
104426,625486,-85.61,40.5,INDIANA,GAS CITY,1846933
38847,228307,-87.38,39.47,INDIANA,TERRE HAUTE,1847803
104426,625487,-85.43,40.68,INDIANA,WARREN,1846792
104426,625488,-85.44,40.68,INDIANA,WARREN,1846792
104426,625489,-85.46,40.79,INDIANA,MAJENICA,1846750
104426,625490,-85.65,40.55,INDIANA,SHADY HILLS,1846953
104426,625491,-85.4,40.7,INDIANA,PLUM TREE,1846792
104426,625492,-85.22,40.96,INDIANA,NINE MILE,1846798
104426,625493,-85.48,41.1,INDIANA,PEABODY,1846725
104426,625494,-85.18,40.75,INDIANA,BLUFFTON,1846714
104426,625499,-85.14,41.15,INDIANA,FT WAYNE SMITH ARPT,1846825
1210007,5505337,-85.65,39.73333,INDIANA,WESTLAND,1846115
116461,714901,-86.37,40.64,INDIANA,DEACON,1846932
1132802,5290617,-86.88333,40.53333,INDIANA,BROOKSTON,1847906
38847,228306,-85.93,39.91,INDIANA,MC CORDSVILLE,1846055
38847,228305,-87.36,39.45,INDIANA,WOODRIDGE,1847803
104426,625495,-85.17,40.82,INDIANA,KINGSLAND,1846777
104426,625496,-85.17,40.83,INDIANA,KINGSLAND,1846777
104426,625497,-85.14,40.8,INDIANA,TOCSIN,1846714
38847,228304,-86.37,39.77,INDIANA,AVON,1846123
104426,625498,-85.14,41.14,INDIANA,FT WAYNE SMITH ARPT,1846825
38847,228303,-87.38,39.47,INDIANA,TERRE HAUTE,1847803
38847,228302,-86.38,39.76,INDIANA,AVON,1846123
38847,228301,-86.35,39.76,INDIANA,WESTWOOD,1846123
116461,714901,-86.319,40.64,INDIANA,DEACON,1846994
61189,373271,-85.7821,39.6954,INDIANA,FOUNTAINTOWN,1846130
1191373,5455108,-85.33333,40.13333,INDIANA,MUNCIE,1847302
61190,370501,-86.61,40.27,INDIANA,JEFFERSON,1846041
17969,104373,-84.93,39.63,INDIANA,LIBERTY,1847353
17969,104371,-85.1,39.7,INDIANA,WATERLOO,1847331
17969,104370,-84.89,39.83,INDIANA,RICHMOND,1847374
17969,104369,-84.89,39.83,INDIANA,RICHMOND,1847374
17969,104367,-85.21,39.81,INDIANA,DUBLIN,1847335
17969,104363,-85.16,39.91,INDIANA,HAGERSTOWN,1847346
17966,104340,-84.87,39.1,INDIANA,LAWRENCEBURG,1847025
5470,31882,-86.9,38.12,INDIANA,SANTA CLAUS,1847579
90074,541919,-85.82,40.98,INDIANA,LAKETON,1846962
90074,541920,-86.03,41.04,INDIANA,AKRON,1846910
90074,541921,-85.18,41.01,INDIANA,WAYNEDALE,1846809
90074,541922,-85.13,40.99,INDIANA,HESSAN CASTLE,1846819
90074,541923,-85.5,40.88,INDIANA,HUNTINGTON,1846750
90074,541924,-85.5,40.88,INDIANA,HUNTINGTON,1846750
90074,541925,-85.47,40.93,INDIANA,HUNTINGTON,1846750
62733,375129,-85.13,39.45,INDIANA,METAMORA,1847030
62733,375130,-85.15700000000001,39.4102,INDIANA,OLDENBURG,1847030
40927,238305,-85.4339,40.1797,INDIANA,MUNCIE,1847302
40960,238448,-86.87,40.25,INDIANA,ROMNEY,1847981
85673,517395,-85.18,39.55,INDIANA,ALPINE,1847331
90074,541918,-85.81,41.0,INDIANA,LAKETON,1846962
90074,541914,-86.67,41.18,INDIANA,ALDINE,1846366
105127,630050,-87.55,37.98,INDIANA,EVANSVILLE,1847711
105127,630050,-87.537,37.9698,INDIANA,EVANSVILLE,1847714
90074,541915,-86.22,41.08,INDIANA,ROCHESTER,1846975
62478,373804,-87.78,38.14,INDIANA,WILSON,1847633
62478,373803,-87.79,38.12,INDIANA,WILSON,1847633
62478,373802,-87.78,38.18,INDIANA,POSEYVILLE,1847633
62725,375081,-84.87,39.4,INDIANA,MT CARMEL,1847016
62733,375131,-85.02,39.42,INDIANA,BROOKVILLE,1847012
62725,375082,-84.822,39.2603,INDIANA,BRIGHT,1847060
16214,95942,-86.281,40.4892,INDIANA,NEW LONDON,1846901
16213,95934,-85.6226,39.9627,INDIANA,MARKLEVILLE,1846056
16213,95934,-85.6236,39.9615,INDIANA,MARKLEVILLE,1846056
16209,93301,-87.17200000000001,38.7194,INDIANA,GRAHAM,1847501
16209,93301,-87.1702,38.7199,INDIANA,GRAHAM,1847501
90074,541916,-86.74,41.62,INDIANA,BELFAST,1846350
90074,541917,-86.03,41.04,INDIANA,AKRON,1846910
85673,517391,-85.09,39.56,INDIANA,EVERTON,1847331
62478,373801,-87.93,38.13,INDIANA,NEW HARMONY,1847631
62733,375132,-84.8224,39.2622,INDIANA,LOGAN,1847060
62733,375133,-84.88,39.25,INDIANA,LOGAN,1847060
62733,375134,-84.85,39.1,INDIANA,LAWRENCEBURG,1847025
1215764,5519195,-86.25,41.66667,INDIANA,SOUTH BEND,1846601
108601,650524,-86.89,41.43,INDIANA,WANATAH,1846390
108597,650511,-84.93,40.83,INDIANA,DECATUR,1846733
1209657,5507677,-86.46667,38.33333,INDIANA,ENGLISH,1847118
1209657,5507674,-86.83333,38.4,INDIANA,JASPER,1847546
1209657,5507673,-86.93333,38.4,INDIANA,JASPER,1847546
1209657,5507671,-86.93333,38.4,INDIANA,JASPER,1847546
1209657,5507670,-87.0,38.41667,INDIANA,IRELAND,1847546
90146,541593,-86.71,40.04,INDIANA,SHANNONDALE,1847933
1209657,5507669,-87.0,38.41667,INDIANA,IRELAND,1847546
1112313,5236201,-85.43333,40.55,INDIANA,MARION,1846952
1112313,5236200,-85.58333,40.55,INDIANA,SOMERSET,1846953
1112313,5236199,-85.85,40.66667,INDIANA,MARION,1846992
90146,541594,-86.16,39.92,INDIANA,WILLIAMS CREEK,1846260
1112313,5236198,-85.63333,40.55,INDIANA,WABASH,1846953
1112313,5236198,-85.58333,40.55,INDIANA,WABASH,1846953
90147,541558,-86.95,40.44,INDIANA,PURDUE UNIVERSITY,1847906
90148,541600,-85.89,38.96,INDIANA,SEYMOUR,1847274
108597,650510,-85.04,40.74,INDIANA,COPPESS CORNER,1846733
16214,95951,-85.96,39.9,INDIANA,OAKLANDON,1846236
6752,39090,-87.05,41.6,INDIANA,CHESTERTON,1846304
1209657,5507680,-86.58333,38.1,INDIANA,LEOPOLD,1847551
40901,238262,-86.3736,40.6447,INDIANA,DEER CREEK,1846947
40901,238262,-86.4285,40.6488,INDIANA,DEER CREEK,1846947
40901,238251,-86.7451,40.6754,INDIANA,YOEMAN,1847960
86337,521196,-85.17,39.81,INDIANA,CAMBRIDGE CITY,1847327
62733,375135,-84.8224,39.2621,INDIANA,LOGAN,1847060
90074,541926,-85.09,40.68,INDIANA,VERA CRUZ,1846714
40901,238251,-86.57600000000001,40.6563,INDIANA,ROCKFIELD,1846923
1123750,5270053,-87.28333,38.5,INDIANA,PETERSBURG,1847567
32284,189544,-86.25,39.76,INDIANA,MICKLEYVILLE,1846241
1123684,5269974,-87.26666999999999,38.05,INDIANA,BOONVILLE,1847601
6747,39055,-87.45,41.5,INDIANA,SCHERERVILLE,1846375
1215761,5519186,-86.08333,40.88333,INDIANA,DENVER,1846926
1209657,5507686,-86.21667,38.31667,INDIANA,FRENCHTOWN,1847115
1209657,5507685,-86.95,38.3,INDIANA,HUNTINGBURG,1847542
1209657,5507684,-86.76666999999999,38.01667,INDIANA,TELL CITY,1847586
1209657,5507683,-86.76666999999999,38.01667,INDIANA,TELL CITY,1847586
1209657,5507682,-86.65,38.05,INDIANA,GATCHEL,1847586
1209657,5507681,-86.8,37.96667,INDIANA,TELL CITY,
1123684,5269974,-87.21667,38.01667,INDIANA,BOONVILLE,1847601
16214,95961,-85.7699,39.8573,INDIANA,MAXWELL,1846140
16214,95962,-85.8,39.96,INDIANA,INGALLS,1846048
16214,96017,-85.58,39.89,INDIANA,MAPLE VLY,1847384
1173866,5406844,-85.56667,41.0,INDIANA,LUTHER,1846750
5457,31823,-87.22,38.3511,INDIANA,WINSLOW,1847598
1173866,5406845,-85.13333,41.06667,INDIANA,FT WAYNE,1846803
1173866,5406920,-85.48333000000001,40.88333,INDIANA,HUNTINGTON,1846750
1173868,5407020,-86.06667,40.71667,INDIANA,PERU,1846970
1173871,5407112,-87.51666999999999,38.51667,INDIANA,DECKER,1847524
114420,686024,-85.31,39.21,INDIANA,NAPOLEON,1847006
114420,686023,-84.86,39.22,INDIANA,BRIGHT,1847025
1173866,5406842,-85.51666999999999,41.05,INDIANA,WASHINGTON CENTER,1846725
114420,686022,-85.33,39.21,INDIANA,NAPOLEON,1847037
1124043,5270944,-86.46667,38.33333,INDIANA,ENGLISH,1847118
1173871,5407113,-87.16667,38.66667,INDIANA,WASHINGTON,1847501
32836,191743,-86.3,40.05,INDIANA,ROSSTON,1846077
32836,191744,-86.52,40.55,INDIANA,FLORA,1846929
32836,191745,-87.4,40.13,INDIANA,COVINGTON,1847932
32836,191747,-87.4,40.13,INDIANA,COVINGTON,1847932
32836,191752,-85.93,39.82,INDIANA,MT COMFORT,1846140
32836,191756,-86.52,39.81,INDIANA,MAPLEWOOD,1846122
1124039,5270852,-87.31667,40.61667,INDIANA,FOWLER,1847944
32836,191758,-86.4188,39.7,INDIANA,PLAINFIELD,1846168
1173865,5406837,-84.93333,40.75,INDIANA,MONROE,1846772
55651,336313,-86.89,41.17,INDIANA,SAN PIERRE,1846374
1112313,5236208,-85.83333,40.78333,INDIANA,ARCANA,1846992
1112313,5236207,-85.5,40.53333,INDIANA,ERIE,1846953
1112313,5236204,-85.5,40.53333,INDIANA,FULTON,1846953
1112313,5236203,-86.26666999999999,40.95,INDIANA,LAKE CICOTT,1846975
1112313,5236202,-86.51666999999999,40.76667,INDIANA,MARION,1846947
32703,192789,-87.03,39.64,INDIANA,LENA,1846135
32329,189266,-84.8435,39.83,INDIANA,RICHMOND,1847374
32703,192790,-86.8003,39.5246,INDIANA,CLOVERDALE,1846120
37824,220114,-87.35,38.33,INDIANA,OAKLAND CITY,1847660
32329,189266,-84.9,39.83,INDIANA,RICHMOND,1847374
32329,189264,-85.17,39.92,INDIANA,HAGERSTOWN,1847346
39441,245103,-87.0143,40.7813,INDIANA,WOLCOTT,1847995
39441,245103,-87.0158,40.7807,INDIANA,WOLCOTT,1847995
39441,229187,-85.72,40.67,INDIANA,LA FONTAINE,1846940
1175152,5411756,-87.36667,38.01667,INDIANA,CHANDLER,1847630
32762,191365,-87.26,40.1,INDIANA,VEEDERSBURG,1847987
55620,334213,-87.4416,40.8082,INDIANA,KENTLAND,1847951
55620,334213,-87.4375,40.8099,INDIANA,KENTLAND,1847951
32329,189265,-85.05,39.88,INDIANA,GREENS FORK,1847345
90149,541624,-86.7745,40.2879,INDIANA,STOCKWELL,1847983
32836,191760,-85.2734,39.8405,INDIANA,STRAUGHN,1847387
32836,191762,-86.27,40.42,INDIANA,RUSSIAVILLE,1846979
16214,102014,-85.8782,39.8112,INDIANA,GEM,1846140
16214,101232,-86.0098,39.8333,INDIANA,LAWRENCE,1846235
16214,101232,-85.9531,39.8215,INDIANA,CUMBERLAND,1846235
16214,101228,-86.6721,40.4771,INDIANA,PYRMONT,1846923
62478,373812,-87.57,38.22,INDIANA,HAUBSTADT,1847648
62478,373811,-87.57,38.25,INDIANA,FT BRANCH,1847648
62478,373810,-87.57,38.36,INDIANA,PRINCETON,1847670
90071,541232,-85.83,41.58,INDIANA,GOSHEN,1846526
16214,102014,-85.9531,39.8218,INDIANA,MT COMFORT,1846235
62478,373809,-87.57,38.2,INDIANA,HAUBSTADT,1847639
62478,373807,-87.57,38.25,INDIANA,FT BRANCH,1847648
90072,541227,-85.78,41.24,INDIANA,WARSAW,1846582
90072,541228,-85.21,41.06,INDIANA,HUGO,1846804
90072,541229,-85.24,41.34,INDIANA,SWAN,1846710
90072,541230,-85.14,41.35,INDIANA,ALTONA,1846738
90074,541913,-86.29,41.06,INDIANA,PERSHING,1846975
16214,100488,-85.7961,39.8994,INDIANA,EDEN,1846040
16214,100488,-85.8808,39.8827,INDIANA,MC CORDSVILLE,1846055
62478,373808,-87.54,38.01,INDIANA,(EVV)DRESS ARPT EVAN,1847711
1173871,5407114,-86.6,39.58333,INDIANA,CROWN CENTER,1846180
62478,373813,-87.13,38.29,INDIANA,STENDAL,1847585
62478,373815,-87.05,37.88,INDIANA,ROCKPORT,1847635
32836,191766,-86.0752,39.9123,INDIANA,ALLISONVILLE,1846250
32836,191767,-86.09,39.8693,INDIANA,CASTLETON,1846220
32836,191769,-86.1221,39.8895,INDIANA,RAVENSWOOD,1846240
32836,191770,-86.02,39.82,INDIANA,LAWRENCE,1846226
32836,191771,-86.03,39.83,INDIANA,LAWRENCE,1846226
32836,191772,-86.9,40.04,INDIANA,CRAWFORDSVILLE,1847933
32836,191774,-85.7,39.67,INDIANA,MORRISTOWN,1846161
32836,191790,-86.3047,39.7088,INDIANA,VALLEY MILLS,1846241
62478,373814,-87.78,38.18,INDIANA,POSEYVILLE,1847633
1173871,5407115,-86.81667,39.56667,INDIANA,GREENCASTLE,1846120
1173872,5407120,-86.48333000000001,39.61667,INDIANA,MONROVIA,1846118
1173876,5407207,-86.48333000000001,38.86667,INDIANA,BEDFORD,1847421
1173878,5407212,-87.36667,39.8,INDIANA,MONTEZUMA,1847862
62478,374223,-87.78,38.14,INDIANA,WILSON,1847633
62478,373987,-87.5707,38.0924,INDIANA,DARMSTADT,1847725
62478,373987,-87.5333,38.0968,INDIANA,EARLE,1847725
62478,373982,-87.8494,38.083,INDIANA,SPRINGFIELD,1847638
62478,373982,-87.7382,38.0903,INDIANA,BLAIRSVILLE,1847638
1173871,5407117,-86.91667,38.56667,INDIANA,ALFORDSVILLE,1847553
90149,541627,-86.61,40.14,INDIANA,THORNTOWN,1846071
90149,541628,-86.61,40.13,INDIANA,THORNTOWN,1846071
18079,107089,-85.89,41.08,INDIANA,SILVER LAKE,1846982
58011,347791,-85.49,41.16,INDIANA,COLUMBIA CITY,1846725
58011,347790,-86.4,40.87,INDIANA,LUCERNE,1846950
58011,347789,-85.88,41.11,INDIANA,CLAYPOOL,1846510
114666,687798,-86.25,38.26,INDIANA,WHITE CLOUD,1847115
114666,687799,-86.22,38.34,INDIANA,DEPAUW,1847115
114666,687800,-86.36,38.21,INDIANA,LEAVENWORTH,1847137
114666,687801,-86.32,38.2,INDIANA,LEAVENWORTH,1847137
114666,687802,-86.33,38.26,INDIANA,TOWER,1847145
58011,347792,-85.49,41.16,INDIANA,COLUMBIA CITY,1846725
1171459,5401434,-86.43333,39.43333,INDIANA,MARTINSVILLE,1846151
114666,687804,-86.491,38.22,INDIANA,SULPHUR SPGS,1847118
114666,687804,-86.493,38.217,INDIANA,SULPHUR SPGS,1847118
61456,367512,-85.13,41.08,INDIANA,FT WAYNE,1846802
61456,367511,-85.07,41.13,INDIANA,BROOKSIDE ESTATES,1846835
114666,687807,-85.42299999999999,38.789,INDIANA,PLEASANT PT,1847250
114666,687807,-85.426,38.789,INDIANA,PLEASANT PT,1847250
1094063,5141138,-87.31667,40.61667,INDIANA,FOWLER,1847944
1171459,5401434,-86.33333,39.43333,INDIANA,MARTINSVILLE,1846151
114666,687803,-85.67,38.49,INDIANA,CHARLESTOWN,1847111
1171459,5401436,-85.68333,40.1,INDIANA,ANDERSON,1846016
115723,695448,-85.1,41.18,INDIANA,BROOKSIDE ESTATES,1846845
58011,347794,-85.49,41.16,INDIANA,COLUMBIA CITY,1846725
105063,632980,-86.32,39.66,INDIANA,CAMBY,1846113
105063,632979,-87.41,39.66,INDIANA,CLINTON,1847842
105063,632978,-86.84,39.57,INDIANA,PUTNAMVILLE,1846120
105063,632661,-87.0285,39.0858,INDIANA,BLOOMFORD SHAWNEE AR,1847471
105063,632661,-87.0299,39.0854,INDIANA,BLOOMFORD SHAWNEE AR,1847471
105063,631443,-85.48,39.37,INDIANA,GREENSBURG,1847240
105063,631441,-86.2,39.59,INDIANA,SMITH VALLEY,1846143
105063,631437,-86.1585,39.6249,INDIANA,FRANCES,1846142
58011,347793,-86.45,40.71,INDIANA,CLYMERS,1846947
105063,631436,-86.6308,39.5714,INDIANA,LITTLE PT,1846180
61953,375627,-87.05,38.62,INDIANA,CORNING,1847558
61953,375630,-86.99,38.84,INDIANA,ODON,1847562
115718,695436,-84.92,41.28,INDIANA,SPENCERVILLE,1846788
115718,695437,-84.89,41.26,INDIANA,GEORGETOWN,1846788
115718,695438,-84.92,41.28,INDIANA,SPENCERVILLE,1846788
115718,695439,-84.91,41.28,INDIANA,SPENCERVILLE,1846788
115718,695440,-84.81,41.26,INDIANA,GEORGETOWN,1846743
58011,347795,-85.3,41.02,INDIANA,PRAIRIE SWITCH,1846814
105063,631426,-85.48,39.34,INDIANA,GREENSBURG,1847240
105063,632981,-87.38,39.44,INDIANA,BELT JCT,1847802
1171460,5401437,-86.51666999999999,40.28333,INDIANA,FRANKFORT,1846041
60205,359390,-85.7588,38.5409,INDIANA,HENRYVILLE,1847126
86762,525502,-85.75,38.4,INDIANA,SELLERSBURG,1847172
60205,359896,-85.8848,38.5103,INDIANA,DAISY HILL,1847165
57951,347530,-86.4464,38.5626,INDIANA,PAOLI,1847454
57951,347530,-86.4801,38.5539,INDIANA,PAOLI,1847454
89530,539185,-84.83,39.16,INDIANA,HOMESTEAD,1847025
1153182,5360221,-86.86667,40.46667,INDIANA,WEST LAFAYETTE,1847905
1153182,5360221,-86.88333,40.46667,INDIANA,WEST LAFAYETTE,1847904
1153182,5360220,-86.9,40.38333,INDIANA,LAFAYETTE,1847909
86762,523806,-86.7223,38.14,INDIANA,BRISTOW,1847515
89527,539149,-85.77,38.48,INDIANA,MEMPHIS,1847143
1114039,5244106,-84.86667,40.95,INDIANA,DECATUR,1846773
60205,359912,-85.8678,38.5156,INDIANA,BLUE LICK,1847106
60205,359912,-85.581,38.606,INDIANA,NABB,1847147
60205,359915,-85.4421,38.6346,INDIANA,PAYNESVILLE,1847243
60205,359915,-85.57,38.6096,INDIANA,CHELSEA,1847147
115764,695789,-85.14,41.12,INDIANA,GREENDALE,1846825
115767,695797,-86.92,41.35,INDIANA,LA CROSSE,1846348
115767,695798,-86.35,40.76,INDIANA,LOGANSPORT,1846947
1114039,5244105,-85.01666999999999,40.6,INDIANA,BERNE,1846740
1171463,5400767,-87.45,39.66667,INDIANA,CLINTON,1847842
60205,359896,-86.1893,38.4316,INDIANA,FREDDRICKSBURG,1847120
1171463,5400777,-86.8,39.46667,INDIANA,CLOVERDALE,1846120
1171463,5400767,-87.41667,39.66667,INDIANA,CLINTON,1847842
1171463,5400768,-87.35,39.8,INDIANA,MONTEZUMA,1847862
1171463,5400769,-87.28333,39.76667,INDIANA,ROCKVILLE,1847872
1171463,5400771,-87.5,39.55,INDIANA,TERRE HAUTE,1847885
1171463,5400772,-86.71667,40.66667,INDIANA,YOEMAN,1846923
1171463,5400773,-87.5,39.55,INDIANA,TERRE HAUTE,1847885
60205,359390,-85.8758,38.5154,INDIANA,BLUE LICK,1847106
115764,695786,-85.7,40.6,INDIANA,SHADY HILLS,1846952
1171464,5400789,-86.93333,39.03333,INDIANA,BLOOMFIELD,1847424
115764,695787,-85.72,40.63,INDIANA,JALAPA,1846952
104962,630145,-87.287,38.2102,INDIANA,LYNNVILLE,1847619
104962,628827,-87.7286,38.2753,INDIANA,JOHNSON,1847665
104962,628827,-87.7528,38.2653,INDIANA,JOHNSON,1847665
104962,628821,-87.1287,38.3084,INDIANA,WINSLOW,1847590
104962,628819,-87.69,38.27,INDIANA,OWENSVILLE,1847665
1171463,5400774,-87.4,39.46667,INDIANA,TERRE HAUTE,1847807
1171463,5400775,-87.26666999999999,39.5,INDIANA,SEELYVILLE,1847803
1171463,5400776,-87.11667,39.53333,INDIANA,BRAZIL,1847834
115764,695788,-85.67,40.58,INDIANA,SHADY HILLS,1846952
62519,374074,-87.63,38.29,INDIANA,MC GARY,1847665
105063,632982,-86.1965,39.6198,INDIANA,SMITH VALLEY,1846142
105064,631386,-85.45,39.61,INDIANA,RUSHVILLE,1846173
90150,541618,-86.37,39.62,INDIANA,MOORESVILLE,1846158
1112313,5236197,-85.81667,40.66667,INDIANA,PERU,1846940
115670,695121,-86.94,39.12,INDIANA,PT COMMERCE,1847424
115670,695122,-85.3713,39.2327,INDIANA,SMYRNA,1847240
115670,695122,-85.4206,39.2457,INDIANA,MILLHOUSEN,1847240
61456,367515,-85.93,40.6,INDIANA,AMBOY,1846911
61456,367514,-85.6,40.86,INDIANA,ANDREWS,1846702
61456,367513,-85.82,40.8,INDIANA,WABASH,1846992
90150,541616,-86.7901,40.4177,INDIANA,HALSMER ARPT,1847905
58011,347798,-86.15,40.66,INDIANA,(GUS)GRISSOM AFB PER,1846970
90215,541870,-87.15,38.27,INDIANA,STENDAL,1847585
90232,541952,-87.8812,38.1478,INDIANA,RAPTURE,1847631
115671,695123,-87.14,39.52,INDIANA,BRAZIL,1847834
90232,541952,-87.9087,38.0981,INDIANA,NEW HARMONY,1847631
115671,695128,-86.66,39.95,INDIANA,JAMESTOWN,1846147
115671,695129,-86.75,39.67,INDIANA,FILLMORE,1846128
115671,695131,-86.47,40.05,INDIANA,LEBANON,1846052
40873,238032,-85.9454,39.1001,INDIANA,COLUMBUS ARPT,1847201
90215,541868,-87.57,38.35,INDIANA,PRINCETON,1847670
115671,695132,-86.56,39.76,INDIANA,DANVILLE,1846122
90150,541614,-86.87,40.41,INDIANA,LAFAYETTE,1847904
58011,347800,-85.45,40.7,INDIANA,WARREN,1846792
90149,541629,-86.55,40.13,INDIANA,THORNTOWN,1846071
115669,695113,-86.84,40.51,INDIANA,BATTLE GROUND,1847920
115669,695114,-86.91,40.47,INDIANA,WEST LAFAYETTE,1847906
115669,695115,-86.81,40.52,INDIANA,BATTLE GROUND,1847920
37730,219627,-85.13,41.08,INDIANA,FT WAYNE,1846802
37730,219626,-85.15,41.13,INDIANA,FT WAYNE SMITH ARPT,1846825
37730,219625,-85.63,41.04,INDIANA,SOUTH WHITLEY,1846787
58068,348750,-85.7424,39.0164,INDIANA,HAYDEN,1847265
58011,347799,-85.62,40.7,INDIANA,BANQUO,1846940
58068,348750,-85.7405,39.0232,INDIANA,HAYDEN,1847265
58068,348154,-85.42,39.92,INDIANA,WESTWOOD,1847362
58011,347802,-85.26,40.6,INDIANA,KEYSTONE,1846781
108019,647148,-85.5674,40.0855,INDIANA,DALEVILLE,1847334
108019,647148,-85.5678,40.0856,INDIANA,DALEVILLE,1847334
58011,347801,-85.37,40.73,INDIANA,PLUM TREE,1846770
115670,695118,-86.54,39.89,INDIANA,LIZTON,1846149
115670,695120,-86.42,39.42,INDIANA,MARTINSVILLE,1846151
90150,541613,-86.8579,40.3962,INDIANA,LAFAYETTE,1847905
115669,695116,-86.9,40.04,INDIANA,CRAWFORDSVILLE,1847933
105063,632983,-86.1585,39.6131,INDIANA,FRANCES,1846142
115671,695135,-86.23,40.29,INDIANA,KEMPTON,1846049
115671,695142,-86.11,40.48,INDIANA,KOKOMO,1846901
1123452,5268634,-86.51666999999999,39.16667,INDIANA,PITTSBORO,1847405
1123452,5268632,-85.5,40.16667,INDIANA,MT COMFORT,1847396
1123452,5268629,-86.05,39.66667,INDIANA,YORKTOWN,1846237
1123452,5268629,-86.08333,39.71667,INDIANA,YORKTOWN,1846107
61953,375592,-87.31,38.78,INDIANA,BICKNELL,1847512
61953,375593,-87.31,38.78,INDIANA,BICKNELL,1847512
1123452,5268628,-86.38333,39.51667,INDIANA,GREENWOOD,1846158
1123452,5268626,-86.13333,40.48333,INDIANA,BEECH GROVE,1846901
1123452,5268635,-85.91667,39.83333,INDIANA,MIDDLETOWN,1846140
1123452,5268625,-86.25,39.78333,INDIANA,CENTERTON,1846224
1123452,5268622,-86.51666999999999,40.28333,INDIANA,SPEEDWAY,1846041
1123452,5268622,-86.38333,40.36667,INDIANA,SPEEDWAY,1846057
1123452,5268621,-86.65,39.5,INDIANA,FISHERS,1846151
61953,375625,-87.17,38.66,INDIANA,WASHINGTON,1847501
105064,632660,-86.3057,39.9897,INDIANA,WHITESTOWN,1846077
105064,632660,-86.3027,39.9887,INDIANA,WHITESTOWN,1846077
105064,631388,-85.45,39.61,INDIANA,RUSHVILLE,1846173
105064,631387,-85.45,39.61,INDIANA,RUSHVILLE,1846173
1123452,5268623,-86.66667,40.58333,INDIANA,KOKOMO,1846923
115671,695139,-86.13,40.38,INDIANA,SHARPSVILLE,1846068
1123452,5268635,-85.61667,39.88333,INDIANA,MIDDLETOWN,1846186
55110,331153,-87.0,41.25,INDIANA,CLANRICARDE,1846347
115671,695147,-86.01,40.18,INDIANA,ARCADIA,1846030
115671,695154,-85.77,40.22,INDIANA,FRANKTON,1846044
115671,695155,-85.82,40.26,INDIANA,SOUTH ELWOOD,1846036
115671,695156,-85.84,40.29,INDIANA,ELWOOD,1846036
115673,696889,-86.69,39.3,INDIANA,ROMONA,1847433
115673,696890,-86.56,39.38,INDIANA,PARAGON,1846151
40873,238031,-86.02,39.13,INDIANA,OGILVILLE,1847201
115673,697007,-85.48,39.28,INDIANA,HARRIS CITY,1847240
1123452,5268636,-85.78333,39.51667,INDIANA,WILLIAMS,1846176
115675,696911,-85.96,40.36,INDIANA,WINDFALL,1846076
115675,697018,-87.25,39.85,INDIANA,ANNAPOLIS,1847832
58011,347797,-85.49,41.16,INDIANA,COLUMBIA CITY,1846725
58011,347796,-85.13,41.08,INDIANA,FT WAYNE,1846802
61953,375590,-87.44,38.87,INDIANA,OAKTOWN,1847561
61953,375591,-87.39,38.87,INDIANA,OAKTOWN,1847561
89571,539806,-85.14,41.12,INDIANA,GREENDALE,1846825
1123462,5270415,-87.38333,40.45,INDIANA,PINE VLG,1847921
1123452,5268750,-85.53333,40.05,INDIANA,WANAMAKER,1847356
115675,697017,-87.39,40.14,INDIANA,COVINGTON,1847932
62519,374075,-87.28,38.49,INDIANA,PETERSBURG,1847567
1112313,5236209,-85.81667,40.75,INDIANA,WABASH,1846992
1112313,5236209,-85.81667,40.78333,INDIANA,WABASH,1846992
1112313,5236384,-85.0,41.63333,INDIANA,MEXICO,1846703
1112313,5236383,-85.16667,41.58333,INDIANA,PERU,1846747
1112313,5238572,-86.93333,41.11667,INDIANA,LIGONIER,1846392
1112313,5238573,-86.1,40.66667,INDIANA,SALEM CENTER,1846914
59155,354105,-85.8888,38.3075,INDIANA,FLOYDS KNOBS,1847119
59155,354103,-85.4572,38.7607,INDIANA,SMYRNA,1847250
59155,354103,-85.4625,38.7601,INDIANA,SMYRNA,1847250
59155,354102,-85.758,38.3306,INDIANA,JEFFERSONVILLE ARPT,1847129
1112313,5236385,-86.23333000000001,40.66667,INDIANA,PERU,1846994
59155,354102,-85.7246,38.336,INDIANA,JEFFERSONVILLE ARPT,1847130
1112313,5236382,-85.58333,41.46667,INDIANA,ONWARD,1846767
1112313,5236381,-85.38333,41.5,INDIANA,GRISSOM AFB,1846784
1112313,5236380,-86.86667,40.73333,INDIANA,SOMERSET,1847980
1112313,5236379,-85.55,41.53333,INDIANA,WALTON,1846571
105407,632138,-85.98,38.13,INDIANA,ELIZABETH,1847117
105407,632137,-86.13,38.22,INDIANA,CORYDON,1847112
105407,632136,-86.13,38.23,INDIANA,CORYDON,1847112
105407,632135,-86.02,38.51,INDIANA,NEW PEKIN,1847165
1112313,5238574,-86.81667,41.18333,INDIANA,ANGOLA,1846366
105407,632134,-86.17,38.61,INDIANA,HITCHCOCK STATION,1847167
1112313,5236386,-85.85,40.66667,INDIANA,MEDARYVILLE,1846992
59155,354105,-85.8507,38.315,INDIANA,FLOYDS KNOBS,1847150
87816,530501,-86.4407,41.4384,INDIANA,TYNER,1846574
87816,530499,-86.5304,41.4187,INDIANA,KOONTZ LAKE,1846574
87816,530499,-86.4666,41.4318,INDIANA,KOONTZ LAKE LAKE,1846574
87816,530498,-86.6409,41.4189,INDIANA,HAMLET,1846532
38028,221172,-87.3011,41.2896,INDIANA,DINWIDDIE,1846341
61697,369148,-85.40700000000001,39.0667,INDIANA,HOLTON,1847023
61697,369148,-85.2562,39.1127,INDIANA,DELAWARE,1847037
61697,370279,-85.07,38.75,INDIANA,VEVAY,1847043
1112313,5236387,-86.15,40.65,INDIANA,BUNKER HILL,1846970
61697,370442,-85.07,38.75,INDIANA,VEVAY,1847043
59155,354258,-86.9981,38.2799,INDIANA,HOLLAND,1847542
41145,239330,-87.44,40.1,INDIANA,HIGHLAND ARPT,1847932
41142,239265,-86.1,38.84,INDIANA,VALLONIA,1847281
1112313,5238570,-86.11667,40.81667,INDIANA,REYNOLDS,1846970
59155,354258,-86.9999,38.2794,INDIANA,HOLLAND,1847542
59155,354257,-86.7665,38.3631,INDIANA,CELESTINE,1847580
1112313,5238571,-86.0,40.63333,INDIANA,ROME CITY,1846911
59155,354257,-86.9226,38.3302,INDIANA,HUNTINGBURG,1847542
61697,371713,-84.9,39.83,INDIANA,RICHMOND,1847374
87816,530501,-86.4666,41.4318,INDIANA,TYNER,1846574
1144637,5318642,-85.13333,39.11667,INDIANA,MILAN,1847031
1112313,5236227,-85.61667,41.4,INDIANA,NORTH WEBSTER,1846732
1144636,5322902,-86.88333,39.2,INDIANA,FREEDOM,1847431
1144636,5322901,-86.28333,39.73333,INDIANA,(IND)INDNPLS INTL AR,1846241
1144812,5323223,-86.15,38.18333,INDIANA,CORYDON,1847112
1144636,5322900,-86.56667,39.4,INDIANA,PARAGON,1846166
1144812,5323225,-85.98333000000001,38.23333,INDIANA,LANESVILLE,1847136
1144812,5323269,-85.96667,38.3,INDIANA,GEORGETOWN,1847122
1144812,5323270,-85.76666999999999,38.31667,INDIANA,CLARKSVILLE,1847129
1144812,5323272,-85.66667,38.45,INDIANA,CHARLESTOWN,1847111
1144636,5322904,-86.88333,39.2,INDIANA,FREEDOM,1847431
1144636,5322899,-86.01666999999999,40.0,INDIANA,FISHERS,1846038
1144636,5322897,-85.86667,40.28333,INDIANA,WEST ELWOOD,1846036
1144636,5322897,-85.83333,40.26667,INDIANA,WEST ELWOOD,1846036
1144636,5322895,-87.25,39.56667,INDIANA,TERRE HAUTE,1847834
1193417,5462068,-85.21667,39.81667,INDIANA,DUBLIN,1847327
1112313,5236216,-85.58333,40.55,INDIANA,HARTFORD CITY,1846953
1193417,5462067,-85.15,39.8,INDIANA,CAMBRIDGE CITY,1847327
1193411,5461911,-85.25,39.01667,INDIANA,VERSAILLES,1847042
1144636,5322895,-87.26666999999999,39.56667,INDIANA,TERRE HAUTE,1847805
1144636,5322898,-86.4,39.7,INDIANA,PLAINFIELD,1846168
1112313,5236228,-85.58333,41.46667,INDIANA,CROMWELL,1846767
89842,541242,-85.0,41.63,INDIANA,ANGOLA,1846703
89842,541240,-85.7,41.33,INDIANA,NORTH WEBSTER,1846555
1112313,5236226,-85.7,41.35,INDIANA,CHALMERS,1846555
1112313,5236225,-86.96667,40.66667,INDIANA,BROOKSTON,1847929
1112313,5236223,-85.15,40.35,INDIANA,HARTFORD CITY,1847373
5679,33192,-87.33,41.48,INDIANA,MERRILLVILLE,1846410
89842,541233,-86.12,41.3,INDIANA,BOURBON,1846504
89842,541236,-86.76,40.88,INDIANA,BUFFALO,1847960
89842,541237,-86.05,41.28,INDIANA,ETNA GREEN,1846524
89842,541238,-86.05,41.28,INDIANA,ETNA GREEN,1846524
89842,541241,-85.42,41.64,INDIANA,LAGRANGE,1846761
1112313,5236222,-85.36667,40.45,INDIANA,PORTLAND,1847348
1144636,5322909,-85.83333,39.21667,INDIANA,COLUMBUS,1847203
1144636,5322908,-86.01666999999999,39.13333,INDIANA,OGILVILLE,1847201
1144636,5322907,-85.23333000000001,40.3,INDIANA,ALBANY,1847320
1112313,5236220,-85.15,40.5,INDIANA,PORTLAND,1847369
1144636,5322905,-86.98333000000001,39.11667,INDIANA,WORTHINGTON,1847471
1112313,5236219,-85.16667,40.58333,INDIANA,ARCANA,1846759
1112313,5236217,-85.5,40.53333,INDIANA,MARION,1846953
89842,541239,-87.04,40.76,INDIANA,WOLCOTT,1847995
1112313,5236221,-84.98333000000001,40.43333,INDIANA,PENNVILLE,1847371
87816,530498,-86.5472,41.4317,INDIANA,KOONTZ LAKE,1846532
87816,530732,-86.4435,41.346000000000004,INDIANA,DONALDSON,1846563
17483,101121,-85.16,39.79,INDIANA,MILTON,1847327
87819,538340,-85.8119,41.0437,INDIANA,NORTH MANCHESTER,1846982
87819,538340,-85.8965,41.0314,INDIANA,DISKO,1846962
87819,538306,-85.8856,41.4195,INDIANA,MILFORD WEISSER ARPT,1846542
87819,538306,-85.9189,41.4124,INDIANA,GRAVELTON,1846542
87819,538299,-85.9154,41.1915,INDIANA,PALESTINE,1846580
87819,538299,-85.9217,41.1979,INDIANA,PALESTINE,1846580
87819,537838,-85.55,41.4,INDIANA,KIMMELL,1846767
1214582,5517445,-85.7,39.85,INDIANA,GREENFIELD,1846140
1214582,5517444,-86.03333,39.68333,INDIANA,INDIANAPOLIS,1846239
1214582,5517446,-86.05,39.71667,INDIANA,INDIANAPOLIS,1846239
1214582,5517451,-86.13333,39.55,INDIANA,FRANKLIN,1846184
1214582,5517451,-86.05,39.56667,INDIANA,FRANKLIN,1846184
1214582,5517454,-87.4,39.66667,INDIANA,CLINTON,1847842
1214582,5517455,-86.43333,39.43333,INDIANA,MARTINSVILLE,1846151
1214582,5517456,-87.46667,39.51667,INDIANA,TERRE HAUTE,1847885
1214582,5517457,-87.45,39.5,INDIANA,TERRE HAUTE,1847885
5718,33361,-86.67,40.2,INDIANA,COLFAX,1846035
5718,33353,-86.0449,39.67,INDIANA,SOUTHPORT,1846237
1214582,5517449,-86.1,39.55,INDIANA,NEW WHITELAND,1846184
5718,33351,-86.8,39.5345,INDIANA,CLOVERDALE,1846120
1214582,5517443,-85.7,39.85,INDIANA,GREENFIELD,1846140
41182,241766,-86.6078,39.4407,INDIANA,LEWISVILLE,1846166
86664,523085,-85.74,41.2,INDIANA,PIERCETON,1846562
86664,523086,-85.76,41.22,INDIANA,PIERCETON,1846562
86664,523088,-85.37,40.96,INDIANA,ROANOKE,1846783
86664,523089,-85.32,40.82,INDIANA,UNIONDALE,1846770
86664,523090,-85.3,40.81,INDIANA,UNIONDALE,1846770
86664,523091,-85.08,40.67,INDIANA,VERA CRUZ,1846714
86664,523092,-85.17,40.75,INDIANA,BLUFFTON,1846714
5731,33410,-86.743,38.67,INDIANA,SHOALS,1847581
1214582,5517442,-85.46667,39.81667,INDIANA,SPICELAND,1847385
5731,33408,-87.1642,38.7733,INDIANA,PLAINVILLE,1847501
5742,33501,-87.1,39.4,INDIANA,ASHBORO,1847840
1214581,5517358,-86.76666999999999,40.28333,INDIANA,STOCKWELL,1847909
1112313,5238569,-86.11667,40.65,INDIANA,TOPEKA,1846914
1112313,5238568,-86.2,40.7,INDIANA,LIGONIER,1846994
1214581,5517359,-86.71667,40.25,INDIANA,CLARKS HILL,1847930
1214582,5517440,-85.53333,39.8,INDIANA,KNIGHTSTOWN,1846148
1214582,5517441,-85.53333,39.8,INDIANA,KNIGHTSTOWN,1846148
41182,241766,-86.4992,39.4462,INDIANA,MARTINSVILLE ARPT,1846151
5731,33406,-86.9,38.67,INDIANA,LOOGOOTEE,1847553
87816,530732,-86.31299999999999,41.3611,INDIANA,PLYMOUTH,1846563
5718,33348,-86.9114,39.03,INDIANA,BLOOMFIELD,1847424
17467,107019,-84.9593,39.0201,INDIANA,WILMINGTON,1847001
61604,379721,-87.3075,38.6636,INDIANA,WHEATLAND,1847597
61604,379719,-86.77,39.19,INDIANA,ADEL,1847460
61604,379718,-87.3534,38.6143,INDIANA,MONROE CITY,1847557
61604,379717,-87.3544,38.6153,INDIANA,MONROE CITY,1847557
61604,379716,-86.6439,39.8599,INDIANA,NORTH SALEM,1846165
61604,379714,-86.6439,39.8599,INDIANA,NORTH SALEM,1846165
61604,379711,-87.26,40.11,INDIANA,VEEDERSBURG,1847987
61604,379710,-87.39,40.08,INDIANA,COVINGTON,1847932
61604,379723,-86.39,39.7,INDIANA,PLAINFIELD,1846168
61604,379709,-87.49,40.14,INDIANA,FOSTER,1847932
61604,379706,-86.52,38.91,INDIANA,O OLITIC,1847421
61604,379697,-85.62,39.35,INDIANA,MILFORD,1847240
61604,379695,-85.9442,39.2444,INDIANA,RIVERVIEW ACRES,1847201
61604,379690,-86.2454,39.2045,INDIANA,NASHVILLE,1847448
1119488,5258207,-86.98333000000001,40.98333,INDIANA,RENSSELAER,1847946
1119488,5258207,-86.91667,40.93333,INDIANA,RENSSELAER,1847946
87816,530733,-86.2875,41.3629,INDIANA,PLYMOUTH MUNI ARPT,1846563
87816,530733,-86.2893,41.361000000000004,INDIANA,PLYMOUTH MUNI ARPT,1846563
61604,379708,-85.8997,38.7963,INDIANA,CROTHERSVILLE,1847229
1215481,5519298,-87.38333,40.51667,INDIANA,BOSWELL,1847921
61604,379724,-86.39,39.7,INDIANA,PLAINFIELD,1846168
61604,379727,-86.2475,39.2057,INDIANA,NASHVILLE,1847448
17467,107019,-84.9499,39.0181,INDIANA,WILMINGTON,1847001
17467,115871,-85.2944,39.1322,INDIANA,OSGOOD,1847037
87819,538346,-85.8119,41.0437,INDIANA,SILVER LAKE,1846982
87819,538346,-85.7639,41.048,INDIANA,SIDNEY,1846962
87819,538500,-85.6495,41.0551,INDIANA,COLLAMER,1846787
87819,538500,-85.6567,41.0516,INDIANA,COLLAMER,1846787
87819,538502,-85.4217,41.6429,INDIANA,LAGRANGE,1846761
87819,538502,-85.4396,41.6414,INDIANA,LAGRANGE,1846761
61604,379726,-86.42,39.23,INDIANA,UNIONVILLE,1847408
1214464,5516453,-85.76666999999999,38.53333,INDIANA,HENRYVILLE,1847126
61604,384895,-87.193,39.3332,INDIANA,OLD HILL,1847846
61604,384893,-86.7835,39.9679,INDIANA,LINNSBURG,1847968
61604,384893,-86.7751,39.966,INDIANA,LINNSBURG,1847968
61604,384878,-87.1888,40.0128,INDIANA,STEAM CORNER,1847952
61604,384878,-87.1861,40.0127,INDIANA,STEAM CORNER,1847952
61604,379729,-86.56,39.35,INDIANA,PARAGON,1847433
61604,379728,-86.56,39.35,INDIANA,PARAGON,1847433
61673,369008,-85.9927,38.7,INDIANA,LITTLE YORK,1847170
61604,384895,-87.1948,39.333,INDIANA,OLD HILL,1847846
115767,695799,-86.36,40.75,INDIANA,LOGANSPORT,1846947
87816,530497,-86.85799999999999,41.5625,INDIANA,PINHOOK,1846350
87816,529960,-86.5928,41.4849,INDIANA,DILLON,1846532
38150,221754,-86.25,41.68,INDIANA,SOUTH BEND,1846601
109510,658552,-85.8678,40.5218,INDIANA,SYCAMORE,1846936
109510,658553,-86.9492,40.5179,INDIANA,CAIRO,1847906
109510,658553,-86.9445,40.5244,INDIANA,CAIRO,1847906
109512,655494,-86.1041,39.8017,INDIANA,WOODRUFF PLACE,1846218
109512,655494,-86.1108,39.8031,INDIANA,WOODRUFF PLACE,1846218
109512,658557,-86.772,40.0006,INDIANA,LINNSBURG,1847933
109512,658557,-86.8735,40.0018,INDIANA,CRAWFORDSVILLE,1847933
1214788,5516686,-87.21667,38.33333,INDIANA,WINSLOW,1847598
1214790,5516688,-87.45,38.16667,INDIANA,ELBERFELD,1847613
1214804,5517039,-86.98333000000001,38.16667,INDIANA,DALE,1847523
58501,351016,-87.0038,40.2149,INDIANA,ODELL,1847967
1214814,5517049,-87.55,37.98333,INDIANA,EVANSVILLE,1847711
109512,658562,-86.0319,40.499,INDIANA,VERMONT,1846901
109512,658562,-86.1884,40.4613,INDIANA,KOKOMO RUZICKA ARPT,1846979
109512,658565,-86.2714,40.3993,INDIANA,RUSSIAVILLE,1846979
109512,658565,-86.2431,40.397,INDIANA,RUSSIAVILLE,1846979
1131538,5281874,-87.16667,38.66667,INDIANA,WASHINGTON,1847501
1214803,5517038,-87.41667,37.95,INDIANA,NEWBURGH,1847630
109512,658566,-86.1025,40.416,INDIANA,OAKFORD,1846902
109510,658552,-85.8667,40.5233,INDIANA,SYCAMORE,1846919
58501,351024,-86.51,40.27,INDIANA,FRANKFORT,1846041
61525,368041,-86.46,38.33,INDIANA,ENGLISH,1847118
61525,368040,-86.47,38.49,INDIANA,YOUNGS CREEK,1847454
61525,368037,-86.64,38.51,INDIANA,FRENCH LICK MUNI ARP,1847432
109510,658124,-86.427,39.8584,INDIANA,BROWNSBURG,1846112
58501,351027,-87.4567,38.8043,INDIANA,EMISON,1847516
109510,658124,-86.4308,39.8531,INDIANA,BROWNSBURG,1846167
58501,351026,-87.38,39.47,INDIANA,TERRE HAUTE,1847803
109510,658296,-86.3987,39.9217,INDIANA,BROWNSBURG,1846112
58501,351018,-86.9037,40.2586,INDIANA,ROMNEY,1847981
109510,658296,-86.3985,39.9218,INDIANA,BROWNSBURG,1846112
109510,658297,-86.2991,40.0083,INDIANA,NORTHFIELD,1846077
109510,658551,-86.1708,40.1458,INDIANA,BOXLEY,1846069
62542,374180,-87.49,38.09,INDIANA,DAYLIGHT,1847725
1144956,5322868,-85.48333000000001,40.43333,INDIANA,UPLAND,1846989
62542,374179,-87.54,37.98,INDIANA,EVANSVILLE,1847711
62542,374178,-87.54,37.98,INDIANA,EVANSVILLE,1847711
58501,351025,-86.5107,40.2787,INDIANA,FRANKFORT,1846041
109510,658551,-86.1763,40.1414,INDIANA,BOXLEY,1846069
109510,658297,-86.3367,39.9615,INDIANA,ROYALTON,1846075
61525,368042,-86.27,38.34,INDIANA,MILLTOWN,1847115
109512,658566,-86.1562,40.4038,INDIANA,ALTO,1846068
1173605,5406709,-86.11667,38.41667,INDIANA,PALMYRA,1847164
18054,105285,-87.0199,40.9341,INDIANA,MC COYSBURG,1847978
18057,105293,-87.2136,41.1898,INDIANA,DEMOTTE,1846310
18057,105295,-87.2147,41.1733,INDIANA,DEMOTTE,1846310
18057,105296,-87.09,41.27,INDIANA,WHEATFIELD,1846392
18057,105298,-87.05,41.19,INDIANA,WHEATFIELD,1846392
18057,105299,-87.15,40.93,INDIANA,RENSSELAER,1847978
18057,105300,-87.2919,41.62,INDIANA,GARY,
18057,105318,-87.2854,41.1895,INDIANA,THAYER,1846310
55287,332042,-87.8352,38.17,INDIANA,POSEYVILLE,1847633
18057,105320,-87.05,41.47,INDIANA,VALPARAISO,1846383
18057,105321,-87.0363,41.4598,INDIANA,VALPARAISO,1846383
18057,105322,-87.05,41.47,INDIANA,VALPARAISO,1846383
1112313,5236214,-85.71667,40.66667,INDIANA,SOMERSET,1846940
62519,374080,-87.28,38.49,INDIANA,PETERSBURG,1847567
1112313,5236213,-85.85,40.66667,INDIANA,HARTFORD CITY,1846992
1112313,5236212,-85.36667,40.45,INDIANA,HARTFORD CITY,1847348
1112313,5236211,-85.36667,40.48333,INDIANA,SOMERSET,1847348
1112313,5236210,-85.85,40.66667,INDIANA,WABASH,1846992
1112313,5236215,-85.33333,40.48333,INDIANA,LA FONTAINE,1847348
1173605,5406706,-86.58333,38.1,INDIANA,LEOPOLD,1847551
18054,105284,-87.1548,40.8665,INDIANA,COLLEGEVILLE,1847978
1131466,5281578,-85.06667,38.8,INDIANA,VEVAY,1847043
58387,350167,-87.55,37.98,INDIANA,EVANSVILLE,1847711
58387,350167,-87.6987,37.977,INDIANA,BELKNAP,1847712
1215251,5521678,-85.5,38.93333,INDIANA,SAN JACINTO,1847231
109512,658567,-86.109,40.4334,INDIANA,OAKFORD,1846902
109512,658567,-86.1217,40.4335,INDIANA,INDIAN HGTS,1846902
109512,658568,-86.3748,40.5359,INDIANA,SHARON,1846929
109512,658568,-86.4309,40.528,INDIANA,CARROLLTON,1846929
1215251,5521678,-85.51666999999999,38.93333,INDIANA,SAN JACINTO,1847231
18054,105282,-87.1196,40.8811,INDIANA,COLLEGEVILLE,1847978
1215249,5521675,-85.28333,39.73333,INDIANA,RUSHVILLE,1847331
1214815,5517050,-87.83333,38.16667,INDIANA,POSEYVILLE,1847633
109512,658570,-86.3748,40.5359,INDIANA,KAPPA CORNER,1846929
109512,658570,-86.1086,40.5585,INDIANA,CASSVILLE,1846901
109512,658574,-86.2,39.82,INDIANA,SPRING HILLS,1846222
109513,658577,-86.11,39.97,INDIANA,CARMEL,1846033
1214837,5520435,-86.83333,38.06667,INDIANA,FULDA,1847531
61480,367869,-87.48,40.73,INDIANA,RAUB,1847942
61480,367867,-87.42,40.92,INDIANA,MOROCCO,1847922
1215249,5521674,-85.46667,39.76667,INDIANA,MAYS,1846148
87816,530497,-86.853,41.5617,INDIANA,PINHOOK,1846350
61525,368043,-86.19,38.43,INDIANA,FREDDRICKSBURG,1847120
61525,368045,-86.11,38.41,INDIANA,PALMYRA,1847164
114547,686985,-86.16,41.45,INDIANA,BREMEN,1846506
1144954,5323450,-85.43333,40.4,INDIANA,HARTFORD CITY,1847348
1144954,5323450,-85.36667,40.45,INDIANA,HARTFORD CITY,1847348
1144954,5323451,-85.13333,40.61667,INDIANA,PETROLEUM,1846759
1144954,5323451,-85.13333,40.63333,INDIANA,PETROLEUM,1846714
1144954,5323452,-84.91667,40.66667,INDIANA,BERNE,1846711
1144954,5323452,-84.85,40.73333,INDIANA,BERNE,1846733
87955,531592,-87.3332,41.1877,INDIANA,SHELBY,1846356
114547,686986,-85.42,41.4,INDIANA,ALBION,1846701
87816,529921,-86.51,41.7,INDIANA,NEW CARLISLE,1846552
87955,531593,-87.1563,41.2008,INDIANA,KERSEY,1846310
87955,531593,-87.2757,41.1888,INDIANA,FORREST CITY,1846310
87955,531594,-87.12799999999999,41.223,INDIANA,KERSEY,1846392
87955,531594,-87.1099,41.224,INDIANA,KERSEY,1846392
87760,529494,-85.19,41.07,INDIANA,HUGO,1846802
87956,531259,-86.9385,38.9956,INDIANA,HASHTOWN,1847424
87956,531259,-86.94,38.9889,INDIANA,PLUMMER,1847424
39560,237373,-86.1656,40.6382,INDIANA,(GUS)GRISSOM AFB PER,1846914
87955,531592,-87.4071,41.1918,INDIANA,SCHNEIDER,1846356
39560,237373,-86.0457,40.6258,INDIANA,MC GRAWSVILLE,1846914
114547,686987,-85.06,41.44,INDIANA,SEDAN,1846793
55332,338263,-86.7589,40.5258,INDIANA,AMERICUS,1847905
1144636,5322893,-87.06667,40.08333,INDIANA,WAYNETOWN,1847990
1193411,5461911,-85.2,39.03333,INDIANA,VERSAILLES,1847018
87955,531486,-87.5267,41.2782,INDIANA,SUMAVA RESORTS,1846356
62557,374225,-87.54,37.98,INDIANA,EVANSVILLE,1847711
87955,531486,-87.508,41.2841,INDIANA,SUMAVA RESORTS,1846356
87955,531493,-87.5263,41.1863,INDIANA,ILLINOI,1846376
87955,531493,-87.4064,41.1832,INDIANA,SCHNEIDER,1846356
87955,531494,-87.2965,41.2723,INDIANA,RANGE LINE,1846341
87955,531591,-87.4106,41.2522,INDIANA,LOWELL,1846356
87955,531494,-87.4869,41.2609,INDIANA,NORTH HAYDEN,1846356
87955,531590,-87.4291,41.277,INDIANA,LOWELL,1846356
87955,531591,-87.4601,41.2537,INDIANA,BELSHAW,1846356
114550,687022,-85.15,40.56,INDIANA,FIAT,1847326
114550,687021,-85.14,41.07,INDIANA,FT WAYNE,1846802
62686,375120,-87.4451,40.7702,INDIANA,KENTLAND,1847951
62686,375121,-87.37,41.42,INDIANA,CROWN PT,1846307
114550,687020,-85.33,40.49,INDIANA,HARTFORD CITY ARPT,1847348
87816,529960,-86.6837,41.4787,INDIANA,TRACY,1846346
87955,531590,-87.4677,41.2784,INDIANA,NORTH HAYDEN,1846356
61525,368044,-86.15,38.35,INDIANA,RAMSEY,1847166
39560,236024,-86.1656,40.6382,INDIANA,LINCOLN,1846914
39560,229878,-86.3736,40.6447,INDIANA,DEACON,1846947
62546,374186,-87.54,37.98,INDIANA,EVANSVILLE,1847711
1214780,5516678,-87.55,37.98333,INDIANA,EVANSVILLE,1847711
1214780,5516678,-87.68333,37.91667,INDIANA,EVANSVILLE,1847712
1214781,5516679,-87.45,37.95,INDIANA,NEWBURGH,1847630
1214784,5516682,-87.03333,38.11667,INDIANA,GENTRYVILLE,1847537
1214785,5516683,-86.83333,38.11667,INDIANA,FULDA,1847577
1214786,5516684,-87.36667,38.28333,INDIANA,SOMERVILLE,1847660
109510,658097,-86.5611,39.6811,INDIANA,CLAYTON,1846118
1214758,5517262,-87.21667,37.9,INDIANA,HATFIELD,1847634
109510,658097,-86.5404,39.7023,INDIANA,CLAYTON,1846118
109510,658112,-86.4195,39.7854,INDIANA,AVON,1846123
61525,368049,-85.97,38.3,INDIANA,GEORGETOWN,1847122
61525,368048,-86.05,38.28,INDIANA,CRANDALL,1847112
61525,368047,-86.04,38.3,INDIANA,CRANDALL,1847122
62546,374185,-87.94,38.02,INDIANA,GRAFTON,1847620
58501,351028,-87.31,38.8,INDIANA,BICKNELL,1847512
62546,374184,-87.93,38.13,INDIANA,NEW HARMONY,1847631
61525,368046,-86.1,38.32,INDIANA,NEW SALISBURY,1847161
109510,658112,-86.4191,39.7856,INDIANA,AVON,1846123
39560,236024,-86.1844,40.6382,INDIANA,LINCOLN,1846932
1131769,5286122,-86.86667,38.21667,INDIANA,FERDINAND,1847532
1113315,5240151,-85.15,38.85,INDIANA,BENNINGTON,1847043
39560,229878,-86.3103,40.6337,INDIANA,DEACON,1846994
39560,229871,-86.7451,40.6754,INDIANA,WHITE CO ARPT,1847960
39560,229871,-86.8132,40.6856,INDIANA,CHALMERS,1847960
58799,352579,-87.32,40.62,INDIANA,FOWLER,1847944
109170,654114,-87.3992,39.4676,INDIANA,TERRE HAUTE,1847807
109170,654122,-87.4122,39.4766,INDIANA,TERRE HAUTE,1847807
109170,654123,-87.3979,39.5067,INDIANA,GROVER,1847804
109170,654124,-86.84,39.64,INDIANA,COMMERCIAL PLACE,1846135
1131769,5286123,-86.66667,38.06667,INDIANA,GATCHEL,1847586
109170,654125,-86.15,39.69,INDIANA,EDGEWOOD,1846227
109170,654127,-86.15,39.78,INDIANA,INDIANAPOLIS,1846202
1131769,5286247,-86.21667,38.1,INDIANA,VALLEY CITY,1847110
1131769,5286125,-86.58333,38.1,INDIANA,LEOPOLD,1847551
1173495,5407276,-87.41667,40.91667,INDIANA,MOROCCO,1847922
1173501,5407359,-87.45,41.13333,INDIANA,LAKE VLG,1846349
62546,374187,-87.83,38.18,INDIANA,STEWARTSVILLE,1847633
1113315,5240152,-85.25,39.06667,INDIANA,VERSAILLES,1847042
109171,654031,-85.78,39.52,INDIANA,SHELBYVILLE,1846176
109170,654126,-86.15,39.7,INDIANA,EDGEWOOD,1846227
61190,370500,-86.6187,39.9961,INDIANA,ADVANCE,1846147
1114039,5244107,-85.91667,41.65,INDIANA,DUNLAP,1846516
60205,359916,-85.5808,38.6061,INDIANA,NABB,1847147
113646,690564,-85.69,40.16,INDIANA,FLORIDA,1846011
113646,690563,-87.52,38.52,INDIANA,DECKER,1847524
113646,690562,-85.75,40.15,INDIANA,FLORIDA,1846011
113646,690561,-85.74,40.08,INDIANA,EDGEWOOD,1846011
56519,338849,-84.91,40.83,INDIANA,SAGE ARPT,1846733
17813,103195,-85.61,38.77,INDIANA,DEPUTY,1847230
107032,642244,-87.9,37.93,INDIANA,MT VERNON,1847620
113646,690559,-85.84,40.07,INDIANA,LAPEL,1846051
113646,690558,-85.91,39.99,INDIANA,CLARKSVILLE,1846037
113646,690556,-86.02,39.94,INDIANA,INDIANAPOLIS METRO A,1846037
17631,101978,-87.6623,38.35,INDIANA,PRINCETON,1847670
113646,690555,-86.0434,39.9051,INDIANA,CASTLETON,1846250
17634,101980,-87.0927,37.8445,INDIANA,PATRONVILLE,1847635
113646,690554,-86.06,39.87,INDIANA,MILLERSVILLE,1846220
113646,690551,-86.39,40.27,INDIANA,BOYLESTON,1846041
107032,642243,-87.9,37.93,INDIANA,MT VERNON,1847620
113646,690510,-86.51,40.28,INDIANA,FRANKFORT,1846041
113646,690566,-87.33,39.38,INDIANA,KELLER,1847802
113646,690569,-85.69,40.18,INDIANA,PROSPERITY,1846011
113646,690571,-87.3998,39.376,INDIANA,ALLENDALE,1847802
113646,690587,-85.74,40.1,INDIANA,EDGEWOOD,1846011
113647,695111,-86.37,39.15,INDIANA,PAYNE,1847448
113647,695110,-86.9805,38.6418,INDIANA,CANNELBURG,1847519
113647,695110,-86.9618,38.6513,INDIANA,CANNELBURG,1847519
113647,695109,-84.95,40.06,INDIANA,LYNN,1847355
113647,695108,-85.48,39.34,INDIANA,GREENSBURG,1847240
113647,695107,-85.76,39.01,INDIANA,HAYDEN,1847273
113646,690620,-85.7448,40.1058,INDIANA,EDGEWOOD,1846011
57319,343602,-87.53,41.5,INDIANA,DYER,
1094952,5145354,-84.93333,40.78333,INDIANA,DECATUR,1846733
40495,235902,-85.78,41.34,INDIANA,OSWEGO,1846538
56519,338848,-84.85,40.83,INDIANA,RIVARE,1846733
1191328,5457173,-87.5,41.68333,INDIANA,WHITING,1846394
1191326,5457170,-87.05,41.46667,INDIANA,VALPARAISO,1846383
1191326,5457169,-87.01666999999999,41.63333,INDIANA,PORTER,1846304
113646,690596,-85.74,40.08,INDIANA,EDGEWOOD,1846011
113646,690594,-85.92,39.97,INDIANA,CLARKSVILLE,1846037
113646,690592,-86.87,40.43,INDIANA,LAFAYETTE,1847904
113646,690588,-85.69,40.14,INDIANA,WOODLAWN HGTS,1846011
40495,235832,-86.9,41.72,INDIANA,MICHIGAN CITY,1846360
113646,690508,-86.78,40.11,INDIANA,DARLINGTON,1847933
113646,690501,-86.67,40.13,INDIANA,THORNTOWN,1846071
57250,343239,-86.9,39.91,INDIANA,LAPLAND,1847954
56519,338850,-84.93,40.83,INDIANA,DECATUR,1846733
56523,338924,-85.7,41.52,INDIANA,MILLERSBURG,1846543
56523,338925,-86.03,41.72,INDIANA,(EKM)ELKHART MUNI AR,1846514
56523,338926,-85.13,41.08,INDIANA,FT WAYNE,1846802
61195,370566,-85.78,39.52,INDIANA,SHELBYVILLE,1846176
61195,370565,-85.56,39.44,INDIANA,DOWNEYVILLE,1847272
61195,370564,-85.89,39.72,INDIANA,NEW PALESTINE,1846163
61195,370563,-85.89,39.72,INDIANA,NEW PALESTINE,1846163
57250,343230,-86.84,40.43,INDIANA,EAST YARD,1847905
61195,370561,-85.96,39.78,INDIANA,CUMBERLAND,1846229
113643,687152,-86.35,40.0,INDIANA,WHITESTOWN,1846075
113643,687151,-86.57,40.05,INDIANA,HAZELRIGG,1846052
113643,687150,-86.77,40.11,INDIANA,DARLINGTON,1847940
113643,687149,-86.9,40.2,INDIANA,LINDEN,1847955
113643,687148,-86.9,40.22,INDIANA,ROMNEY,1847955
56523,338927,-85.13,41.08,INDIANA,FT WAYNE,1846802
57250,343226,-86.6,40.42,INDIANA,ROSSVILLE,1846065
33624,195824,-85.9337,38.498000000000005,INDIANA,BORDEN,1847106
61195,370559,-85.65,39.78,INDIANA,CLEVELAND,1846140
113647,695112,-86.24,39.2,INDIANA,NASHVILLE,1847448
113643,687153,-86.46,40.04,INDIANA,LEBANON,1846052
113643,687155,-86.1,39.89,INDIANA,ALLISONVILLE,1846240
57250,343232,-86.61,40.42,INDIANA,ROSSVILLE,1846065
113646,690500,-86.65,40.13,INDIANA,THORNTOWN,1846071
113646,690498,-86.74,40.13,INDIANA,BOWERS,1847940
113646,690497,-86.61,40.13,INDIANA,THORNTOWN,1846071
113646,690496,-86.8947,40.0314,INDIANA,CRAWFORDSVILLE,1847933
113646,690490,-86.9,40.04,INDIANA,CRAWFORDSVILLE,1847933
113646,690473,-86.92,39.96,INDIANA,NEW MARKET,1847965
113646,690468,-86.93,39.95,INDIANA,NEW MARKET,1847933
113643,687154,-86.12,39.92,INDIANA,NORA,1846240
113646,690464,-87.38,39.47,INDIANA,TERRE HAUTE,1847803
113643,687217,-86.1,40.03,INDIANA,CARMEL,1846062
113643,687216,-85.9339,39.7977,INDIANA,GEM,1846140
113643,687215,-86.13,39.91,INDIANA,NORA,1846240
113643,687214,-86.05,39.89,INDIANA,CASTLETON,1846250
113643,687213,-86.29,39.95,INDIANA,EAGLE VLG,1846077
113643,687212,-86.16,39.96,INDIANA,HOME PLACE,1846032
113643,687211,-86.16,39.96,INDIANA,HOME PLACE,1846032
113643,687156,-86.26,39.95,INDIANA,EAGLE VLG,1846077
113643,687218,-85.59,39.61,INDIANA,HOMER,1846173
1094345,5143712,-85.43333,41.28333,INDIANA,MERRIAM,1846723
1094345,5142469,-85.58333,40.55,INDIANA,MARION,1846953
1094344,5142466,-84.93333,40.83333,INDIANA,DECATUR,1846733
1151579,5355093,-85.61667,38.65,INDIANA,LEXINGTON,1847138
1093573,5140509,-86.16667,38.21667,INDIANA,CORYDON,1847112
1093573,5140510,-85.66667,38.45,INDIANA,CHARLESTOWN,1847111
86185,520375,-85.7,41.36,INDIANA,NORTH WEBSTER,1846567
1095230,5145495,-87.41667,40.91667,INDIANA,MOROCCO,1847922
86185,520370,-85.26,41.44,INDIANA,KENDALLVILLE,1846755
86185,520369,-86.18,40.76,INDIANA,NEW WAVERLY,1846970
115090,690932,-87.0975,40.6566,INDIANA,LOCHIEL,1847977
62998,376984,-85.17,40.74,INDIANA,BLUFFTON,1846714
86185,520368,-86.07,40.77,INDIANA,RIDGEVIEW,1846970
1191364,5454928,-85.63333,39.43333,INDIANA,WALDRON,1847272
1191364,5454925,-86.48333000000001,39.2,INDIANA,SPEARSVILLE,1847408
1191364,5454924,-86.15,40.28333,INDIANA,BLOOMINGTON,1846072
1191364,5454922,-85.95,39.3,INDIANA,BLOOMINGTON,1847280
1191364,5454921,-86.51666999999999,39.16667,INDIANA,TAYLORSVILLE,1847405
1191364,5454920,-85.96667,39.35,INDIANA,BLOOMINGTON,1846124
1191364,5454919,-85.96667,40.53333,INDIANA,EDINBURG,1846901
1191364,5454917,-86.06667,40.53333,INDIANA,TAGGART,1846901
1191364,5454931,-85.48333000000001,39.41667,INDIANA,TAYLORSVILLE,1847240
1191364,5454821,-86.51666999999999,40.28333,INDIANA,BROWNSBURG,1846041
62998,376983,-85.17,40.74,INDIANA,BLUFFTON,1846714
1124437,5270647,-85.25,41.45,INDIANA,KENDALLVILLE,1846755
1191365,5454933,-87.4,39.46667,INDIANA,TERRE HAUTE,1847807
1191364,5454932,-85.95,39.3,INDIANA,CLARKSBURG,1847280
113802,681358,-85.9,38.28,INDIANA,EDWARDSVILLE,1847122
113802,681357,-85.86,38.32,INDIANA,FLOYDS KNOBS,1847119
113802,681356,-85.92,38.29,INDIANA,DUNCAN,1847122
113802,681355,-85.97,38.29,INDIANA,GEORGETOWN,1847122
113802,681354,-85.99,38.24,INDIANA,LANESVILLE,1847136
113802,681353,-85.97,38.3,INDIANA,GEORGETOWN,1847122
62998,376982,-85.28,40.7,INDIANA,LIBERTY CENTER,1846766
113802,681352,-86.15,38.32,INDIANA,RAMSEY,1847166
56271,338428,-84.91,40.15,INDIANA,RANDOLPH CO ARPT,1847394
56271,338430,-86.57,40.37,INDIANA,CAMBRIA,1846041
1124434,5270586,-86.01666999999999,41.7,INDIANA,MISHAWAKA,1846514
1114294,5244044,-85.91667,38.11667,INDIANA,SUGAR GROVE,1847117
1114296,5244048,-85.66667,38.45,INDIANA,CHARLESTOWN,1847111
1124434,5270586,-86.13333,41.65,INDIANA,MISHAWAKA,1846544
1124434,5270587,-86.05,41.68333,INDIANA,ELKHART,1846561
56271,338432,-84.86,40.02,INDIANA,ARBA,1847355
88832,535531,-85.98,41.75,INDIANA,SIMONTON LAKE,1846514
1143426,5316402,-87.83333,38.1,INDIANA,WADESVILLE,1847631
1191364,5454818,-86.45,39.85,INDIANA,FRANKFORT,1846167
1191364,5454812,-86.53333,39.86667,INDIANA,LIZTON,1846149
33572,195092,-86.7625,39.2869,INDIANA,SPENCER,1847460
1191358,5456765,-86.75,40.75,INDIANA,MONTICELLO,1847960
1191350,5457316,-86.71667,41.6,INDIANA,LA PORTE,1846350
1191344,5456913,-86.75,40.75,INDIANA,MONTICELLO,1847960
1191344,5456851,-86.85,41.75,INDIANA,MICHIGAN CITY,1846360
33572,195095,-85.91,39.04,INDIANA,BOBTOWN,1847274
33572,195736,-86.6433,39.5225,INDIANA,EMINENCE,1846151
33572,195736,-86.6394,39.5221,INDIANA,EMINENCE,1847456
113688,680482,-87.57,38.2,INDIANA,HAUBSTADT,1847639
115090,690932,-87.0997,40.6566,INDIANA,LOCHIEL,1847977
1094341,5143779,-85.76666999999999,41.0,INDIANA,NORTH MANCHESTER,1846962
1094342,5142371,-85.56667,41.26667,INDIANA,ETNA,1846725
1094342,5142372,-85.61667,41.08333,INDIANA,SOUTH WHITLEY,1846787
1094342,5142456,-85.41667,41.4,INDIANA,ALBION,1846701
1094342,5142458,-85.56667,41.2,INDIANA,LORANE,1846725
1094343,5142459,-85.5,41.33333,INDIANA,WOLFLAKE,1846701
1094343,5142461,-85.83333,41.23333,INDIANA,WARSAW,1846580
1094343,5142463,-85.76666999999999,41.0,INDIANA,NORTH MANCHESTER,1846962
1094340,5143775,-85.71667,40.66667,INDIANA,LA FONTAINE,1846940
1191364,5454814,-86.65,39.86667,INDIANA,NORTH SALEM,1846165
33572,195091,-86.45,38.83,INDIANA,VIRGIL GRISSOM ARPT,1847421
33572,195088,-86.49,38.9,INDIANA,LAST O OLITIC,1847421
1191364,5454809,-86.7,40.36667,INDIANA,PITTSBORO,1847905
1191364,5454806,-86.65,39.86667,INDIANA,ELLETTSVILLE,1846165
1191364,5454805,-86.61667,39.15,INDIANA,NORTH SALEM,1847403
1191364,5454804,-86.83333,39.73333,INDIANA,BLMNGTN MONROE CO AR,1846105
1191363,5456992,-84.98333000000001,40.43333,INDIANA,PORTLAND,1847371
1191363,5456989,-85.18333,40.98333,INDIANA,FT WAYNE BAER ARPT,1846809
1191363,5456988,-85.16667,40.93333,INDIANA,YODER,1846819
1191363,5456986,-85.58333,40.55,INDIANA,MARION,1846953
33572,195089,-86.49,38.86,INDIANA,BEDFORD,1847421
1191363,5456985,-85.48333000000001,40.83333,INDIANA,HUNTINGTON,1846750
1191363,5456983,-85.86667,40.58333,INDIANA,CONVERSE,1846919
31737,186418,-86.9647,40.3493,INDIANA,TAYLOR,1847909
31737,186417,-86.5099,40.2877,INDIANA,FRANKFORT,1846041
31737,186416,-86.87,40.41,INDIANA,LAFAYETTE,1847904
31737,186415,-86.9,40.4,INDIANA,ELSTON,1847905
31737,186413,-87.36,40.39,INDIANA,CARBONDALE,1847993
33572,195085,-85.3675,39.9274,INDIANA,NEW CASTLE,1847362
33572,195087,-86.4,38.83,INDIANA,VIRGIL GRISSOM ARPT,1847421
1191363,5456985,-85.48333000000001,40.85,INDIANA,HUNTINGTON,1846750
1143426,5316402,-87.78333,38.15,INDIANA,WADESVILLE,1847633
33624,195824,-85.9134,38.5026,INDIANA,BORDEN,1847106
17813,103194,-85.65,38.8,INDIANA,DEPUTY,1847230
61190,373531,-86.2053,39.6511,INDIANA,GLENNS VLY,1846217
61190,370528,-87.51,38.72,INDIANA,VINCENNES,1847591
61190,370526,-86.11,39.59,INDIANA,GREENWOOD,1846143
61190,370524,-86.2477,39.6705,INDIANA,SUNSHINE GARDENS,1846221
1094345,5143714,-85.06667,41.53333,INDIANA,ASHLEY,1846705
1094346,5143717,-85.1,40.78333,INDIANA,CRAIGVILLE,1846731
61190,370523,-86.11,39.62,INDIANA,GREENWOOD,1846142
61190,370522,-86.1961,39.6636,INDIANA,GLENNS VLY,1846217
40444,237536,-86.6,40.53,INDIANA,RADNOR,1846923
1143459,5315477,-85.83333,39.93333,INDIANA,PENDLETON,1846040
1143459,5315478,-85.53333,40.28333,INDIANA,MUNCIE,1847342
1143459,5315478,-85.43333,40.36667,INDIANA,MUNCIE,1847303
1143460,5315479,-85.51666999999999,40.03333,INDIANA,NEW CASTLE,1847356
1143460,5315479,-85.53333,40.05,INDIANA,NEW CASTLE,1847356
1143461,5315480,-85.43333,39.6,INDIANA,RUSHVILLE,1846173
1143461,5315480,-85.43333,39.61667,INDIANA,RUSHVILLE,1846173
88497,533729,-86.0,41.44,INDIANA,NAPPANEE,1846550
88497,533730,-86.27,41.6,INDIANA,NUTWOOD,1846614
1143459,5315477,-85.56667,40.26667,INDIANA,PENDLETON,1846001
88497,533731,-85.7,41.3583,INDIANA,NORTH WEBSTER,1846567
40444,237537,-86.6111,40.6029,INDIANA,DELPHI,1846923
1143459,5315476,-85.86667,39.96667,INDIANA,FISHERS,1846040
1143458,5315470,-87.23333000000001,38.66667,INDIANA,WASHINGTON,1847501
1143459,5315471,-86.51666999999999,39.33333,INDIANA,ELLETTSVILLE,1847404
1143459,5315471,-86.61667,39.23333,INDIANA,ELLETTSVILLE,1847429
1143459,5315472,-86.53333,39.36667,INDIANA,MARTINSVILLE,1846151
1143459,5315472,-86.25,39.58333,INDIANA,MARTINSVILLE,1846143
1143459,5315473,-86.11667,39.63333,INDIANA,GREENWOOD,1846142
1143459,5315473,-86.21667,39.53333,INDIANA,GREENWOOD,1846106
1143459,5315474,-85.93333,39.9,INDIANA,SOUTHPORT,1846055
1143459,5315476,-85.91667,39.9,INDIANA,FISHERS,1846055
40451,242609,-86.0496,41.5543,INDIANA,WAKARUSA,1846573
61195,370541,-85.87,40.07,INDIANA,DURBIN,1846060
61195,370539,-85.3548,40.1731,INDIANA,MAYFIELD,1847302
61195,370538,-85.3871,40.1776,INDIANA,MUNCIE,1847302
1143459,5315474,-86.11667,39.63333,INDIANA,SOUTHPORT,1846142
1143459,5315475,-85.88333,39.93333,INDIANA,MC CORDSVILLE,1846040
1143459,5315475,-85.93333,39.88333,INDIANA,MC CORDSVILLE,1846055
40451,242335,-85.7949,41.2351,INDIANA,WARSAW,1846582
40451,242335,-85.8823,41.2573,INDIANA,MONOQUET,1846580
61195,370542,-86.13,40.05,INDIANA,HORTONVILLE,1846074
40451,242609,-85.8242,41.523,INDIANA,(GSH)GOSHEN ARPT,1846526
88497,533732,-86.25,41.68,INDIANA,SOUTH BEND,1846601
88497,533734,-85.42,41.4,INDIANA,ALBION,1846701
61190,370514,-85.43,40.23,INDIANA,DEVON PARK,1847304
61190,370513,-86.03,40.01,INDIANA,NOBLESVILLE,1846062
1093717,5139746,-86.56667,39.4,INDIANA,PARAGON,1846166
1093717,5139747,-87.3,40.28333,INDIANA,WILLIAMSPORT,1847993
1093717,5139748,-87.25,40.3,INDIANA,ATTICA,1847918
1093717,5139749,-87.0,40.51667,INDIANA,LAFAYETTE,1847906
61190,370512,-85.91,39.96,INDIANA,CLARKSVILLE,1846037
1093717,5139826,-86.9,40.03333,INDIANA,CRAWFORDSVILLE,1847933
61190,370515,-86.39,39.7,INDIANA,PLAINFIELD,1846168
1093717,5140420,-86.5,39.98333,INDIANA,LEBANON,1846052
1093717,5140472,-86.4,39.9,INDIANA,BROWNSBURG,1846112
1118720,5257590,-87.01666999999999,38.13333,INDIANA,GENTRYVILLE,1847523
61190,370510,-86.381,39.7336,INDIANA,PLAINFIELD,1846168
61190,370509,-85.77,40.22,INDIANA,FRANKTON,1846044
61190,370507,-86.55,39.78,INDIANA,DANVILLE,1846122
61190,370504,-87.5214,39.2193,INDIANA,FAIRBANKS,1847849
61190,370503,-87.14,39.77,INDIANA,NYESVILLE,1847872
61190,370502,-87.4,39.66,INDIANA,HUDNUT,1847842
1093717,5140472,-86.46667,39.9,INDIANA,BROWNSBURG,1846167
88497,533733,-85.84,41.45,INDIANA,NEW PARIS,1846553
61190,370516,-86.39,39.7,INDIANA,PLAINFIELD,1846168
61190,370518,-85.6601,39.9289,INDIANA,NASHVILLE,1846186
88497,533739,-85.7002,41.3586,INDIANA,NORTH WEBSTER,1846567
88497,533740,-85.61,41.28,INDIANA,ETNA,1846764
88497,533746,-85.08,41.24,INDIANA,CEDAR CANYONS,1846765
88497,533747,-84.97,41.21,INDIANA,GRABILL,1846741
88497,533748,-85.5,40.88,INDIANA,HUNTINGTON,1846750
113489,679847,-87.5284,40.3501,INDIANA,PENCE,1847993
113489,679846,-86.52,40.55,INDIANA,FLORA,1846929
113489,679845,-86.82,40.42,INDIANA,EASTWICH,1847905
61190,370517,-85.4025,40.1785,INDIANA,MUNCIE,1847302
113489,679844,-86.89,40.36,INDIANA,TAYLOR,1847909
113489,679841,-86.86,40.37,INDIANA,ELSTON,1847909
1094346,5143720,-85.05,41.36667,INDIANA,AUBURN,1846706
1094347,5142938,-85.0,41.63333,INDIANA,ANGOLA,1846703
1094348,5142942,-85.13333,41.06667,INDIANA,FT WAYNE,1846803
1094348,5142942,-85.0,40.95,INDIANA,FT WAYNE,1846745
1094348,5143042,-85.01666999999999,41.06667,INDIANA,NEW HAVEN,1846774
61190,370520,-85.63,39.93,INDIANA,WARRINGTON,1846056
61190,370519,-85.3803,40.1935,INDIANA,MAYFIELD,1847305
113489,679843,-86.88,40.43,INDIANA,LAFAYETTE,1847904
1191365,5454934,-87.4,39.46667,INDIANA,TERRE HAUTE,1847807
40451,242614,-85.8126,41.5743,INDIANA,GOSHEN,1846528
104656,626852,-86.9,38.149,INDIANA,SANTA CLAUS,1847532
113642,687139,-86.5129,38.7281,INDIANA,MITCHELL,1847446
1143456,5315466,-85.9,39.71667,INDIANA,NEW PALESTINE,1846163
1143458,5315469,-87.25,38.66667,INDIANA,MONROE CITY,1847501
113642,687137,-87.0011,38.6443,INDIANA,CANNELBURG,1847558
113642,687137,-87.0005,38.6446,INDIANA,CANNELBURG,1847558
113642,685213,-87.0509,38.6518,INDIANA,MONTGOMERY,1847558
113642,685213,-87.0782,38.6573,INDIANA,BLACK OAK,1847558
113642,685157,-87.137,38.5981,INDIANA,SOUTH WASHINGTON,1847501
113642,687139,-86.5092,38.729,INDIANA,MITCHELL,1847446
1143458,5315469,-87.43333,38.55,INDIANA,MONROE CITY,1847524
1094955,5144003,-85.75,41.05,INDIANA,SIDNEY,1846962
40466,240328,-87.4695,41.3338,INDIANA,PAISLEY,1846303
1094955,5144003,-85.78333,41.03333,INDIANA,SIDNEY,1846962
113642,685157,-87.1394,38.5991,INDIANA,SOUTH WASHINGTON,1847501
113642,684679,-86.06,39.49,INDIANA,FRANKLIN,1846131
40466,240320,-87.47,41.55,INDIANA,HIGHLAND,1846322
1094955,5144004,-85.15,41.28333,INDIANA,BUTLER CENTER,1846738
1094955,5144004,-85.11667,41.28333,INDIANA,BUTLER CENTER,1846706
1143458,5315470,-87.23333000000001,38.71667,INDIANA,WASHINGTON,1847501
61195,370558,-85.97,39.81,INDIANA,HUNTER,1846229
113642,687141,-86.3406,38.69,INDIANA,BOND,1847452
113642,687142,-86.0166,38.7991,INDIANA,TAMPICO,1847220
17813,103193,-85.81,38.74,INDIANA,AUSTIN,1847102
1143427,5316403,-87.41667,38.5,INDIANA,PETERSBURG,1847567
17811,103188,-86.63,38.37,INDIANA,WICKLIFFE,1847116
1143427,5316403,-87.36667,38.56667,INDIANA,PETERSBURG,1847557
1143436,5316644,-88.0,37.85,INDIANA,MT VERNON,1847620
57250,343224,-86.61,40.42,INDIANA,ROSSVILLE,1846065
40470,242235,-87.33,41.48,INDIANA,MERRILLVILLE,1846410
57250,343180,-86.56,40.42,INDIANA,ROSSVILLE,1846065
113642,687141,-86.33,38.6884,INDIANA,BOND,1847452
1094955,5144002,-85.8,41.01667,INDIANA,NORTH MANCHESTER,1846962
1143456,5315463,-86.08333,39.71667,INDIANA,BEECH GROVE,1846107
1143456,5315465,-85.93333,39.66667,INDIANA,PLEASANT VIEW,1846126
113643,687147,-87.0738,40.3015,INDIANA,ODELL,1847992
113643,687146,-87.24,40.29,INDIANA,ATTICA RILEY FLD ARP,1847918
1094955,5144002,-85.76666999999999,41.05,INDIANA,NORTH MANCHESTER,1846962
113643,687145,-87.25,40.29,INDIANA,ATTICA,1847918
113643,687144,-87.35,40.33,INDIANA,CARBONDALE,1847993
113642,687142,-86.0126,38.8008,INDIANA,TAMPICO,1847220
1143456,5315462,-86.4,39.68333,INDIANA,PLAINFIELD,1846168
40451,242614,-85.8311,41.5713,INDIANA,GOSHEN,1846526
61195,370557,-85.95,39.78,INDIANA,GEM,1846229
61195,370555,-85.97,39.79,INDIANA,CUMBERLAND,1846229
113569,679849,-85.48,39.34,INDIANA,GREENSBURG,1847240
1094955,5145283,-85.53333,41.16667,INDIANA,COLUMBIA CITY,1846725
1094955,5145379,-85.8,41.01667,INDIANA,NORTH MANCHESTER,1846962
1094955,5145379,-85.86667,41.0,INDIANA,NORTH MANCHESTER,1846962
40451,244564,-85.7322,41.652,INDIANA,MIDDLEBURY,1846540
40451,244564,-85.7222,41.6541,INDIANA,MIDDLEBURY,1846540
40451,242627,-85.679,41.4491,INDIANA,MILLERSBURG,1846567
40451,242627,-85.7135,41.4561,INDIANA,MILLERSBURG,1846567
113570,682557,-86.42,39.41,INDIANA,MARTINSVILLE,1846151
104686,627075,-87.0741,38.4704,INDIANA,OTWELL,1847564
61195,370548,-86.05,39.88,INDIANA,CASTLETON,1846220
61195,370547,-86.09,39.97,INDIANA,CARMEL,1846033
61195,370546,-85.71,39.77,INDIANA,STRINGTOWN,1846140
61195,370545,-86.11,39.97,INDIANA,CARMEL,1846033
61195,370544,-85.62,39.9,INDIANA,WARRINGTON,1846186
40451,242621,-85.7579,41.5238,INDIANA,BENTON,1846528
40451,242621,-85.6954,41.5065,INDIANA,MILLERSBURG,1846543
104656,626853,-87.05,37.88,INDIANA,ROCKPORT,1847635
104686,627075,-87.1532,38.48,INDIANA,ALGIERS,1847567
61195,370556,-86.01,39.78,INDIANA,HUNTER,1846219
61195,370549,-85.73,39.79,INDIANA,GREENFIELD POPE ARPT,1846140
1094955,5145281,-85.6,41.2,INDIANA,LARWILL,1846725
1094955,5144089,-85.11667,41.3,INDIANA,BUTLER CENTER,1846738
1094955,5144936,-85.63333,41.18333,INDIANA,LARWILL,1846764
1094955,5144937,-85.53333,41.16667,INDIANA,COLUMBIA CITY,1846725
1094955,5144940,-85.23333000000001,41.36667,INDIANA,AVILLA,1846710
40462,236244,-87.38,40.52,INDIANA,BOSWELL,1847921
40462,236244,-87.2084,40.4763,INDIANA,TEMPLETON,1847975
40459,235935,-87.5043,41.0891,INDIANA,LAKE VLG,1846349
61195,370554,-86.0209,39.8275,INDIANA,LAWRENCE,1846226
1094955,5145282,-85.43333,41.25,INDIANA,TRI LAKES,1846725
1094955,5144943,-85.15,41.33333,INDIANA,GARRETT,1846738
1094955,5145277,-84.86667,41.43333,INDIANA,BUTLER,1846721
61195,370553,-86.0209,39.8275,INDIANA,LAWRENCE,1846226
54694,328630,-87.4953,38.7143,INDIANA,VINCENNES,1847591
61195,370552,-85.99,39.87,INDIANA,OAKLANDON,1846236
1094955,5145279,-85.41667,41.33333,INDIANA,ALBION,1846701
61195,370551,-86.05,39.9,INDIANA,CASTLETON,1846250
61195,370550,-85.99,39.87,INDIANA,OAKLANDON,1846236
1094955,5145280,-85.51666999999999,41.18333,INDIANA,COLUMBIA CITY,1846725
1094955,5145275,-85.13333,41.06667,INDIANA,FT WAYNE,1846803
1191365,5454935,-86.2,40.56667,INDIANA,CASSVILLE,1846932
88832,535532,-86.11,41.75,INDIANA,GRANGER,1846530
1191365,5454936,-85.38333,39.38333,INDIANA,KINGSTON,1847240
1171465,5401500,-86.51666999999999,40.23333,INDIANA,LYNN,1846041
1171465,5401502,-84.95,40.05,INDIANA,ALEXANDRIA,1847355
1171465,5401503,-85.66667,40.26667,INDIANA,GASTON,1846001
1171465,5401504,-85.5,40.31667,INDIANA,LYNN,1847342
1171465,5401507,-85.13333,40.05,INDIANA,LYNN,1847358
17370,100502,-86.58,40.2945,INDIANA,JEFFERSON,1846041
17370,100499,-86.77,40.28,INDIANA,STOCKWELL,1847983
17370,100498,-86.62,40.0434,INDIANA,ADVANCE,1846052
1171465,5401499,-84.98333000000001,40.13333,INDIANA,FRANKFORT,1847394
17370,100495,-86.87,39.65,INDIANA,GREENCASTLE,1846135
1171465,5401512,-87.16667,39.03333,INDIANA,LYONS,1847441
1171465,5401513,-87.08333,38.98333,INDIANA,BLOOMINGTON,1847443
6307,36831,-87.3058,38.97,INDIANA,PLEASANTVILLE,1847838
40663,236518,-87.02,38.42,INDIANA,IRELAND,1847546
1171465,5401514,-86.63333,39.18333,INDIANA,SULLIVAN,1847404
1171465,5401514,-86.61667,39.08333,INDIANA,SULLIVAN,1847403
1171465,5401515,-87.41667,39.1,INDIANA,RUSSIAVILLE,1847882
1171465,5401516,-86.28333,40.4,INDIANA,BLOOMINGTON,1846979
1171465,5401508,-84.95,40.05,INDIANA,SULLIVAN,1847355
1171465,5401517,-86.51666999999999,38.9,INDIANA,TIPTON,1847421
60248,359701,-87.4148,37.9434,INDIANA,NEWBURGH,
1114045,5243009,-84.98333000000001,41.21667,INDIANA,GRABILL,1846741
17906,103964,-85.9444,40.05,INDIANA,NOBLESVILLE,1846060
17906,103962,-86.13,40.48,INDIANA,KOKOMO,1846901
1114042,5242894,-86.03333,40.86667,INDIANA,CHILI,1846926
17906,103958,-86.13,40.48,INDIANA,KOKOMO,1846901
17906,103957,-86.13,40.4655,INDIANA,KOKOMO,1846902
60205,359965,-85.76,38.39,INDIANA,SELLERSBURG,1847172
60205,359966,-85.62,38.61,INDIANA,NABB,1847147
60205,359967,-86.02,38.5,INDIANA,NEW PEKIN,1847165
60248,359701,-87.3715,37.946,INDIANA,PARADISE,1847630
1114043,5242994,-86.9,41.71667,INDIANA,MICHIGAN CITY,1846360
1114044,5242996,-86.35,40.75,INDIANA,LOGANSPORT,1846947
1114044,5242998,-85.91667,40.91667,INDIANA,ROANN,1846974
1114044,5243002,-85.81667,40.8,INDIANA,WABASH,1846992
1114044,5243003,-85.48333000000001,40.95,INDIANA,HUNTINGTON,1846750
1114044,5243005,-85.18333,41.05,INDIANA,FT WAYNE,1846802
1114044,5243006,-85.13333,41.06667,INDIANA,FT WAYNE,1846803
60248,359699,-87.78,38.1,INDIANA,WADESVILLE,1847638
1114044,5243007,-84.9,41.33333,INDIANA,ST JOE,1846785
1114043,5242995,-86.9,41.71667,INDIANA,MICHIGAN CITY,1846360
1141019,5309990,-86.86667,39.65,INDIANA,GREENCASTLE,1846135
1171465,5401518,-86.23333000000001,40.33333,INDIANA,ALEXANDRIA,1846049
17353,100430,-86.88,40.99,INDIANA,FRANCESVILLE,1847946
1171466,5401771,-87.35,38.56667,INDIANA,LITTLE PT,1847557
86850,524474,-85.48,39.34,INDIANA,GREENSBURG,1847240
39308,228405,-87.11,39.28,INDIANA,CLAY CITY,1847841
39308,228404,-87.48,39.29,INDIANA,PRAIRIE CREEK,1847802
39308,228403,-86.13,40.48,INDIANA,KOKOMO,1846901
33279,193855,-87.03200000000001,41.6559,INDIANA,TREMONT,1846304
33279,193855,-87.0654,41.6036,INDIANA,CHESTERTON,1846304
1171466,5401772,-85.88333,40.03333,INDIANA,HAZELWOOD,1846060
1171466,5401770,-87.4,38.96667,INDIANA,CLAYTON,1847838
1171466,5401772,-86.18333,40.16667,INDIANA,HAZELWOOD,1846069
86972,530620,-86.3496,39.7257,INDIANA,SIX PTS,1846168
86972,530627,-86.3059,39.7494,INDIANA,SIX PTS,1846231
86972,530627,-86.3266,39.7398,INDIANA,SIX PTS,1846231
86972,530632,-86.7213,39.4161,INDIANA,QUINCY,1847433
86972,530632,-86.7271,39.4104,INDIANA,QUINCY,1847433
86972,530638,-86.6312,39.4986,INDIANA,PLANO,1846120
86972,530638,-86.6291,39.5019,INDIANA,PLANO,1846151
1209646,5507088,-87.0,38.28333,INDIANA,HUNTINGBURG,1847542
86972,530620,-86.3266,39.7398,INDIANA,SIX PTS,1846231
17353,100431,-86.35,41.22,INDIANA,MAXINKUCKEE,1846511
1171466,5401769,-85.85,38.8,INDIANA,LITTLE PT,1847229
1171466,5401768,-86.46667,39.08333,INDIANA,BRAZIL,1847401
17353,100430,-86.5,41.1645,INDIANA,MONTEREY,1846960
1171465,5401520,-85.13333,40.18333,INDIANA,ALEXANDRIA,1847340
1171465,5401521,-85.58333,40.26667,INDIANA,MUNCIE,1846001
1171466,5400569,-86.76666999999999,39.28333,INDIANA,BLOOMINGTON,1847460
1171466,5400569,-86.9,39.21667,INDIANA,BLOOMINGTON,1847431
1171466,5400570,-87.25,40.13333,INDIANA,CROTHERSVILLE,1847987
1174178,5408322,-87.56667,38.35,INDIANA,PRINCETON,1847670
1174178,5408324,-87.36667,38.28333,INDIANA,SOMERVILLE,1847660
1171466,5401768,-86.41667,39.13333,INDIANA,BRAZIL,1847401
1174178,5408325,-87.21667,38.38333,INDIANA,WINSLOW,1847598
1171466,5401704,-85.91667,39.83333,INDIANA,FREEDOM,1846140
1171466,5401704,-85.95,39.81667,INDIANA,FREEDOM,1846140
1171466,5401705,-86.9,40.25,INDIANA,VEEDERSBURG,1847981
104876,628138,-84.9612,39.8822,INDIANA,WEBSTER,1847374
104876,628138,-84.9433,39.8972,INDIANA,WEBSTER,1847374
1171466,5401706,-86.76666999999999,40.38333,INDIANA,ELLETTSVILLE,1847905
1171466,5401706,-86.75,40.4,INDIANA,ELLETTSVILLE,1847905
1171466,5401707,-86.03333,40.21667,INDIANA,CENTER PT,1846031
1174178,5408395,-87.56667,38.33333,INDIANA,PRINCETON,1847670
1209646,5507088,-87.0,38.26667,INDIANA,HUNTINGBURG,1847541
17906,104355,-85.67,40.2121,INDIANA,ALEXANDRIA,1846001
1141013,5309897,-86.86667,39.65,INDIANA,GREENCASTLE,1846135
1093181,5140209,-85.48333000000001,41.16667,INDIANA,COLUMBIA CITY,1846725
1093180,5140208,-84.96667,41.21667,INDIANA,GRABILL,1846741
1093180,5140207,-85.63333,41.18333,INDIANA,LARWILL,1846764
