EPISODE_ID,EVENT_ID,LONGITUDE,LATITUDE,STATE,LOCATION,ZIPCODE
1190292,5453504,-94.88333,42.06667,IOWA,CARROLL,1951401
1190292,5453502,-95.06667,41.85,IOWA,MANNING,1951455
49874,293114,-92.45,41.74,IOWA,BROOKLYN,1952211
1190292,5454081,-94.55,42.26667,IOWA,LOHRVILLE,1951453
16900,97486,-93.45,42.02,IOWA,NEVADA,1950201
1149346,5348765,-93.68333,41.48333,IOWA,DES MOINES,1950211
1190292,5454110,-94.98333000000001,41.38333,IOWA,ATLANTIC ARPT,1950022
1190290,5453497,-93.6,41.0,IOWA,WOODBURN,1950275
49874,293108,-92.23,42.79,IOWA,TRIPOLI,1950676
6046,35376,-96.1714,42.23,IOWA,SLOAN,1951055
1190292,5454435,-93.9,41.11667,IOWA,OSCEOLA,1950174
1190292,5454436,-93.78333,41.18333,IOWA,NEW VIRGINIA,1950210
16900,97514,-93.6258,41.5412,IOWA,FT DES MOINES,1950315
16900,97515,-93.68,41.5,IOWA,NORWALK,1950211
1099153,5164361,-95.18333,41.31667,IOWA,OAKLAND,1951544
16900,97481,-93.96,41.78,IOWA,MORAN,1950167
16900,97480,-93.46,42.03,IOWA,NEVADA,1950201
16886,136132,-95.9273,41.4795,IOWA,LOVELAND,1951555
16886,98814,-95.8811,41.8987,IOWA,MOORHEAD,1951558
16900,97516,-93.6257,41.5411,IOWA,FT DES MOINES,1950315
1149347,5349087,-92.28333,40.98333,IOWA,AGENCY,1952530
95905,576177,-94.65,40.59,IOWA,BEDFORD ARPT,1950833
51583,320327,-92.021,40.6042,IOWA,CANTRIL,1952542
1099163,5164446,-95.2,41.48333,IOWA,WALNUT,1951577
16886,98814,-96.0191,41.8641,IOWA,BLENCOE,1951545
16886,98805,-96.0191,41.8641,IOWA,CALIFORNIA JCT,1951545
16886,98805,-96.1013,41.8137,IOWA,RIVER SIOUX,
1190292,5454431,-94.36667,41.06667,IOWA,CRESTON,1950801
1190292,5454430,-94.36667,41.06667,IOWA,CRESTON,1950801
1190292,5454427,-93.15,41.81667,IOWA,BAXTER,1950028
1186027,5440029,-92.2,42.0,IOWA,KEYSTONE,1952249
51587,323668,-91.87,40.62,IOWA,MT STERLING,1952573
49874,293113,-92.52,41.69,IOWA,MALCOLM,1950157
1190292,5454426,-93.15,41.81667,IOWA,BAXTER,1950028
16886,136133,-95.9014,41.5112,IOWA,LOVELAND,1951555
16886,136133,-95.889,41.5176,IOWA,LOVELAND,1951555
49874,293112,-92.47,41.51,IOWA,BARNES CITY,1950171
49874,293111,-92.48,41.46,IOWA,BARNES CITY,1950027
16886,136132,-95.8925,41.5014,IOWA,LOVELAND,1951555
6046,35377,-96.3212,42.5,IOWA,SIOUX CITY,1951106
1149347,5348768,-92.16667,40.91667,IOWA,ELDON,1952554
1099146,5164775,-95.8,41.01667,IOWA,PACIFIC JCT,1951561
1149347,5349101,-93.96667,41.61667,IOWA,ADEL,1950003
1149347,5349102,-92.31667,41.8,IOWA,HARTWICK,1952232
1149347,5349103,-93.96667,41.65,IOWA,DALLAS CENTER,1950063
16900,97483,-93.58,42.31,IOWA,ELLSWORTH,1950075
1099152,5164360,-95.2,41.43333,IOWA,WALNUT,1951577
16900,97482,-93.22,42.08,IOWA,ST ANTHONY,1950247
1186027,5440028,-91.13333,41.76667,IOWA,TIPTON,1952772
1099143,5164772,-95.76666999999999,41.05,IOWA,GLENWOOD,1951534
16900,97487,-93.45,42.02,IOWA,NEVADA,1950201
108259,648448,-96.17,43.08,IOWA,SIOUX CENTER,1951250
49874,293115,-92.46,41.73,IOWA,BROOKLYN,1952211
1190286,5453387,-94.63333,42.03333,IOWA,SCRANTON,1951443
1190290,5453482,-94.38333,42.01667,IOWA,JEFFERSON,1950129
108219,648264,-95.8595,41.2065,IOWA,BARTLETT,1951501
49874,293124,-92.62,40.7,IOWA,WEST GROVE,1952572
1149346,5348681,-94.78333,41.25,IOWA,DES MOINES,1950853
51696,307439,-94.06,41.86,IOWA,BOUTON,1950220
1186027,5440026,-91.26666999999999,41.58333,IOWA,WEST LIBERTY,1952776
1190290,5453485,-94.03333,42.03333,IOWA,OGDEN,1950212
1190290,5453486,-93.26666999999999,42.51667,IOWA,IOWA FALLS,1950126
1094862,5143608,-92.76666999999999,43.13333,IOWA,FLOYD,1950435
1190290,5453487,-93.05,42.55,IOWA,ACKLEY,1950601
1190290,5453489,-93.05,42.55,IOWA,ACKLEY,1950601
1094862,5143609,-92.23333000000001,43.06667,IOWA,NEW HAMPTON,1950659
1094862,5143610,-92.16667,43.06667,IOWA,LAWLER,1952154
49874,293120,-92.26,42.81,IOWA,TRIPOLI,1950676
1190290,5453493,-93.05,42.55,IOWA,ACKLEY,1950601
16900,97513,-93.7742,41.5413,IOWA,COMMERCE,1950265
1098873,5175671,-92.36667,43.08333,IOWA,NEW HAMPTON,1950659
16900,97512,-93.66,41.53,IOWA,(DSM)DES MOINES INTL,1950321
1186027,5440027,-91.16667,41.66667,IOWA,ROCHESTER,1952720
1149346,5348761,-93.61667,41.6,IOWA,WINDSOR HGTS,1950314
1190286,5453386,-94.73333000000001,42.06667,IOWA,GLIDDEN,1951443
108219,648264,-95.84899999999999,41.2093,IOWA,BARTLETT,1951501
1094862,5143607,-92.93333,43.13333,IOWA,RUDD,1950458
51579,318553,-90.36,41.86,IOWA,ELVIRA,1952732
108259,648450,-95.96,42.59,IOWA,KINGSLEY,1951028
108259,648447,-95.76,43.34,IOWA,SIBLEY MUNI ARPT,1951249
108259,648451,-95.9,42.62,IOWA,KINGSLEY,1951028
1149346,5348684,-93.71667,41.58333,IOWA,WEST DES MOINES,1950265
49874,293123,-92.23,40.92,IOWA,ELDON,1952554
9043,51426,-95.881,42.092,IOWA,CASTANA,1951010
108259,648452,-95.65,42.49,IOWA,HOLSTEIN,1951025
1150126,5350030,-95.76666999999999,41.08333,IOWA,GLENWOOD,1951534
1150124,5350028,-95.35,41.83333,IOWA,DEFIANCE,1951527
51696,321953,-94.102,42.283,IOWA,DAYTON,1950530
16900,97510,-93.8,41.58,IOWA,HADDEN HILL,1950266
51696,307491,-94.25,43.21,IOWA,BURT,1950522
1149346,5348682,-93.23333000000001,41.6,IOWA,MASSENA,1950228
49874,293122,-92.26,42.81,IOWA,TRIPOLI,1950676
1099140,5164769,-95.61667,41.15,IOWA,SILVER CITY,1951571
108259,648446,-95.84,43.29,IOWA,ASHTON,1951232
108259,648445,-95.94,43.24,IOWA,MATLOCK,1951201
1186027,5440025,-90.48333000000001,42.31667,IOWA,ST DONATUS,1952031
1190286,5453385,-93.33333,42.46667,IOWA,IOWA FALLS,1950126
108258,648443,-95.18,42.64,IOWA,LAKESIDE,1950588
1099142,5164771,-95.65,41.11667,IOWA,SILVER CITY,1951571
108258,648442,-95.19,42.64,IOWA,STORM LAKE,1950588
1149346,5348683,-93.71667,41.58333,IOWA,PRAIRIE CITY,1950265
16900,97488,-93.96,41.78,IOWA,MORAN,1950167
49874,293208,-92.44,41.73,IOWA,BROOKLYN,1952211
1098873,5175667,-91.36667,43.36667,IOWA,HANOVER,1952151
1094862,5143617,-91.4,43.05,IOWA,MONONA,1952159
1098873,5175672,-91.15,43.26667,IOWA,HARPERS FERRY,1952146
1094862,5143701,-91.53333,42.96667,IOWA,FARMERSBURG,1952141
1098873,5175742,-91.38333,43.18333,IOWA,ROSSVILLE,1952172
1098873,5175743,-91.15,43.2,IOWA,HARPERS FERRY,1952146
1094862,5143702,-91.18333,43.01667,IOWA,MC GREGOR,1952157
99283,597093,-91.5789,41.0828,IOWA,SWEDESBURG,1952641
49874,293117,-92.46,42.6,IOWA,NORTH CEDAR,1950613
16900,97504,-93.78,41.6,IOWA,ASHAWA,1950266
16900,97503,-93.62,41.59,IOWA,DES MOINES,1950309
6046,35378,-95.7473,43.1601,IOWA,ARCHER,1951231
49874,293116,-92.37,41.73,IOWA,CARNFORTH,1952211
16900,97502,-94.02,41.86,IOWA,BERKLEY,1950039
99283,597093,-91.5509,41.0883,IOWA,SWEDESBURG,1952641
16900,97501,-93.62,41.58,IOWA,DES MOINES,1950309
99283,596843,-91.12,40.82,IOWA,LENOX PARK,1952601
16900,97500,-94.2,41.93,IOWA,RIPPEY,1950235
16900,97499,-94.11,41.95,IOWA,BERKLEY,1950220
16900,97496,-94.24,42.03,IOWA,GRAND JCT,1950107
16900,97492,-94.24,42.11,IOWA,DANA,1950064
16900,97489,-93.6,41.9,IOWA,HUXLEY,1950124
1094856,5143586,-91.9,42.68333,IOWA,OELWEIN,1950662
1094856,5143588,-91.9,42.66667,IOWA,OELWEIN,1950662
1150123,5350027,-95.35,41.86667,IOWA,DEFIANCE,1951527
1094856,5143590,-91.88333,43.18333,IOWA,CALMAR,1952132
1098873,5175667,-91.41667,43.36667,IOWA,HANOVER,1952172
1098873,5175666,-92.33333,43.06667,IOWA,NEW HAMPTON,1950659
1098873,5175665,-92.46667,43.08333,IOWA,IONIA,1950645
49874,293119,-92.14,42.85,IOWA,SUMNER,1950674
16900,97509,-93.75,41.57,IOWA,ASHAWA,1950265
16900,97508,-93.74,41.62,IOWA,URBANDALE,1950322
16900,97506,-93.72,41.62,IOWA,URBANDALE,1950322
1149347,5349100,-92.65,41.3,IOWA,OSKALOOSA,1952577
1094862,5143611,-92.31667,43.06667,IOWA,NEW HAMPTON,1950659
1094862,5143612,-91.1,42.76667,IOWA,GUTTENBURG,1952052
1190290,5453494,-93.48333000000001,40.86667,IOWA,HUMESTON,1950123
1190290,5453495,-93.31667,40.76667,IOWA,CORYDON,1950060
16900,97505,-93.49,41.49,IOWA,CLARKSON,1950047
1094862,5143613,-92.0,43.06667,IOWA,WAUCOMA,1952171
1094862,5143614,-92.05,43.1,IOWA,JACKSON JCT,1952171
1094862,5143615,-91.66667,43.0,IOWA,CLERMONT,1952135
1094862,5143616,-91.4,43.01667,IOWA,MONONA,1952159
49874,293118,-92.48,42.6,IOWA,FARMER,1950613
49874,293460,-92.1,42.85,IOWA,SUMNER,1950674
1149346,5348762,-93.71667,41.58333,IOWA,DES MOINES,1950265
1149346,5348763,-93.61667,41.6,IOWA,WEST DES MOINES,1950314
1149346,5348764,-93.61667,41.6,IOWA,DES MOINES,1950314
1190290,5453496,-93.2,43.15,IOWA,MASON CITY,1950401
1149346,5348685,-93.71667,41.6,IOWA,WEST DES MOINES,1950324
51567,323620,-91.55,40.96,IOWA,MT PLEASANT,1952641
39727,230869,-91.12,40.81,IOWA,LENOX PARK,1952601
1190284,5453232,-93.86667,43.13333,IOWA,WAUKEE,1950423
1094856,5143591,-91.8,43.3,IOWA,DECORAH,1952101
1190282,5454386,-92.45,42.33333,IOWA,HUDSON,1950643
1190283,5454388,-93.53333,42.51667,IOWA,ALDEN,1950271
1190283,5454389,-93.3,42.5,IOWA,IOWA FALLS,1950126
1190283,5454390,-93.26666999999999,42.51667,IOWA,IOWA FALLS,1950126
1190283,5454391,-93.3,42.3,IOWA,HUBBARD,1950122
51549,316996,-91.76,42.6,IOWA,AURORA,1950607
1190283,5454392,-93.36667,42.16667,IOWA,ZEARING,1950154
51549,316998,-91.44,41.7,IOWA,ELMIRA,1952240
51553,317292,-92.31,41.17,IOWA,HEDRICK,1952563
1190283,5454393,-93.3,42.3,IOWA,HUBBARD,1950122
95905,576186,-94.72,40.67,IOWA,BEDFORD,1950833
51565,321262,-91.66,41.99,IOWA,CEDAR RAPIDS,1952402
51565,321260,-91.58,42.05,IOWA,MARION,1952302
51565,321250,-92.08,41.52,IOWA,NORTH ENGLISH,1952316
51565,321249,-92.08,41.52,IOWA,NORTH ENGLISH,1952316
1190283,5454395,-95.01666999999999,41.4,IOWA,ATLANTIC,1950022
1190283,5454396,-94.45,40.95,IOWA,KENT,1950851
1190283,5454397,-93.05,41.7,IOWA,NEWTON,1950208
1190283,5454398,-93.05,41.7,IOWA,NEWTON,1950208
1190283,5454399,-94.2,41.03333,IOWA,AFTON,1950830
51565,321246,-91.65,41.99,IOWA,CEDAR RAPIDS,1952402
51565,321245,-91.67,41.97,IOWA,CEDAR RAPIDS,1952404
51565,321244,-91.68,41.98,IOWA,CEDAR RAPIDS,1952405
95905,576185,-94.5,40.62,IOWA,BLOCKTON,1950836
95905,576184,-94.8,40.6,IOWA,BEDFORD ARPT,1950833
1190281,5453228,-94.1,40.61667,IOWA,MT AYR,1950140
1190281,5453228,-94.05,40.56667,IOWA,MT AYR,
1190281,5453133,-93.5,40.86667,IOWA,HUMESTON,1950123
1094859,5143596,-91.71667,43.36667,IOWA,DECORAH,1952101
49880,293200,-96.2,42.14,IOWA,WHITING,1951063
1094859,5143598,-91.35,43.38333,IOWA,CHURCH,1952151
1149347,5349099,-93.93333,40.61667,IOWA,LAMONI,1950140
49879,293685,-95.66,40.99,IOWA,BALFOUR,1951534
1149347,5349094,-92.51666999999999,41.08333,IOWA,CHILLICOTHE,1952501
51565,321271,-90.88,42.08,IOWA,MONMOUTH,1952309
49879,293199,-95.82,41.24,IOWA,LAKE MANAWA,1951503
49879,293198,-95.34,41.78,IOWA,DEFIANCE,1951527
51565,321270,-91.84,41.57,IOWA,HOLBROOK,1952356
49879,293197,-95.33,41.66,IOWA,HARLAN,1951537
51565,321269,-91.42,41.92,IOWA,MT VERNON,1952314
39733,230907,-91.64,42.6,IOWA,LAMONT,1950650
39733,230908,-91.46,42.47,IOWA,MANCHESTER,1952057
95905,576183,-94.84,40.7,IOWA,NEW MARKET,1951646
1149347,5349098,-93.93333,40.61667,IOWA,LAMONI,1950140
49879,293196,-95.79,41.64,IOWA,LOGAN,1951546
1094859,5143597,-91.55,43.33333,IOWA,DORCHESTER,1952172
51565,321266,-91.67,41.97,IOWA,CEDAR RAPIDS,1952404
51549,316993,-92.28,41.89,IOWA,BELLE PLAINE,1952208
51549,316995,-90.74,41.49,IOWA,BLUE GRASS,1952726
51565,321264,-91.55,42.04,IOWA,MARION ARPT,1952302
1190281,5453116,-92.73333000000001,41.75,IOWA,GRINNELL,1950112
49879,293195,-95.56,40.87,IOWA,RANDOLPH,1951649
1190281,5453131,-92.98333000000001,41.55,IOWA,REASNOR,1950232
1149347,5349097,-92.4,41.01667,IOWA,OTTUMWA,1952501
1149347,5349096,-92.63333,41.15,IOWA,EDDYVILLE,1952553
1149347,5349095,-94.21667,40.6,IOWA,MT AYR MUNI ARPT,1950854
1190284,5453233,-93.88333,42.06667,IOWA,KNOXVILLE,1950036
51565,321267,-91.61,41.97,IOWA,CEDAR RAPIDS,1952403
51556,307288,-91.92,40.72,IOWA,KEOSAUQUA,1952565
1190283,5454496,-92.4,41.01667,IOWA,OTTUMWA,1952501
51565,321243,-91.65,41.98,IOWA,CEDAR RAPIDS,1952403
16900,97475,-93.45,41.97,IOWA,IOWA CENTER,1950201
49870,293023,-94.79,43.32,IOWA,WELLINGFORD,1951365
49870,293024,-94.69,43.32,IOWA,WELLINGFORD,1951365
49870,293025,-94.75,43.41,IOWA,ESTHERVILLE ARPT,1951334
49870,293026,-94.78,43.47,IOWA,HUNTINGTON,1951334
49870,293027,-94.5,41.68,IOWA,GUTHRIE CENTER,1950115
49870,293033,-94.27,42.81,IOWA,RUTLAND,1950582
51565,321236,-91.68,42.05,IOWA,HIAWATHA,1952233
51565,321235,-91.27,42.1,IOWA,WAPSIPINICON SP,1952205
51565,321234,-91.78,42.17,IOWA,CENTER PT,1952213
16900,97473,-93.45,42.02,IOWA,NEVADA,1950201
51565,321233,-91.44,42.21,IOWA,PRAIRIEBURG,1952205
16900,97472,-93.45,42.02,IOWA,NEVADA,1950201
16900,97476,-93.27,42.08,IOWA,COLO,1950056
16900,97471,-93.29,42.3,IOWA,HUBBARD,1950122
51565,321218,-92.0237,42.2188,IOWA,VINTON MEML ARPT,1952349
16900,97470,-93.83,41.76,IOWA,GRANGER,1950109
16900,97469,-93.45,42.02,IOWA,NEVADA,1950201
16900,97468,-93.81,41.75,IOWA,HERROLD,1950109
16900,97466,-93.57,42.01,IOWA,AMES ARPT,1950010
51565,321219,-91.88,42.22,IOWA,URBANA,1952345
51565,321224,-91.91,42.12,IOWA,SHELLSBURG,1952332
51565,321229,-91.87,42.12,IOWA,SHELLSBURG,1952332
6115,35600,-95.1997,42.73,IOWA,TRUESDALE,1950588
6116,35602,-95.7419,43.4204,IOWA,SIBLEY,1951249
6116,35601,-95.7578,43.3507,IOWA,ASHTON,1951249
51565,321232,-91.43,42.24,IOWA,PRAIRIEBURG,1952219
51565,321231,-91.51,42.19,IOWA,WAUBEEK,1952214
51565,321215,-92.03,42.19,IOWA,VINTON,1952349
49880,293201,-96.17,42.13,IOWA,WHITING,1951063
49870,293022,-94.75,43.18,IOWA,OSGOOD,1950536
49870,293021,-94.69,43.32,IOWA,WELLINGFORD,1951365
51565,321242,-91.67,41.97,IOWA,CEDAR RAPIDS,1952404
51565,321240,-91.63,42.04,IOWA,MARION,1952402
51558,318399,-91.55,40.51,IOWA,VINCENNES,1952619
51565,321239,-91.7,41.98,IOWA,CEDAR RAPIDS,1952405
51565,321237,-91.93,41.9,IOWA,NORWAY,1952318
95905,576182,-94.67,40.64,IOWA,BEDFORD ARPT,1950833
39733,230909,-91.45,40.48,IOWA,KEOKUK ARPT,1952632
39733,230911,-91.42,40.53,IOWA,MONTROSE,1952639
39738,232910,-90.97,41.5,IOWA,SWEETLAND CENTER,1952761
39738,232908,-90.64,41.55,IOWA,WEST LAKE PARK,1952804
16900,97462,-93.66,41.95,IOWA,KELLEY,1950134
16900,97464,-93.82,41.76,IOWA,GRANGER,1950109
51561,318406,-91.61,40.73,IOWA,MT HAMILL,1952625
16900,97479,-93.57,42.02,IOWA,AMES,1950010
51565,321167,-92.07,42.48,IOWA,JESUP,1950648
16900,97465,-93.54,42.01,IOWA,SHIPLEY,1950201
51565,321175,-92.0,42.31,IOWA,BRANDON,1952210
39738,232907,-90.48,42.16,IOWA,SPRINGBROOK,1952031
39738,232905,-91.73,41.96,IOWA,BEVERLY,1952404
39738,232904,-92.29,41.7,IOWA,VICTOR,1952347
39738,232903,-92.21,41.35,IOWA,SIGOURNEY,1952591
51565,321176,-91.84,42.37,IOWA,ROWLEY,1952329
51565,321208,-92.09,42.26,IOWA,MT AUBURN,1952313
1190283,5454500,-92.88333,40.88333,IOWA,MORAVIA,1952571
51565,321210,-92.03,42.16,IOWA,VINTON,1952349
1190284,5453231,-94.3,42.25,IOWA,BEDFORD,1950543
51565,321211,-92.03,42.16,IOWA,VINTON,1952349
51565,321212,-92.03,42.16,IOWA,VINTON,1952349
51565,321170,-92.07,42.48,IOWA,JESUP,1950648
51546,307351,-90.95,41.98,IOWA,OXFORD JCT,1952323
49880,293201,-96.1462,42.1253,IOWA,WHITING,1951063
39733,230906,-91.73,42.62,IOWA,AURORA,1950607
51579,318548,-90.92,42.12,IOWA,CANTON,1952362
51546,307340,-91.14,42.0,IOWA,OLIN,1952320
1149347,5349089,-92.81667,41.03333,IOWA,ALBIA,1952531
1149347,5349090,-92.76666999999999,41.4,IOWA,OSKALOOSA,1950143
51579,318547,-91.11,42.55,IOWA,NEW VIENNA,1952065
51576,320089,-91.45,40.96,IOWA,MT PLEASANT MUNI ARP,1952645
51546,307362,-92.08,41.46,IOWA,SOUTH ENGLISH,1952335
51546,307372,-90.55,41.84,IOWA,DEWITT,1952742
16900,97518,-93.38,41.18,IOWA,LACONA,1950139
16900,97520,-93.78,41.08,IOWA,OSCEOLA MUNI ARPT,1950213
16900,97521,-93.67,41.48,IOWA,NORWALK,1950211
51575,320366,-91.76,41.25,IOWA,WASHINGTON ARPT,1952353
16900,97642,-93.45,42.02,IOWA,NEVADA,1950201
51572,318526,-92.17,41.52,IOWA,MILLERSBURG,1952316
95905,576179,-94.83,40.59,IOWA,SIAM,1950833
16900,115794,-93.4523,42.0196,IOWA,NEVADA,1950201
1094856,5143585,-91.55,43.48333,IOWA,DORCHESTER,1952140
1094856,5143584,-91.55,43.48333,IOWA,DORCHESTER,1952140
16906,97552,-94.31,41.8,IOWA,JAMAICA,1950277
95905,576180,-94.75,40.6,IOWA,BEDFORD ARPT,1950833
95905,576181,-94.66,40.64,IOWA,BEDFORD ARPT,1950833
51567,323619,-91.45,41.64,IOWA,IOWA CITY MUNI ARPT,1952240
1190285,5453234,-94.71667,43.41667,IOWA,GRUVER,1951334
1190284,5454578,-93.9,41.61667,IOWA,MELCHER,1950263
1190284,5454577,-94.6,40.7,IOWA,MELCHER,1950833
1190284,5454518,-92.53333,41.58333,IOWA,CARLISLE,1950171
1190284,5454517,-92.53333,41.58333,IOWA,ANKENY,1950171
51546,307341,-91.56,41.64,IOWA,UNIVERSITY HGTS,1952246
16900,97422,-93.78,41.91,IOWA,SHELDAHL,1950156
51579,318549,-90.85,42.45,IOWA,PEOSTA,1952068
51579,318550,-90.61,42.0,IOWA,DELMAR,1952037
1149347,5349087,-92.45,40.98333,IOWA,AGENCY,1952501
1149347,5349088,-92.91667,41.21667,IOWA,BUSSEY,1950044
51546,307349,-91.0,42.06,IOWA,WYOMING,1952362
51579,318552,-90.61,42.0,IOWA,DELMAR,1952037
51546,307348,-91.3924,41.8332,IOWA,SOLON,1952253
51546,307345,-90.88,42.08,IOWA,MONMOUTH,1952309
51546,307344,-91.14,42.0,IOWA,OLIN,1952320
39727,230868,-91.12,40.81,IOWA,LENOX PARK,1952601
51546,307352,-92.09,41.2,IOWA,OLLIE,1952576
51546,307354,-91.11,42.07,IOWA,CENTER JCT,1952362
51546,307356,-91.53,41.63,IOWA,IOWA CITY MUNI ARPT,1952240
39733,230887,-91.63,42.38,IOWA,MONTI,1950654
39733,230899,-91.67,42.47,IOWA,BUFFALO CREEK CO PARK,1950682
1190284,5454515,-93.25,41.21667,IOWA,ANKENY,1950062
39733,230900,-91.4572,42.4841,IOWA,MANCHESTER,1952057
1190285,5453384,-94.3,42.25,IOWA,GOWRIE,1950543
1190285,5453239,-94.41667,43.28333,IOWA,BANCROFT,1950539
1190285,5453238,-94.13333,43.36667,IOWA,LAKOTA,1950451
99283,596842,-91.16,40.83,IOWA,WEST BURLINGTON,1952601
99282,596479,-90.36,41.6,IOWA,LE CLAIRE,1952753
51546,307357,-90.74,42.07,IOWA,BUCKHORN,1952060
51546,307358,-91.54,41.66,IOWA,IOWA CITY,1952242
51546,307359,-91.54,41.66,IOWA,IOWA CITY,1952242
51546,307360,-91.57,41.48,IOWA,RIVERSIDE,1952327
51546,307361,-90.86,41.9,IOWA,TORONTO,1952777
1094856,5143245,-91.48333000000001,43.26667,IOWA,WAUKON,1952172
16906,97553,-94.42,42.24,IOWA,FARNHAMVILLE,1950538
51579,318551,-90.61,42.03,IOWA,DELMAR,1952037
39733,230900,-91.4986,42.4838,IOWA,MANCHESTER ARPT,1952057
99282,596478,-90.69,41.79,IOWA,GRAND MOUND,1952751
1190284,5454514,-93.5,41.28333,IOWA,ANKENY,1950125
1190284,5454513,-93.5,41.5,IOWA,JOHNSTON,1950047
51690,307272,-91.24,42.87,IOWA,GARNAVILLO,1952049
16900,97454,-93.68,41.61,IOWA,WINDSOR HGTS,1950310
39760,230992,-92.46,43.04,IOWA,IONIA,1950645
51690,307271,-91.1275,43.2624,IOWA,WEXFORD,1952146
51690,307270,-91.19,43.26,IOWA,WEXFORD,1952146
16900,97460,-93.68,41.92,IOWA,KELLEY,1950244
51690,307269,-91.54,42.68,IOWA,STRAWBERRY PT,1952076
1190281,5453109,-94.23333000000001,40.71667,IOWA,MT AYR,1950854
13405,74455,-91.01,42.3,IOWA,CASCADE,1952033
1190281,5453110,-93.95,40.73333,IOWA,GRAND RIVER,1950140
1190281,5453110,-93.95,40.81667,IOWA,GRAND RIVER,1950108
51690,307267,-91.54,42.68,IOWA,STRAWBERRY PT,1952076
13405,74454,-91.19,42.24,IOWA,MONTICELLO,1952310
99282,596472,-90.95,41.98,IOWA,OXFORD JCT,1952323
1190281,5453111,-93.73333000000001,40.73333,IOWA,LEON,1950144
39760,230988,-92.92,43.39,IOWA,ST ANSGAR,1950472
1190281,5453113,-93.8,40.61667,IOWA,DAVIS CITY,1950065
1190281,5453114,-93.86667,40.96667,IOWA,OSCEOLA,1950213
1149347,5349092,-92.61667,41.08333,IOWA,CHILLICOTHE,1952501
1149347,5349092,-92.63333,41.08333,IOWA,CHILLICOTHE,1952501
51549,316991,-91.11,42.21,IOWA,SCOTCH GROVE,1952310
39733,230905,-91.89,42.48,IOWA,INDEPENDENCE,1950644
58282,349638,-91.11,40.8,IOWA,BURLINGTON ARPT,1952601
1149347,5349093,-94.38333,40.63333,IOWA,BENTON,1950860
51565,321597,-91.65,42.06,IOWA,ROBINS,1952402
51565,321273,-91.54,41.57,IOWA,HILLS,1952240
49880,293203,-95.95,42.19,IOWA,TICONIC,1951026
1119607,5256635,-95.76666999999999,41.1,IOWA,GLENWOOD,1951534
39760,230991,-92.74,43.2,IOWA,FLOYD HANRY ARPT,1950435
1190281,5453115,-92.73333000000001,41.75,IOWA,GRINNELL,1950112
1190281,5453108,-94.15,40.63333,IOWA,KELLERTON,1950854
99282,596474,-90.77,41.8,IOWA,CALAMUS,1952729
1190284,5454512,-93.61667,41.73333,IOWA,JOHNSTON,1950023
16906,97551,-94.48,42.15,IOWA,CHURDAN,1950050
1190284,5454511,-93.61667,41.73333,IOWA,JOHNSTON,1950023
1190284,5454510,-93.61667,41.73333,IOWA,JOHNSTON,1950023
1190284,5454509,-93.61667,41.73333,IOWA,GRIMES,1950023
51567,323618,-92.28,41.89,IOWA,BELLE PLAINE,1952208
1190284,5454508,-93.7,41.66667,IOWA,URBANDALE,1950131
1190284,5454507,-93.7,41.66667,IOWA,CLIVE,1950131
1190284,5454506,-93.7,41.66667,IOWA,BOONE,1950131
16900,97427,-93.74,41.94,IOWA,NAPIER,1950134
1190284,5454505,-93.7,41.66667,IOWA,BRITT,1950131
1190284,5454504,-93.8,41.68333,IOWA,GOWRIE,1950111
1190284,5454503,-93.71667,41.63333,IOWA,ESTHERVILLE,1950322
99282,596473,-90.78,41.83,IOWA,CALAMUS,1952729
1190284,5454502,-93.78333,41.63333,IOWA,CHURDAN,1950323
16900,97441,-93.74,41.94,IOWA,NAPIER,1950134
16900,97444,-93.74,41.94,IOWA,NAPIER,1950134
39733,230901,-91.5,42.5,IOWA,MANCHESTER ARPT,1952057
39733,230902,-91.89,42.47,IOWA,INDEPENDENCE,1950644
39733,230904,-92.11,42.02,IOWA,VAN HORNE,1952346
1149347,5349091,-92.68333,41.1,IOWA,AVERY,1952531
1149347,5349091,-92.7,41.08333,IOWA,AVERY,1952531
51546,307388,-90.5818,41.6113,IOWA,DAVENPORT ARPT,1952806
99282,596477,-90.69,41.79,IOWA,GRAND MOUND,1952751
99282,596476,-90.76,41.83,IOWA,CALAMUS,1952729
16906,97550,-93.99,41.85,IOWA,BOUTON,1950039
1094856,5143246,-91.55,43.45,IOWA,DORCHESTER,1952140
99282,596475,-90.76,41.83,IOWA,CALAMUS,1952729
16900,97436,-93.78,41.91,IOWA,SHELDAHL,1950156
1099155,5164438,-95.43333,41.23333,IOWA,CARSON,1951525
54307,326047,-95.33,41.66,IOWA,HARLAN,1951537
51546,307337,-91.15,41.89,IOWA,STANWOOD,1952337
97763,587925,-95.19,40.6,IOWA,BLANCHARD,1951630
10765,59774,-96.17,42.8089,IOWA,LE MARS,1951031
10766,59775,-96.3,42.8277,IOWA,CRAIG,1951031
10766,59776,-96.1282,42.8107,IOWA,LE MARS,1951031
1209179,5502560,-91.6,42.1,IOWA,MARION,1952302
1209180,5502561,-92.05,41.98333,IOWA,VAN HORNE,1952346
110598,660374,-94.31,43.38,IOWA,SWEA CITY,1950590
110598,660373,-94.51,43.3,IOWA,RINGSTED,1950578
1212585,5511044,-94.13333,43.0,IOWA,ALGONA,1950560
1212586,5511046,-92.6,41.15,IOWA,EDDYVILLE,1952553
1212586,5511047,-92.4,40.96667,IOWA,OTTUMWA,1952501
1212586,5511048,-92.28333,40.9,IOWA,FLORIS,1952554
1212586,5511049,-92.31667,40.85,IOWA,FLORIS,1952560
1212586,5511050,-92.31667,40.81667,IOWA,FLORIS,1952537
1212586,5511051,-92.26666999999999,40.7,IOWA,PULASKI,1952537
97761,587913,-95.7101,41.1136,IOWA,MINEOLA,1951534
97761,587912,-95.0,41.15,IOWA,GRANT,1951532
97761,587911,-95.0,41.14,IOWA,GRANT,1951532
97761,587902,-95.5,41.7,IOWA,PANAMA,1951562
1099548,5163568,-95.11667,41.45,IOWA,MARNE,1951552
50929,301168,-94.22,40.95,IOWA,ARISPE,1950830
50929,301169,-94.22,40.95,IOWA,ARISPE,1950830
50929,301172,-93.77,41.66,IOWA,RIDER,1950111
10646,59310,-91.83,41.72,IOWA,OXFORD,1952322
50929,301174,-93.61,41.72,IOWA,ANKENY,1950023
50929,301400,-93.72,41.73,IOWA,HERROLD,1950131
1209180,5502561,-91.98333000000001,41.96667,IOWA,VAN HORNE,1952315
50929,301403,-94.32,41.5,IOWA,HOWE,1950250
50929,301405,-94.28,41.5,IOWA,HOWE,1950250
50929,301407,-94.23,41.52,IOWA,DEXTER,1950070
50929,301418,-92.646,41.4626,IOWA,NEW SHARON,1950207
50929,301418,-92.6528,41.4617,IOWA,NEW SHARON,1950207
50929,301423,-93.95,41.04,IOWA,MURRAY,1950174
1099548,5163568,-95.06667,41.45,IOWA,MARNE,1950022
1099548,5163566,-95.11667,41.45,IOWA,MARNE,1951552
50929,301404,-94.49,41.39,IOWA,ROSSERDALE,1950846
1099548,5163569,-95.06667,41.45,IOWA,MARNE,1950022
1209181,5502562,-91.25,42.08333,IOWA,ANAMOSA,1952205
1209182,5502563,-91.61667,41.56667,IOWA,SHARON CENTER,1952240
9521,53552,-92.3055,41.3484,IOWA,DELTA,1952591
9521,53551,-91.4882,41.8088,IOWA,SOLON,1952333
50989,301655,-94.73,42.27,IOWA,LAKE CITY,1951449
50989,301658,-94.03,42.04,IOWA,OGDEN,1950212
50989,301662,-93.32,42.02,IOWA,COLO,1950056
50989,301982,-94.3061,42.9613,IOWA,ST JOSEPH,1950570
50989,301982,-94.3168,42.9462,IOWA,ST JOSEPH,1950570
50989,301983,-92.4039,42.0851,IOWA,CLUTIER,1952217
50989,301983,-92.3889,42.0881,IOWA,CLUTIER,1952217
50992,301680,-95.78,40.69,IOWA,PAYNE,1951648
50992,301681,-95.04,40.68,IOWA,SHAMBAUGH,1951632
50992,301682,-95.04,40.74,IOWA,CLARINDA,1951632
50992,301683,-95.64,40.75,IOWA,SIDNEY,1951652
50992,301684,-95.37,40.76,IOWA,SHENANDOAH,1951601
50368,296573,-92.68,41.27,IOWA,OSKALOOSA,1952534
9521,53552,-92.2919,41.3586,IOWA,DELTA,1952591
1212589,5511059,-94.7,41.28333,IOWA,BRIDGEWATER,1950837
1212589,5511058,-94.78333,41.25,IOWA,MASSENA,1950853
1212587,5511056,-93.21667,43.45,IOWA,NORTHWOOD,1950459
1209182,5502563,-91.68333,41.55,IOWA,SHARON CENTER,1952247
1209183,5502564,-91.48333000000001,41.66667,IOWA,HILLS,1952245
1209183,5502564,-91.48333000000001,41.6,IOWA,HILLS,1952240
1209184,5502565,-91.48333000000001,41.66667,IOWA,HILLS,1952245
1209184,5502565,-91.43333,41.63333,IOWA,HILLS,1952240
1212586,5511052,-92.35,40.8,IOWA,BLOOMFIELD,1952537
1212587,5511053,-93.13333,42.68333,IOWA,GENEVA,1950633
1209181,5502562,-91.33333,42.08333,IOWA,ANAMOSA,1952205
97899,588584,-94.49799999999999,42.849,IOWA,ROLFE,1950581
97899,588587,-94.50200000000001,42.885,IOWA,ROLFE,1950581
97899,588589,-94.507,42.898,IOWA,ROLFE,1950581
97899,588590,-94.516,42.864,IOWA,ROLFE,1950581
97899,588591,-94.527,42.821000000000005,IOWA,ROLFE,1950581
97899,588605,-94.463,42.82,IOWA,ROLFE,1950581
1212587,5511054,-93.05,42.55,IOWA,ACKLEY,1950601
1212587,5511055,-93.0,42.5,IOWA,WELLSBURG,1950601
97899,588585,-94.541,42.863,IOWA,ROLFE,1950581
1099548,5163569,-95.0,41.45,IOWA,MARNE,1950022
1099548,5163570,-94.95,41.45,IOWA,ATLANTIC,1950022
1099548,5163571,-94.76666999999999,41.36667,IOWA,ANITA,1950020
1100347,5173583,-95.03333,42.93333,IOWA,WEBB,1951366
1100347,5173583,-95.0,42.95,IOWA,WEBB,1951366
96892,582905,-90.7453,42.2308,IOWA,SOUTH GARRY OWEN,1952079
96892,582905,-90.7467,42.2293,IOWA,SOUTH GARRY OWEN,1952079
1100347,5173584,-94.93333,42.9,IOWA,WEBB,1950554
1100348,5173869,-95.08333,42.88333,IOWA,SIOUX RAPIDS,1950585
50906,300828,-95.539,41.5493,IOWA,PERSIA,1951563
50906,300828,-95.57,41.58,IOWA,PERSIA,1951563
1100349,5173870,-95.55,42.75,IOWA,CHEROKEE,1951012
1100352,5173874,-96.13333,43.28333,IOWA,DOON,1951235
1100352,5173875,-96.16667,43.25,IOWA,HULL,1951235
1100352,5173875,-96.16667,43.23333,IOWA,HULL,1951239
1100357,5173880,-95.86667,43.18333,IOWA,SHELDON,1951201
1121495,5263237,-96.16667,42.08333,IOWA,ONAWA,1951040
1121495,5263237,-96.1,42.06667,IOWA,ONAWA,1951040
1212092,5512849,-95.18333,42.73333,IOWA,TRUESDALE,1950588
1212092,5512850,-95.2,42.65,IOWA,STORM LAKE,1950588
1212092,5512851,-95.0,42.6,IOWA,NEWELL,1950568
1212112,5513073,-96.33333,42.46667,IOWA,SIOUX CITY,1951106
50866,301562,-91.8549,42.876000000000005,IOWA,RANDALIA,1952164
50866,304462,-91.7316,42.9631,IOWA,BRAINARD,1952141
50866,304462,-91.7046,42.9661,IOWA,BRAINARD,1952141
50866,309444,-91.63,42.96,IOWA,ELGIN,1952141
50866,309456,-91.64,42.92,IOWA,ELGIN,1952141
1180780,5424300,-91.03333,41.98333,IOWA,OXFORD JCT,1952323
1122035,5265190,-95.63333,42.63333,IOWA,QUIMBY,1951049
1121494,5263135,-96.25,42.13333,IOWA,WHITING,1951063
1122039,5265273,-96.25,43.38333,IOWA,ROCK RAPIDS,1951246
1122040,5265274,-96.25,43.23333,IOWA,ROCK VLY,1951247
1122041,5265275,-96.23333000000001,43.28333,IOWA,DOON,1951235
110751,661266,-90.73,42.52,IOWA,ASBURY,1952002
1122042,5265276,-96.18333,43.15,IOWA,SIOUX CENTER,1951239
1122044,5265278,-95.81667,42.83333,IOWA,MARCUS,1951035
60799,363235,-95.86,41.02,IOWA,PACIFIC CITY,1951561
1122045,5265279,-95.91667,42.81667,IOWA,REMSEN,1951050
110751,661268,-90.72,42.52,IOWA,ASBURY,1952001
1121493,5263134,-95.58333,41.43333,IOWA,MINDEN,1951559
1121492,5263133,-95.88333,41.83333,IOWA,PISGAH,1951564
1121491,5263132,-95.91667,42.05,IOWA,TURIN,1951010
1100409,5155800,-95.55,42.75,IOWA,CHEROKEE,1951012
9769,54598,-95.8315,41.27,IOWA,COUNCIL BLUFFS,1951503
9769,54597,-95.87,41.27,IOWA,COUNCIL BLUFFS,1951501
1100410,5155801,-95.03333,43.01667,IOWA,GILLETT GROVE,1951333
1122046,5265280,-96.28333,43.08333,IOWA,SIOUX CENTER,1951250
1122046,5265280,-96.16667,42.96667,IOWA,SIOUX CENTER,1951036
1122047,5265281,-95.93333,42.78333,IOWA,REMSEN,1951050
1100408,5173668,-95.15,42.88333,IOWA,SIOUX RAPIDS,1950585
1122049,5265283,-95.93333,42.85,IOWA,REMSEN,1951050
1099557,5176815,-92.46667,42.2,IOWA,TRAER,1950675
1099556,5176814,-93.6,42.21667,IOWA,RANDALL,1950248
1099551,5163582,-94.85,43.03333,IOWA,AYRSHIRE,1950515
1099551,5163580,-94.91667,43.13333,IOWA,RUTHVEN,1951358
1099550,5163575,-93.31667,41.01667,IOWA,CHARITON,1950049
1099549,5163573,-95.1,42.28333,IOWA,WALL LAKE,1951466
1099548,5163572,-94.68333,41.33333,IOWA,BRIDGEWATER,1950020
17133,99139,-92.421,42.5098,IOWA,CASTLE HILL,1950613
50368,296564,-92.39,41.73,IOWA,BROOKLYN ARPT,1952211
17133,99140,-92.4394,42.5093,IOWA,CEDAR FALLS,1950613
1100406,5173666,-95.5,42.96667,IOWA,SUTHERLAND,1951058
1121490,5263131,-95.78333,41.98333,IOWA,SOLDIER,1951572
1121489,5263130,-95.86667,41.93333,IOWA,MOORHEAD,1951558
50920,301087,-93.8651,43.4811,IOWA,RAKE,1950424
50920,301087,-93.87,43.4811,IOWA,RAKE,1950424
1121488,5263129,-95.85,42.08333,IOWA,CASTANA,1951034
1121488,5263129,-95.91667,42.13333,IOWA,CASTANA,1951010
1121487,5263128,-96.3,42.18333,IOWA,ONAWA,1951055
1100407,5173667,-95.13333,42.98333,IOWA,ROSSIE,1951343
1121485,5263126,-95.4,41.31667,IOWA,OAKLAND,1951560
1100390,5173278,-95.33333,43.16667,IOWA,EVERLY,1951338
1100400,5173606,-95.31667,43.46667,IOWA,LAKE PARK,1951347
1100401,5173607,-96.45,43.31667,IOWA,LITTLE ROCK,1951240
1100401,5173607,-95.9,43.45,IOWA,LITTLE ROCK,1951243
1100403,5173609,-96.25,43.23333,IOWA,ROCK VLY,1951247
1100403,5173609,-95.95,43.06667,IOWA,ROCK VLY,1951238
1100405,5173665,-95.6,43.01667,IOWA,GAZA,1951245
1100388,5173199,-95.76666999999999,43.46667,IOWA,SIBLEY,1951249
50866,301562,-92.0078,42.8558,IOWA,WESTGATE,1950674
50368,296563,-92.35,41.78,IOWA,HARTWICK,1952232
50368,296554,-92.68,41.27,IOWA,OSKALOOSA,1952534
1172998,5405211,-94.56667,42.63333,IOWA,PALMER,1950571
1172999,5405212,-94.93333,43.13333,IOWA,RUTHVEN,1951358
1172999,5405212,-94.76666999999999,43.15,IOWA,RUTHVEN,1950536
1172999,5405213,-94.58333,43.3,IOWA,RINGSTED,1950578
110343,659197,-92.23700000000001,43.4085,IOWA,BONAIR,1952155
110343,659197,-92.2366,43.4084,IOWA,BONAIR,1952155
1172999,5405214,-94.58333,43.3,IOWA,RINGSTED,1950578
1172999,5405215,-94.5,43.38333,IOWA,RINGSTED,1950514
1172999,5405215,-94.53333,43.3,IOWA,RINGSTED,1950578
9458,53217,-93.6243,41.5835,IOWA,DES MOINES,1950309
9458,53217,-93.6328,41.5832,IOWA,DES MOINES,1950309
10865,60143,-96.4099,43.1668,IOWA,ROCK VLY,1951247
10865,60144,-96.419,43.2,IOWA,ROCK VLY,1951247
10865,60145,-96.3701,43.1489,IOWA,ROCK VLY,1951247
10865,60146,-96.3701,43.1489,IOWA,ROCK VLY,1951247
1172998,5405210,-94.81667,43.05,IOWA,AYRSHIRE,1950515
1172998,5405208,-93.4,43.16667,IOWA,CLEAR LAKE,1950428
1172998,5405208,-93.45,43.15,IOWA,CLEAR LAKE,1950428
110364,659341,-93.12,42.98,IOWA,CARTERSVILLE,1950469
10829,60079,-95.4611,43.28,IOWA,MELVIN,1951346
9458,53535,-92.77,41.22,IOWA,LAKONTA,1952577
9458,53535,-92.83,41.23,IOWA,LAKONTA,1952577
9458,53218,-93.1262,40.6785,IOWA,SEYMOUR,1952590
50322,296155,-95.68,41.33,IOWA,MC CLELLAND,1951548
50322,296154,-95.76,41.24,IOWA,CHAUTAUQUA,1951503
1172998,5405203,-94.33333,42.76667,IOWA,RUTLAND,1950582
1172999,5405216,-94.56667,43.33333,IOWA,RINGSTED,1950578
1172998,5405204,-94.33333,42.76667,IOWA,RUTLAND,1950582
1172998,5405206,-93.06667,43.33333,IOWA,GRAFTON,1950440
1172998,5405207,-93.53333,43.41667,IOWA,LAKE MILLS,1950450
110364,659353,-92.81,42.9,IOWA,GREENE,1950636
9458,53218,-93.1096,40.684,IOWA,SEYMOUR,1952590
110364,659352,-92.8,42.9,IOWA,GREENE,1950636
110364,659350,-93.2,43.17,IOWA,MASON CITY,1950401
110364,659344,-93.08,43.23,IOWA,ROCK FALLS,1950464
1172998,5405205,-93.73333000000001,43.5,IOWA,SCARVILLE,
9458,53536,-92.85,41.18,IOWA,LAKONTA,1950044
1172999,5405217,-94.5,43.4,IOWA,ARMSTRONG,1950514
10865,60147,-96.55,42.83,IOWA,AKRON,1951001
1172999,5405294,-94.21667,42.51667,IOWA,FT DODGE,1950501
1172999,5405295,-94.23333000000001,42.51667,IOWA,FT DODGE,1950501
1172999,5405296,-94.2,42.51667,IOWA,FT DODGE,1950501
1172999,5405297,-94.18333,42.51667,IOWA,FT DODGE,1950501
1172999,5405298,-94.18333,42.5,IOWA,FT DODGE,1950501
1172999,5405299,-94.16667,42.5,IOWA,FT DODGE,1950501
1172999,5405300,-94.15,42.56667,IOWA,BADGER,1950501
1172999,5405301,-94.18333,42.5,IOWA,FT DODGE,1950501
1172999,5405303,-94.11667,42.61667,IOWA,BADGER,1950516
1172999,5405304,-94.18333,42.5,IOWA,FT DODGE,1950501
1172999,5405305,-94.16667,42.51667,IOWA,FT DODGE,1950501
1172999,5405306,-94.18333,42.48333,IOWA,FT DODGE,1950501
1172999,5405307,-94.18333,42.5,IOWA,FT DODGE,1950501
10865,60417,-95.8285,42.3693,IOWA,ANTHON,1951004
10865,60419,-96.3558,42.8591,IOWA,CRAIG,1951001
1172999,5405293,-94.9,40.63333,IOWA,NEW MARKET,1951646
1172999,5405292,-94.31667,42.43333,IOWA,MOORLAND,1950566
1172999,5405291,-94.38333,42.43333,IOWA,MOORLAND,1950566
1172999,5405291,-94.33333,42.43333,IOWA,MOORLAND,1950566
1172999,5405219,-94.66667,43.18333,IOWA,EMMETSBURG,1950536
1172999,5405220,-94.51666999999999,43.3,IOWA,RINGSTED,1950578
1172999,5405221,-94.36667,43.33333,IOWA,SWEA CITY,1950514
1172999,5405224,-94.26666999999999,43.01667,IOWA,ALGONA,1950511
1172999,5405225,-94.05,43.23333,IOWA,TITONKA,1950480
1172999,5405227,-94.23333000000001,43.06667,IOWA,ALGONA,1950511
1172999,5405228,-94.18333,42.5,IOWA,FT DODGE,1950501
1172999,5405218,-94.41667,43.41667,IOWA,SWEA CITY,1950514
1172999,5405229,-94.3,42.76667,IOWA,RUTLAND,1950582
10865,60412,-96.55,42.83,IOWA,AKRON,1951001
10865,60414,-95.87,42.4,IOWA,ANTHON,1951004
10865,60415,-96.27,42.8,IOWA,BRUNSVILLE,1951031
1172999,5405230,-94.55,42.6,IOWA,PALMER,1950563
1172999,5405231,-94.35,42.6,IOWA,CLARE,1950524
1172999,5405232,-94.51666999999999,42.5,IOWA,BARNUM,1950563
1172999,5405290,-94.43333,42.38333,IOWA,SOMERS,1950586
10865,60410,-96.3191,42.32,IOWA,SALIX,1951052
9458,53536,-92.84,41.18,IOWA,LAKONTA,1950044
1212591,5511544,-94.63333,41.58333,IOWA,GUTHRIE CENTER,1950002
1212591,5511543,-92.76666999999999,42.71667,IOWA,ALLISON,1950602
50998,301762,-95.64,42.32,IOWA,BATTLE CREEK,1951006
50998,301765,-95.66,42.32,IOWA,BATTLE CREEK,1951006
50998,301768,-95.47,42.34,IOWA,IDA GROVE,1951445
50998,301809,-95.83,42.52,IOWA,CORRECTIONVILLE,1951016
50998,301812,-95.36,42.41,IOWA,ARTHUR,1951431
50998,301836,-95.361,42.3753,IOWA,ARTHUR,1951431
50998,301836,-95.3969,42.3217,IOWA,ARTHUR,1951445
50998,301876,-95.4001,42.485,IOWA,GALVA,1951020
50998,301876,-95.4499,42.4364,IOWA,GALVA,1951445
50998,301891,-95.42,42.48,IOWA,GALVA,1951020
50998,301894,-95.76,42.66,IOWA,FIELDING,1951049
50998,302081,-95.09,42.58,IOWA,SULPHUR SPGS,1950588
50998,302081,-95.08,42.582,IOWA,SULPHUR SPGS,1950588
50998,302082,-95.1,42.66,IOWA,SULPHUR SPGS,1950588
1209187,5502568,-91.38333,41.43333,IOWA,LONE TREE,1952755
50998,301753,-95.93,42.23,IOWA,SMITHLAND,1951056
50998,301752,-96.29,42.31,IOWA,SALIX,1951052
50998,301751,-96.29,42.31,IOWA,SALIX,1951052
50998,301750,-96.22,42.23,IOWA,SLOAN,1951055
50368,296553,-92.68,41.27,IOWA,OSKALOOSA,1952534
50368,296552,-92.68,41.27,IOWA,OSKALOOSA,1952534
50368,296551,-92.66,41.3,IOWA,OSKALOOSA,1952577
50368,296545,-92.92,41.41,IOWA,PELLA,1950219
50368,296544,-92.92,41.41,IOWA,PELLA,1950219
50992,301685,-95.86,41.02,IOWA,PACIFIC CITY,1951561
50992,301687,-95.79,41.64,IOWA,LOGAN,1951546
50998,302083,-96.09,42.53,IOWA,MOVILLE,1951039
50995,302613,-95.9141,41.9968,IOWA,TURIN,1951040
1212589,5511060,-94.68333,41.2,IOWA,BRIDGEWATER,1950837
50998,301749,-96.29,42.31,IOWA,SALIX,1951052
50360,296458,-92.84,40.65,IOWA,EXLINE,1952555
50360,296457,-92.92,40.63,IOWA,CINCINNATI,1952549
50359,296561,-94.6,42.67,IOWA,PALMER,1950571
50359,296560,-94.56,42.66,IOWA,PALMER,1950571
50359,296455,-94.2,42.58,IOWA,(FOD)FT DODGE MUNI A,1950501
50995,302613,-95.9681,41.9018,IOWA,MOORHEAD,1951558
50998,302126,-95.5435,42.6067,IOWA,QUIMBY,1951049
50998,302126,-95.443,42.6188,IOWA,AURELIA,1951005
50998,302135,-96.49,42.83,IOWA,AKRON,1951001
50998,302284,-96.25,42.72,IOWA,MERRILL,1951038
50998,302285,-96.23,42.74,IOWA,MERRILL,1951031
50998,302286,-96.17,42.79,IOWA,LE MARS,1951031
50998,302289,-95.55,42.75,IOWA,CHEROKEE,1951012
50998,302293,-95.54,42.74,IOWA,CHEROKEE,1951012
50998,302296,-96.16,42.78,IOWA,LE MARS,1951031
50998,302299,-95.15,42.89,IOWA,SIOUX RAPIDS,1950585
50998,302281,-95.18,42.73,IOWA,TRUESDALE,1950588
50998,302301,-95.24,42.89,IOWA,LINN GROVE,1951033
50998,302307,-96.14,42.39,IOWA,BRONSON,1951007
1212589,5511061,-94.45,41.06667,IOWA,CRESTON,1950801
1212589,5511062,-94.36667,41.06667,IOWA,CRESTON,1950801
1212589,5511063,-94.36667,41.06667,IOWA,CRESTON,1950801
1212589,5511064,-94.36667,41.06667,IOWA,CRESTON,1950801
1212591,5511540,-93.01666999999999,41.58333,IOWA,REASNOR,1950232
1212591,5511541,-93.1,41.43333,IOWA,KNOXVILLE,1950214
50998,302305,-95.17,42.97,IOWA,CORNELL,1950585
50368,296562,-92.64,41.29,IOWA,OSKALOOSA,1952577
50998,302272,-96.43,42.64,IOWA,MILLNERVILLE,1951024
50998,302269,-95.348,42.652,IOWA,ALTA,1951002
50998,302245,-94.9151,42.5943,IOWA,NEWELL,1950568
50998,302245,-94.9736,42.5608,IOWA,NEWELL,1950568
50998,302257,-94.9515,42.5896,IOWA,NEWELL,1950568
50998,302257,-94.9438,42.5751,IOWA,NEWELL,1950568
1209187,5502568,-91.36667,41.43333,IOWA,LONE TREE,1952766
1209188,5502569,-91.21667,41.45,IOWA,NICHOLS,1952761
1209188,5502569,-91.38333,41.43333,IOWA,NICHOLS,1952755
50998,302269,-95.35,42.65,IOWA,ALTA,1951002
50998,302261,-94.9534,42.5655,IOWA,NEWELL,1950568
1209189,5502570,-91.38333,41.48333,IOWA,LONE TREE,1952755
1209189,5502570,-91.36667,41.48333,IOWA,LONE TREE,1952766
1209190,5502571,-91.3,41.5,IOWA,NICHOLS,1952766
1209190,5502571,-91.38333,41.48333,IOWA,NICHOLS,1952755
50998,302266,-95.83,42.6,IOWA,FIELDING,1951061
50998,302267,-95.338,42.641999999999996,IOWA,ALTA,1951002
50998,302267,-95.34,42.64,IOWA,ALTA,1951002
50998,302261,-94.9509,42.5607,IOWA,NEWELL,1950568
50866,300438,-92.4933,43.4091,IOWA,RICEVILLE,1950466
50866,300438,-92.2469,43.5006,IOWA,LIME SPGS,1952155
1180780,5424302,-90.93333,41.96667,IOWA,OXFORD MILLS,1952323
1209177,5502302,-91.28333,42.11667,IOWA,ANAMOSA,1952205
1209177,5502303,-91.18333,42.4,IOWA,HOPKINTON,1952237
1209177,5502303,-91.11667,42.38333,IOWA,HOPKINTON,1952078
1209177,5502373,-91.13333,42.38333,IOWA,WORTHINGTON,1952078
97285,588120,-93.8,41.69,IOWA,GRIMES,1950111
97285,588135,-93.71,41.49,IOWA,NORWALK,1950211
1209177,5502373,-91.05,42.35,IOWA,WORTHINGTON,1952033
1209177,5502375,-91.88333,41.8,IOWA,AMANA,1952203
97285,593504,-93.0433,41.3589,IOWA,FLAGLER,1950138
1209177,5502376,-91.83333,41.66667,IOWA,OXFORD,1952322
97348,585472,-93.52,40.64,IOWA,LINEVILLE,1950147
97356,585517,-94.5778,41.1807,IOWA,FISK,1950858
97356,585517,-94.5777,41.1579,IOWA,FISK,1950858
1180969,5424953,-92.73333000000001,42.9,IOWA,GREENE,1950636
1180969,5424952,-92.7,42.9,IOWA,GREENE,1950636
1209177,5502301,-91.48333000000001,42.35,IOWA,RYAN,1952330
1209177,5502300,-91.05,41.41667,IOWA,MUSCATINE,1952761
1142159,5312856,-91.03333,42.11667,IOWA,CENTER JCT,1952212
1142155,5312844,-90.76666999999999,41.55,IOWA,BLUE GRASS,1952773
1209177,5502288,-91.05,41.41667,IOWA,MUSCATINE,1952761
1209177,5502289,-91.16667,41.56667,IOWA,ATALISSA,1952720
1209177,5502290,-91.61667,41.75,IOWA,NORTH LIBERTY,1952317
1209177,5502291,-91.03333,41.43333,IOWA,MUSCATINE,1952761
1209177,5502292,-91.5,41.8,IOWA,SOLON,1952333
10010,55750,-95.8,42.3788,IOWA,CORRECTIONVILLE,1951004
97201,584512,-91.15,43.2,IOWA,HARPERS FERRY,1952146
1180969,5424947,-92.73333000000001,41.68333,IOWA,GRINNELL,1950112
97201,584511,-91.21,43.24,IOWA,WEXFORD,1952146
1209177,5502295,-91.05,41.41667,IOWA,MUSCATINE,1952761
1209177,5502296,-91.88333,42.43333,IOWA,INDEPENDENCE,1950644
1209177,5502297,-91.05,41.43333,IOWA,MUSCATINE,1952761
1209177,5502299,-91.26666999999999,41.58333,IOWA,WEST LIBERTY,1952776
97201,584510,-91.25,43.4,IOWA,LANSING,
1142155,5312756,-91.05,41.46667,IOWA,MUSCATINE,1952761
1142155,5312756,-90.98333000000001,41.46667,IOWA,MUSCATINE,1952761
1209177,5502293,-91.16667,41.5,IOWA,MUSCATINE,1952761
1209177,5502286,-92.1,42.25,IOWA,MT AUBURN,1952313
97356,588567,-94.5777,41.1579,IOWA,WILLIAMSON,1950858
1209177,5502377,-91.06667,42.63333,IOWA,LUXEMBURG,1952052
50561,297950,-93.59,41.38,IOWA,INDIANOLA,1950125
50561,297949,-93.57,41.36,IOWA,INDIANOLA,1950125
50561,297948,-93.57,41.36,IOWA,INDIANOLA,1950125
50561,297947,-93.17,42.02,IOWA,STATE CENTER,1950247
50561,297946,-93.55,41.6,IOWA,CAPITOL HGTS,1950317
50561,297945,-93.65,41.73,IOWA,ORALABOR,1950023
50561,297944,-93.61,41.72,IOWA,ANKENY,1950023
50561,297943,-93.61,41.72,IOWA,ANKENY,1950023
50561,297942,-93.61,41.72,IOWA,ANKENY,1950023
50561,297941,-93.17,42.02,IOWA,STATE CENTER,1950247
50561,297939,-93.5716,42.0075,IOWA,AMES ARPT,1950010
50561,297938,-93.57,41.76,IOWA,ELKHART,1950021
50561,297937,-93.61,41.72,IOWA,ANKENY,1950023
50561,297936,-93.51,41.59,IOWA,YOUNGSTOWN,1950327
50561,297935,-93.61,41.99,IOWA,AMES ARPT,1950010
50561,297953,-93.52,41.39,IOWA,BEECH,1950125
50561,297954,-93.27,41.39,IOWA,PLEASANTVILLE,1950225
50561,297955,-93.27,41.39,IOWA,PLEASANTVILLE,1950225
1181533,5426422,-92.06667,41.8,IOWA,MARENGO,1952301
1209177,5502378,-91.5,41.8,IOWA,SOLON,1952333
1209177,5502379,-91.88333,42.46667,IOWA,INDEPENDENCE,1950644
1209177,5502380,-90.83333,42.3,IOWA,BERNARD,1952032
1209177,5502380,-90.83333,42.31667,IOWA,BERNARD,1952032
1209177,5502381,-90.81667,42.3,IOWA,GARRY OWEN,1952032
1209177,5502382,-91.86667,41.98333,IOWA,ATKINS,1952206
1209177,5502383,-92.13333,42.1,IOWA,VINTON,1952229
97356,588567,-94.5212,41.1334,IOWA,NEVINVILLE,1950801
1209177,5502384,-91.61667,42.15,IOWA,ALBURNETT,1952202
1209177,5502386,-91.88333,42.46667,IOWA,INDEPENDENCE,1950644
1180969,5424945,-93.3,42.16667,IOWA,ZEARING,1950278
1180969,5424944,-93.45,42.01667,IOWA,NEVADA,1950201
1180968,5424943,-94.88333,42.06667,IOWA,CARROLL,1951401
1181533,5426419,-91.86667,42.05,IOWA,SHELLSBURG,1952332
1181533,5426420,-92.18333,41.75,IOWA,LADORA,1952251
1181533,5426421,-92.18333,41.7,IOWA,LADORA,1952251
1209177,5502385,-91.65,42.0,IOWA,CEDAR RAPIDS,1952402
1209177,5502285,-91.35,41.66667,IOWA,WEST BRANCH,1952358
1209177,5502283,-91.26666999999999,41.58333,IOWA,WEST LIBERTY,1952776
1209177,5502282,-91.83333,41.88333,IOWA,FAIRFAX,1952351
50679,298885,-94.38,41.07,IOWA,CRESTON,1950801
50673,298849,-92.58,40.8,IOWA,PARIS,1952552
1209177,5502053,-91.63333,42.6,IOWA,LAMONT,1950650
1209177,5502055,-91.61667,42.15,IOWA,ALBURNETT,1952202
1209177,5502056,-92.06667,42.1,IOWA,VINTON,1952349
1209177,5502056,-92.03333,42.08333,IOWA,VINTON,1952349
1209177,5502057,-91.81667,41.85,IOWA,FAIRFAX,1952228
1209177,5502058,-91.81667,41.88333,IOWA,SWISHER,1952228
1209177,5502059,-91.88333,42.53333,IOWA,INDEPENDENCE,1950644
10007,55736,-96.3604,42.5,IOWA,SIOUX CITY,1951105
1209177,5502061,-92.08333,42.05,IOWA,VAN HORNE,1952346
1209177,5502114,-91.98333000000001,41.76667,IOWA,SOUTH AMANA,1952301
1209177,5502115,-91.66667,41.98333,IOWA,CEDAR RAPIDS,1952401
1209177,5502116,-91.4,42.65,IOWA,EDGEWOOD,1952042
1209177,5502117,-92.08333,42.01667,IOWA,VAN HORNE,1952346
50679,298889,-94.12,41.49,IOWA,EARLHAM,1950072
50679,298895,-93.98,41.6,IOWA,ORTONVILLE,1950003
50679,298896,-92.88,41.21,IOWA,BUSSEY,1950044
50679,298902,-93.6,41.89,IOWA,HUXLEY,1950124
1209177,5502046,-91.65,42.0,IOWA,CEDAR RAPIDS,1952402
1209177,5502047,-92.05,42.48333,IOWA,JESUP,1950648
1209177,5502048,-92.15,42.11667,IOWA,GARRISON,1952229
1209177,5502049,-92.08333,42.16667,IOWA,VINTON,1952349
1209177,5502052,-92.1,42.11667,IOWA,GARRISON,1952349
50679,298947,-93.29,43.14,IOWA,CENTRAL HGTS,1950428
50679,298946,-92.95,41.4,IOWA,PELLA MUNI ARPT,1950219
1209177,5502118,-91.65,42.0,IOWA,CEDAR RAPIDS,1952402
38887,225776,-95.0,42.42,IOWA,SAC CITY,1950583
38887,225778,-94.72,42.48,IOWA,JOLLEY,1950551
38887,225779,-94.23,42.87,IOWA,BODE,1950519
38887,225780,-93.62,41.5,IOWA,SCOTCH RIDGE,1950320
50679,298909,-93.45,42.02,IOWA,NEVADA,1950201
50679,298908,-93.86,41.61,IOWA,HADDEN HILL,1950263
50679,298907,-93.6,41.9,IOWA,HUXLEY,1950124
50679,298905,-93.6,41.92,IOWA,MIDVALE,1950124
38887,225777,-95.0,42.42,IOWA,SAC CITY,1950583
1209177,5502119,-91.98333000000001,41.98333,IOWA,NEWHALL,1952315
1209177,5502120,-91.63333,42.6,IOWA,LAMONT,1950650
1209177,5502121,-91.83333,41.66667,IOWA,OXFORD,1952322
1209177,5502197,-90.55,42.36667,IOWA,ST DONATUS,1952054
1209177,5502199,-91.88333,41.98333,IOWA,ATKINS,1952206
10007,55739,-95.72,42.57,IOWA,WASHTA,1951061
10007,55740,-95.0,42.95,IOWA,WEBB,1951366
1209177,5502201,-91.38333,41.91667,IOWA,LISBON,1952253
1209177,5502202,-91.91667,41.9,IOWA,NORWAY,1952318
1209177,5502204,-91.86667,41.98333,IOWA,ATKINS,1952206
1209177,5502195,-91.98333000000001,42.0,IOWA,NEWHALL,1952315
10010,55743,-96.35,42.4,IOWA,SERGEANT BLUFF,1951054
1209177,5502279,-91.85,41.86667,IOWA,WALFORD,1952318
1209177,5502280,-91.41667,41.7,IOWA,IOWA CITY,1952240
10010,55747,-95.8277,42.4596,IOWA,CORRECTIONVILLE,1951016
1209177,5502281,-91.85,41.9,IOWA,WALFORD,1952318
1142152,5312665,-92.16667,41.56667,IOWA,MILLERSBURG,1952316
1142153,5312745,-92.01666999999999,40.91667,IOWA,LIBERTYVILLE,1952556
10010,55748,-95.87,42.4,IOWA,ANTHON,1951004
10010,55746,-95.8,42.48,IOWA,CORRECTIONVILLE,1951016
50561,297934,-93.61,41.72,IOWA,ANKENY,1950023
1209177,5502194,-91.55,41.66667,IOWA,IOWA CITY,1952246
1209177,5502192,-91.55,41.66667,IOWA,IOWA CITY,1952246
1209177,5502123,-91.86667,41.98333,IOWA,ATKINS,1952206
1209177,5502124,-91.7,41.78333,IOWA,SWISHER,1952317
1209177,5502126,-91.28333,42.13333,IOWA,ANAMOSA,1952205
1209177,5502126,-91.28333,42.11667,IOWA,ANAMOSA,1952205
1209177,5502127,-91.65,42.0,IOWA,CEDAR RAPIDS,1952402
1209177,5502128,-91.7,41.65,IOWA,COSGROVE,1952322
1209177,5502130,-91.66667,41.7,IOWA,TIFFIN,1952340
1209177,5502193,-91.6,42.03333,IOWA,MARION,1952302
1209177,5502131,-91.68333,41.81667,IOWA,COU FALLS,1952338
1209177,5502184,-91.4,42.65,IOWA,EDGEWOOD,1952042
1209177,5502186,-91.58333,41.71667,IOWA,CORALVILLE,1952241
1209177,5502186,-91.58333,41.68333,IOWA,CORALVILLE,1952241
1209177,5502188,-91.68333,42.03333,IOWA,HIAWATHA,1952402
1209177,5502189,-91.63333,42.0,IOWA,CEDAR RAPIDS,1952403
1209177,5502190,-91.65,42.03333,IOWA,CEDAR RAPIDS,1952402
1209177,5502191,-92.08333,42.0,IOWA,VAN HORNE,1952346
1209177,5502183,-91.68333,42.01667,IOWA,CEDAR RAPIDS,1952402
50561,297933,-93.58,41.62,IOWA,CAPITOL HGTS,1950317
50561,297932,-93.6004,41.6495,IOWA,NORWOODVILLE,1950313
50561,297931,-93.62,41.58,IOWA,DES MOINES,1950309
10239,56921,-91.59,41.88,IOWA,ELY,1952227
10239,56926,-90.78,41.71,IOWA,DIXON,1952745
10239,56928,-90.57,41.64,IOWA,DAVENPORT ARPT,1952748
10239,56929,-90.68,41.69,IOWA,DONAHUE,1952746
10239,56930,-90.57,41.64,IOWA,DAVENPORT ARPT,1952748
10239,56931,-90.57,41.64,IOWA,DAVENPORT ARPT,1952748
10239,56932,-90.57,41.64,IOWA,DAVENPORT ARPT,1952748
10239,56938,-91.09,41.8,IOWA,WALD,1952772
10247,57136,-91.07,41.42,IOWA,MUSCATINE,1952761
10247,57143,-92.17,40.99,IOWA,BATAVIA,1952533
10250,57025,-91.55,42.58,IOWA,DUNDEE,1952038
10250,57026,-92.14,42.14,IOWA,GARRISON,1952229
10250,57028,-91.4,42.65,IOWA,EDGEWOOD,1952042
9858,55144,-95.8545,43.4613,IOWA,SIBLEY,1951243
9858,55084,-96.18,43.08,IOWA,SIOUX CENTER,1951250
10239,56920,-91.67,41.97,IOWA,CEDAR RAPIDS,1952404
10239,56919,-91.67,41.97,IOWA,CEDAR RAPIDS,1952404
10239,56918,-91.7,41.98,IOWA,CEDAR RAPIDS,1952405
10239,56917,-91.94,42.05,IOWA,SHELLSBURG,1952332
50531,297775,-94.94,41.92,IOWA,TEMPLETON,1951463
50531,297680,-93.72,41.74,IOWA,POLK CITY,1950131
97356,592527,-94.82,40.73,IOWA,NEW MARKET,1951646
97356,598269,-94.8002,40.7251,IOWA,GRAVITY,1950833
97366,585619,-93.79,43.37,IOWA,THOMPSON,1950478
97369,585669,-94.05,40.71,IOWA,KELLERTON,1950133
50779,299724,-95.52,40.96,IOWA,STRAHAN,1951551
9858,55074,-96.3201,43.1822,IOWA,SIOUX CENTER,1951247
17163,99281,-93.9333,40.9831,IOWA,MURRAY,1950174
17163,99279,-92.6284,41.6979,IOWA,GRINNELL ARPT,1950112
50779,299732,-95.04,40.58,IOWA,BRADDYVILLE,1951631
1099815,5155650,-92.0,41.66667,IOWA,WILLIAMSBURG,1952361
50784,299760,-95.86,41.02,IOWA,PACIFIC CITY,1951561
50784,299762,-95.29,40.76,IOWA,BINGHAM,1951601
1099815,5155430,-91.98333000000001,41.93333,IOWA,NEWHALL,1952354
1099815,5155429,-91.83333,42.28333,IOWA,WALKER,1952352
17163,99280,-92.5152,41.6067,IOWA,MONTEZUMA,1950171
9856,55065,-96.17,42.78,IOWA,LE MARS,1951031
9856,55062,-96.17,42.78,IOWA,LE MARS,1951031
1122032,5264362,-96.31667,42.58333,IOWA,JAMES,1951108
50515,297561,-93.61,41.74,IOWA,ANKENY,1950023
50515,297560,-92.67,42.28,IOWA,LINCOLN,1950635
50515,297559,-92.63,42.26,IOWA,LINCOLN,1950669
1122033,5264442,-96.38333,42.5,IOWA,SIOUX CITY,1951101
1122033,5264443,-96.4,42.5,IOWA,SIOUX CITY,1951105
1180817,5424610,-94.91667,42.95,IOWA,WEBB,1951366
1180817,5424609,-95.18333,42.93333,IOWA,CORNELL,1950585
50515,297562,-92.66,42.25,IOWA,LINCOLN,1950635
1180816,5424608,-96.05,43.0,IOWA,ORANGE CITY,1951041
1180802,5424516,-96.38333,42.5,IOWA,SIOUX CITY,1951101
1180801,5424515,-95.75,42.78333,IOWA,CLEGHORN,1951035
1180800,5424514,-95.83333,42.68333,IOWA,KINGSLEY,1951035
1180797,5424394,-96.51666999999999,43.45,IOWA,LARCHWOOD,1951241
1180788,5424385,-95.18333,43.43333,IOWA,SPIRIT LAKE,1951360
1180787,5424384,-95.85,42.55,IOWA,ANTHON,1951048
1180787,5424384,-95.85,42.4,IOWA,ANTHON,1951004
1180815,5424607,-96.21667,42.96667,IOWA,IRETON,1951036
50532,297681,-93.6,41.0,IOWA,WOODBURN,1950275
50515,297563,-92.6,42.32,IOWA,REINBECK,1950669
50515,297566,-92.54,42.25,IOWA,BUCKINGHAM,1950669
50515,297582,-93.59,41.76,IOWA,ANKENY,1950021
50515,297581,-92.95,41.87,IOWA,LAUREL,1950141
50515,297580,-93.11,41.85,IOWA,BAXTER,1950028
50515,297579,-93.12,41.85,IOWA,BAXTER,1950028
50515,297578,-92.92,41.88,IOWA,LAUREL,1950141
50515,297577,-93.12,41.85,IOWA,BAXTER,1950028
50515,297576,-93.15,41.83,IOWA,BAXTER,1950028
50515,297565,-93.6,41.74,IOWA,ANKENY,1950023
50515,297575,-92.39,42.24,IOWA,BUCKINGHAM,1950675
50515,297573,-93.33,41.93,IOWA,COLLINS,1950055
50515,297572,-93.31,41.9,IOWA,COLLINS,1950055
50515,297571,-93.35,41.89,IOWA,COLLINS,1950161
50515,297570,-93.17,42.02,IOWA,STATE CENTER,1950247
50515,297569,-92.56,42.2,IOWA,TRAER,1950675
50515,297568,-93.61,41.74,IOWA,ANKENY,1950023
50515,297567,-92.71,42.19,IOWA,GLADBROOK,1950635
50515,297574,-93.1,41.94,IOWA,MELBOURNE,1950162
1172999,5405308,-94.18333,42.5,IOWA,FT DODGE,1950501
60812,363384,-95.07,41.27,IOWA,LEWIS,1951544
60812,363386,-93.48,41.65,IOWA,ALTOONA,1950009
17174,99457,-95.78,41.98,IOWA,SOLDIER,1951572
50557,297873,-95.1,40.98,IOWA,STANTON,1951573
17174,99456,-95.88,42.09,IOWA,CASTANA,1951010
97356,592520,-93.46,41.03,IOWA,LUCAS,1950151
97356,592522,-94.38,41.06,IOWA,CRESTON,1950801
97356,592523,-94.36,41.06,IOWA,CRESTON,1950801
50546,297785,-94.62,41.85,IOWA,BAYARD,1950029
50546,297784,-94.96,41.95,IOWA,TEMPLETON,1951463
50751,299510,-92.43,41.03,IOWA,OTTUMWA,1952501
50751,300134,-93.38,41.19,IOWA,LACONA,1950139
97023,583506,-95.18,42.64,IOWA,LAKESIDE,1950588
1181533,5426425,-91.6,42.03333,IOWA,MARION,1952302
1181536,5426435,-91.7,41.3,IOWA,VAN HORNE,1952353
97356,592524,-92.32,41.57,IOWA,TILTON,1952222
97356,592525,-94.79,40.72,IOWA,GRAVITY,1950833
17174,99458,-95.65,41.81,IOWA,DUNLAP,1951529
17174,99459,-95.26,41.15,IOWA,WALES,1951566
17174,99460,-95.22,41.01,IOWA,RED OAK,1951566
97356,592515,-94.36,41.06,IOWA,CRESTON,1950801
50561,297930,-93.65,41.51,IOWA,NORWALK,1950211
50561,297929,-93.66,41.53,IOWA,(DSM)DES MOINES INTL,1950321
50561,297928,-92.54,40.66,IOWA,MARK,1952537
97356,592490,-94.92,41.71,IOWA,AUDUBON ARPT,1950025
17174,99473,-95.31700000000001,41.1903,IOWA,MACEDONIA,1951525
17174,99473,-95.3127,41.1871,IOWA,MACEDONIA,1951525
17174,99464,-95.6,40.71,IOWA,RIVERTON,1951652
97356,592526,-94.82,40.73,IOWA,NEW MARKET,1951646
17174,99463,-95.57,40.69,IOWA,RIVERTON,1951650
17174,99461,-95.32,40.92,IOWA,COBURG,1951566
97356,592505,-94.46,41.3,IOWA,GREENFIELD,1950849
97356,592506,-94.46,41.31,IOWA,GREENFIELD,1950849
50559,297881,-95.6767,41.58,IOWA,PERSIA,1951563
97356,592507,-94.47,41.21,IOWA,ORIENT,1950858
97356,592508,-93.1,41.52,IOWA,MONROE,1950170
97356,592510,-93.05,41.56,IOWA,REASNOR,1950170
17174,99462,-95.84,41.05,IOWA,PACIFIC CITY,1951561
50532,297703,-93.7178,41.604,IOWA,WINDSOR HGTS,1950324
17172,99439,-95.48,40.72,IOWA,FARRAGUT,1951639
50532,297702,-93.6345,41.635,IOWA,DES MOINES,1950313
60840,363571,-95.04,40.59,IOWA,BRADDYVILLE,1951631
39022,226379,-94.03,43.33,IOWA,GERMAN VLY,1950451
39022,226380,-94.68,42.55,IOWA,POMEROY,1950575
39022,226381,-93.94,43.39,IOWA,BUFFALO CENTER,1950424
39022,226402,-94.9203,42.453,IOWA,LYTTON,1950583
39022,226402,-94.932,42.4465,IOWA,LYTTON,1950583
39022,226404,-94.3504,42.7036,IOWA,UNIQUE,1950548
60840,363572,-95.64,40.75,IOWA,SIDNEY,1951652
39022,226404,-94.3346,42.7109,IOWA,UNIQUE,1950548
39022,226407,-93.9183,42.6817,IOWA,EAGLE GROVE,1950533
39022,226477,-92.3134,42.8036,IOWA,TRIPOLI,1950676
39022,226477,-92.3077,42.8041,IOWA,TRIPOLI,1950676
60840,363570,-95.33,41.07,IOWA,MC PHERSON,1951533
50532,297683,-93.76,41.6,IOWA,CLOVER HILLS,1950266
50532,297682,-93.75,41.57,IOWA,ASHAWA,1950265
60838,363537,-95.79,42.2,IOWA,MAPLETON MUNI ARPT,1951034
39022,226407,-93.9556,42.691,IOWA,EAGLE GROVE ARPT,1950533
60812,363385,-95.14,41.19,IOWA,GRISWOLD,1951535
50532,297684,-93.75,41.61,IOWA,CLOVER HILLS,1950325
50532,297686,-93.6732,41.6149,IOWA,WINDSOR HGTS,1950310
17172,99437,-95.69,41.09,IOWA,SILVER CITY,1951534
50532,297701,-93.62,41.6493,IOWA,SAYDELL,1950313
50532,297700,-93.62,41.64,IOWA,SAYDELL,1950313
17172,99436,-95.4,41.31,IOWA,OAKLAND,1951560
50532,297699,-93.7422,41.6345,IOWA,URBANDALE,1950322
50532,297698,-93.6588,41.6365,IOWA,LOVINGTON,1950310
50532,297696,-93.76,41.6,IOWA,CLOVER HILLS,1950266
50532,297685,-93.77,41.57,IOWA,ASHAWA,1950265
50532,297695,-93.71,41.64,IOWA,LOVINGTON,1950322
50532,297693,-93.78,41.61,IOWA,CLIVE,1950325
50532,297692,-93.8088,41.6005,IOWA,HADDEN HILL,1950325
50532,297691,-94.0,41.51,IOWA,DE SOTO,1950261
50532,297690,-93.7911,41.6001,IOWA,HADDEN HILL,1950266
50532,297689,-93.6588,41.6296,IOWA,LOVINGTON,1950310
50532,297688,-93.6155,41.5863,IOWA,DES MOINES,1950309
50532,297687,-93.66,41.64,IOWA,LOVINGTON,1950310
50532,297694,-93.75,41.61,IOWA,CLOVER HILLS,1950325
1172999,5405309,-94.18333,42.5,IOWA,FT DODGE,1950501
1172999,5405311,-94.15,42.36667,IOWA,OTHO,1950501
1172999,5405311,-94.18333,42.38333,IOWA,OTHO,1950569
1149347,5349196,-93.61667,41.6,IOWA,DES MOINES,1950314
1149347,5349195,-93.46667,41.65,IOWA,ALTOONA,1950009
1149347,5349194,-93.46667,41.7,IOWA,BONDURANT,1950035
1149347,5349112,-93.85,41.96667,IOWA,PLEASANT HILL,1950156
1149347,5349111,-93.61667,41.6,IOWA,DES MOINES,1950314
109506,655520,-92.7183,42.57,IOWA,NEW HARTFORD,1950665
109505,655407,-93.05,43.17,IOWA,ROCK FALLS,1950458
109505,655406,-93.04,43.18,IOWA,ROCK FALLS,1950458
109505,655405,-93.05,43.21,IOWA,ROCK FALLS,1950458
1149347,5349110,-92.98333000000001,40.66667,IOWA,NUMA,1952544
95996,588583,-92.4,41.02,IOWA,OTTUMWA,1952501
1212000,5512454,-91.35,41.78333,IOWA,CEDAR BLUFF,1952358
1173271,5404899,-96.06667,41.83333,IOWA,LITTLE SIOUX,1951545
1173272,5404900,-96.03333,41.6,IOWA,MODALE,1951555
1173275,5404979,-95.71667,41.73333,IOWA,WOODBINE,1951579
1149347,5349197,-93.25,41.68333,IOWA,COLFAX,1950054
51522,306363,-93.64,42.31,IOWA,JEWELL,1950130
51522,306361,-94.4,41.69,IOWA,MONTEITH,1950216
51522,306360,-93.2,43.17,IOWA,MASON CITY,1950401
1212004,5512558,-90.41667,41.75,IOWA,FOLLETTS,1952730
1212000,5512456,-90.51666999999999,41.53333,IOWA,BETTENDORF,1952722
98549,592610,-94.62,42.85,IOWA,PLOVER,1950581
98549,592615,-95.57,41.93,IOWA,DOW CITY,1951528
98549,592616,-94.8,41.84,IOWA,VIOLA CENTER,1950058
1149347,5349197,-93.25,41.65,IOWA,COLFAX,1950054
96012,576972,-94.97,43.31,IOWA,TERRIL,1951364
1173277,5404981,-95.4,41.71667,IOWA,WESTPHALIA,1951537
96012,576971,-94.93,43.31,IOWA,TERRIL,1951364
1152072,5357021,-96.55,42.83333,IOWA,AKRON,1951001
51522,306356,-95.32,42.1,IOWA,DELOIT,1951441
51522,306357,-94.84,42.31,IOWA,YETTER,1951433
51522,306358,-94.55,42.27,IOWA,LOHRVILLE,1951453
1094854,5143238,-91.9,42.68333,IOWA,OELWEIN,1950662
1094854,5143239,-91.53333,42.68333,IOWA,STRAWBERRY PT,1952076
51522,306359,-93.53,43.42,IOWA,LAKE MILLS,1950450
96012,576971,-94.925,43.31,IOWA,TERRIL,1951364
1212004,5512559,-90.31667,41.6,IOWA,LE CLAIRE,
95985,588658,-94.22,41.786,IOWA,PERRY MUNI ARPT,1950066
95985,588656,-94.419,41.67100000000001,IOWA,MONTEITH,1950115
95985,588638,-94.337,41.636,IOWA,DALE,1950250
95985,588637,-94.50200000000001,41.68899999999999,IOWA,GUTHRIE CENTER,1950115
95985,588636,-94.43,41.599,IOWA,GLENDON,1950115
95985,588635,-94.366,41.648,IOWA,DALE,1950216
95985,588634,-94.5,41.717,IOWA,PANORA,1950115
95985,588633,-94.51299999999999,41.685,IOWA,GUTHRIE CENTER,1950115
95985,588632,-94.454,41.717,IOWA,FANSLERS,1950115
95985,588631,-94.479,41.698,IOWA,GUTHRIE CENTER,1950115
95985,588630,-94.49,41.731,IOWA,FANSLERS,1950115
95985,588629,-94.478,41.716,IOWA,FANSLERS,1950115
95985,588628,-94.338,41.858000000000004,IOWA,HERNDON,1950128
95985,588626,-94.51299999999999,41.717,IOWA,PANORA,1950115
95985,588625,-94.53200000000001,41.725,IOWA,PANORA,1950115
95985,588623,-94.561,41.74,IOWA,WICHITA,1950115
95985,588621,-94.396,41.751000000000005,IOWA,FANSLERS,1950277
95985,588640,-94.51700000000001,41.626999999999995,IOWA,GUTHRIE CENTER,1950115
95985,588642,-94.499,41.683,IOWA,GUTHRIE CENTER,1950115
95985,588643,-94.29899999999999,41.652,IOWA,DALE,1950216
95985,588645,-94.26899999999999,41.648999999999994,IOWA,LINDEN,1950146
95985,588654,-94.37700000000001,41.806000000000004,IOWA,HERNDON,1950277
95985,588653,-94.507,41.833999999999996,IOWA,BAYARD,1950029
95985,588652,-94.45200000000001,41.82,IOWA,BAGLEY,1950026
95985,588651,-94.385,41.791000000000004,IOWA,HERNDON,1950277
1211998,5512450,-90.38333,41.75,IOWA,FOLLETTS,1952730
95985,588650,-94.53200000000001,41.785,IOWA,YALE,1950029
1149347,5349109,-93.61667,41.6,IOWA,DES MOINES,1950314
95985,588657,-94.344,41.61600000000001,IOWA,DALE,1950250
1149347,5349108,-93.63333,41.68333,IOWA,SAYLORVILLE,1950313
1149347,5349106,-93.61667,41.6,IOWA,DES MOINES,1950314
1149347,5349105,-93.71667,41.63333,IOWA,URBANDALE,1950322
109297,655511,-95.4864,42.02,IOWA,DENISON,1951528
109297,655269,-95.49,42.02,IOWA,KENWOOD,1951528
1149347,5349104,-92.4,41.01667,IOWA,OTTUMWA,1952501
95985,588648,-94.552,41.861000000000004,IOWA,BAYARD,1950029
95985,588647,-94.51299999999999,41.663999999999994,IOWA,GUTHRIE CENTER,1950115
1149347,5349107,-93.61667,41.6,IOWA,DES MOINES,1950314
98528,592604,-93.76,41.49,IOWA,CUMMING,1950061
1149347,5349198,-93.26666999999999,41.66667,IOWA,COLFAX,1950054
1149347,5349199,-93.23333000000001,41.66667,IOWA,COLFAX,1950054
1185585,5440974,-94.13333,42.45,IOWA,COALVILLE,1950501
1185585,5440975,-93.96667,42.46667,IOWA,DUNCOMBE,1950532
1185585,5440976,-93.75,42.51667,IOWA,WEBSTER CITY,1950595
1185585,5440978,-93.18333,43.15,IOWA,MASON CITY,1950401
1185585,5440979,-93.13333,43.1,IOWA,MASON CITY,1950401
1185585,5440979,-93.1,43.15,IOWA,MASON CITY,1950401
1185585,5440980,-92.45,41.81667,IOWA,BROOKLYN,1952211
1185585,5440981,-92.86667,41.85,IOWA,NEWBURG,1950106
1185585,5440981,-92.83333,41.95,IOWA,NEWBURG,1950158
1185585,5440982,-93.11667,43.11667,IOWA,MASON CITY,1950458
1185585,5440982,-93.13333,43.1,IOWA,MASON CITY,1950401
1185585,5440983,-94.03333,43.45,IOWA,LEDYARD,1956027
1185585,5440984,-94.5,40.61667,IOWA,BLOCKTON,1950836
1185585,5440985,-94.43333,40.6,IOWA,REDDING,1950836
1185585,5440986,-93.91667,41.61667,IOWA,ADEL,1950263
1185585,5440973,-94.05,42.4,IOWA,FT DODGE,1950557
1185585,5440972,-93.61667,41.6,IOWA,DES MOINES,1950314
1185585,5440971,-93.66667,41.63333,IOWA,DES MOINES,1950310
1185585,5440970,-94.23333000000001,40.7,IOWA,MT AYR MUNI ARPT,1950854
1185410,5441406,-93.58333,41.55,IOWA,DES MOINES,1950320
1185410,5441407,-93.61667,41.55,IOWA,DES MOINES,1950315
1185490,5442221,-92.73333000000001,43.46667,IOWA,STACYVILLE,1950476
1185490,5442221,-92.78333,43.43333,IOWA,STACYVILLE,1950476
1185490,5442222,-92.93333,43.28333,IOWA,OSAGE,1950461
1185490,5442223,-91.66667,43.0,IOWA,CLERMONT,1952135
1185582,5440885,-94.63333,42.4,IOWA,ROCKWELL CITY,1950579
1185585,5440989,-93.51666999999999,42.66667,IOWA,DOWS,1950071
1185582,5440886,-94.18333,42.5,IOWA,FT DODGE,1950501
1185582,5440888,-94.45,40.8,IOWA,CLEARFIELD,1950840
1185582,5440889,-93.9,41.63333,IOWA,WAUKEE,1950263
1185582,5440891,-93.23333000000001,41.95,IOWA,COLO,1950247
1185582,5440892,-93.16667,42.01667,IOWA,STATE CENTER,1950247
1185582,5440893,-93.36667,40.7,IOWA,ALLERTON,1950008
1185582,5440894,-93.46667,41.63333,IOWA,DES MOINES EKMAN ARP,1950009
1185585,5440969,-94.85,43.36667,IOWA,ESTHERVILLE,1951334
1185582,5440887,-94.73333000000001,40.76667,IOWA,GRAVITY,1950848
1212008,5512736,-90.85,42.45,IOWA,PEOSTA,1952068
1101041,5173575,-95.21667,41.56667,IOWA,HARLAN,1951537
1101043,5173577,-95.15,41.48333,IOWA,WALNUT,1951552
1149347,5349500,-93.05,41.7,IOWA,NEWTON,1950208
1149347,5349499,-93.05,41.7,IOWA,NEWTON,1950208
1149347,5349202,-93.25,41.66667,IOWA,COLFAX,1950054
1152073,5357022,-96.73333000000001,42.75,IOWA,WESTFIELD,
1149347,5349201,-92.66667,40.68333,IOWA,MOULTON,1952572
16960,97881,-93.75,40.74,IOWA,LEON,1950144
16960,97880,-93.93,40.62,IOWA,LAMONI,1950140
1149347,5349501,-93.05,41.7,IOWA,NEWTON,1950208
16960,97879,-93.56,41.45,IOWA,SCOTCH RIDGE,1950047
16960,97876,-94.19,41.46,IOWA,EARLHAM,1950072
16960,97875,-94.32,41.5,IOWA,HOWE,1950250
16960,97874,-94.12,41.49,IOWA,EARLHAM,1950072
96045,577277,-96.55,43.25,IOWA,FAIRVIEW,1951240
96045,577274,-96.45,43.24,IOWA,FAIRVIEW,1951240
96045,577274,-96.46,43.23,IOWA,FAIRVIEW,1951247
1149347,5349200,-93.25,41.66667,IOWA,COLFAX,1950054
16960,97877,-94.19,41.46,IOWA,EARLHAM,1950072
95985,588620,-94.537,41.746,IOWA,YALE,1950115
1149347,5349502,-93.05,41.78333,IOWA,NEWTON,1950208
1149347,5349504,-92.45,41.73333,IOWA,BROOKLYN,1952211
1101044,5173578,-95.96667,42.01667,IOWA,TURIN,1951040
1101045,5173579,-96.08333,41.93333,IOWA,BLENCOE,1951523
96049,577310,-96.03,43.43,IOWA,EDNA,1951246
96049,577309,-96.17,43.44,IOWA,ROCK RAPIDS MUNI ARP,1951246
1101046,5173580,-95.9,41.9,IOWA,MOORHEAD,1951558
1101047,5173581,-95.96667,41.93333,IOWA,BLENCOE,1951558
1101048,5173632,-95.38333,41.65,IOWA,HARLAN,1951537
1149347,5349503,-92.55,41.7,IOWA,MALCOLM,1950157
1101048,5173632,-95.33333,41.65,IOWA,HARLAN,1951537
1149347,5349511,-92.65,41.08333,IOWA,ALBIA,1952531
1149347,5349510,-92.66667,40.68333,IOWA,MOULTON,1952572
1149347,5349509,-93.3,40.85,IOWA,MILLERTON,1950060
1149347,5349508,-93.11667,40.68333,IOWA,SEYMOUR,1952590
1149347,5349507,-93.63333,40.73333,IOWA,LEON,1950144
1149347,5349506,-92.33333,41.13333,IOWA,HIGHLAND CENTER,1952563
1149347,5349505,-92.45,41.73333,IOWA,BROOKLYN,1952211
1149347,5349512,-92.73333000000001,41.11667,IOWA,AVERY,1952531
95985,588619,-94.522,41.751999999999995,IOWA,YALE,1950115
95985,588618,-94.491,41.76,IOWA,FANSLERS,1950115
95985,588617,-94.43799999999999,41.777,IOWA,FANSLERS,1950026
1214604,5516883,-93.2,43.08333,IOWA,MASON CITY,1950401
95925,588664,-92.64,41.1126,IOWA,DUDLEY,1952553
1214604,5516882,-93.38333,43.13333,IOWA,CLEAR LAKE,1950428
1214604,5516792,-93.38333,43.13333,IOWA,CLEAR LAKE,1950428
1214604,5516791,-93.41667,43.13333,IOWA,VENTURA,1950428
1214604,5516790,-93.83333,43.1,IOWA,BRITT,1950423
1214604,5516789,-94.0,43.08333,IOWA,WESLEY,1950483
1214604,5516788,-93.81667,43.1,IOWA,BRITT,1950423
1214604,5516786,-94.23333000000001,43.11667,IOWA,ALGONA,1950511
95925,588662,-92.64,41.1126,IOWA,AVERY,1952553
95925,588662,-92.6485,41.1178,IOWA,AVERY,1952553
1214604,5516785,-94.66667,42.86667,IOWA,PLOVER,1950546
95925,576345,-92.42,41.02,IOWA,OTTUMWA,1952501
95925,576342,-92.42,41.05,IOWA,OTTUMWA,1952501
95925,576328,-92.62,41.3,IOWA,UNIVERSITY PARK,1952577
95925,588664,-92.5903,41.0907,IOWA,CHILLICOTHE,1952501
1214604,5516885,-94.0,42.11667,IOWA,BOXHOLM,1950212
1214605,5516887,-92.5,40.8,IOWA,DRAKESVILLE,1952552
5993,35018,-94.36,41.06,IOWA,CRESTON,1950801
95931,576349,-94.28,40.61,IOWA,DELPHOS,1950860
49981,317068,-91.19,40.86,IOWA,BEAVERDALE,1952601
1214608,5516904,-93.71667,41.63333,IOWA,BUCK GROVE,1950322
1214608,5516903,-93.71667,41.63333,IOWA,VAIL,1950322
1214606,5516895,-94.88333,42.06667,IOWA,CARROLL,1951401
1214606,5516894,-95.01666999999999,42.1,IOWA,ARCADIA,1951430
1214605,5516893,-92.93333,41.41667,IOWA,PELLA,1950219
95925,576327,-92.64,41.29,IOWA,OSKALOOSA,1952577
49981,293774,-91.1814,40.9058,IOWA,DODGEVILLE,1952601
49981,293771,-91.1902,40.8389,IOWA,BEAVERDALE,1952601
49981,293771,-91.2255,40.7743,IOWA,AUGUSTA,1952638
1214605,5516892,-92.93333,41.43333,IOWA,PELLA MUNI ARPT,1950219
1214605,5516891,-93.03333,41.41667,IOWA,PELLA,1950219
1214605,5516890,-93.41667,41.26667,IOWA,MILO,1950166
1214605,5516889,-93.41667,41.25,IOWA,LACONA,1950166
1214605,5516888,-93.46667,41.15,IOWA,LUCAS,1950151
49981,293774,-91.1817,40.9574,IOWA,DODGEVILLE,1952650
95925,576326,-92.92,41.41,IOWA,PELLA,1950219
95925,576324,-92.92,41.32,IOWA,HARVEY,1950119
95925,576322,-92.92,41.32,IOWA,HARVEY,1950119
51546,307303,-92.28,41.89,IOWA,BELLE PLAINE,1952208
51546,307316,-92.1425,41.8217,IOWA,KOSZTA,1952301
51546,307316,-92.206,41.7916,IOWA,KOSZTA,1952251
51546,307318,-92.0999,41.5776,IOWA,MILLERSBURG,1952316
51546,307318,-92.0624,41.5812,IOWA,PARNELL,1952361
51546,307321,-92.01,41.66,IOWA,WILLIAMSBURG,1952361
51546,307322,-91.89,41.65,IOWA,HOLBROOK,1952361
95905,576187,-94.71,40.66,IOWA,BEDFORD,1950833
51546,307324,-92.01,41.66,IOWA,WILLIAMSBURG,1952361
51546,307327,-92.17,41.42,IOWA,WEBSTER,1952355
51546,307328,-91.62,41.76,IOWA,NORTH LIBERTY,1952317
51546,307329,-91.59,41.88,IOWA,ELY,1952227
51546,307330,-91.42,41.92,IOWA,MT VERNON,1952314
51546,307331,-91.25,42.01,IOWA,MORLEY,1952205
51546,307333,-91.25,41.9,IOWA,MECHANICSVILLE,1952306
51546,307336,-91.15,41.89,IOWA,STANWOOD,1952337
51546,307325,-91.89,41.74,IOWA,HOMESTEAD,1952236
95931,576350,-93.85,40.72,IOWA,DECATUR CITY,1950067
95905,576188,-94.78,40.62,IOWA,BEDFORD ARPT,1950833
95905,576191,-94.7,40.68,IOWA,BEDFORD,1950833
95925,576321,-92.92,41.48,IOWA,PELLA,1950219
1185670,5440444,-95.9,41.56667,IOWA,MISSOURI VLY,1951555
1185671,5440445,-95.88333,41.7,IOWA,MAGNOLIA,1951546
1185672,5440446,-95.78333,41.98333,IOWA,SOLDIER,1951572
1185673,5440447,-95.93333,41.48333,IOWA,CRESCENT,1951555
98692,593257,-92.2,41.34,IOWA,SIGOURNEY,1952591
98692,593258,-91.55,41.4,IOWA,HASKINS,1952201
95905,576190,-94.65,40.7,IOWA,CONWAY,1950833
98692,593259,-90.62,41.5,IOWA,CREDIT ISLAND,1952802
95907,576226,-94.75,40.76,IOWA,GRAVITY,1950848
95905,588670,-94.3415,40.9567,IOWA,ZION,1950801
95905,576202,-92.74,40.78,IOWA,UDELL,1952593
95905,576200,-93.73,41.31,IOWA,ST MARYS,1950229
95905,576198,-93.73,41.31,IOWA,ST MARYS,1950229
95905,576193,-93.93,40.58,IOWA,LAMONI,1950065
95905,576192,-94.36,40.99,IOWA,CRESTON ARPT,1950801
98692,599901,-92.2,41.3372,IOWA,SIGOURNEY,1952591
1185410,5441405,-93.58333,41.63333,IOWA,DES MOINES,1950313
95933,576355,-93.92,42.74,IOWA,GOLDFIELD,1950542
95933,576357,-93.64,43.26,IOWA,FOREST CITY,1950436
1214609,5517711,-92.41667,40.6,IOWA,CLUTIER,1952537
1214609,5517710,-92.41667,40.75,IOWA,CLUTIER,1952537
1214609,5517709,-92.33333,40.81667,IOWA,EVANSDALE,1952537
1214609,5517708,-92.16667,40.96667,IOWA,EVANSDALE,1952533
1214609,5517707,-92.33333,42.06667,IOWA,EVANSDALE,1952217
1214609,5517706,-92.4,42.08333,IOWA,TAMA,1952217
1214609,5517705,-92.08333,42.46667,IOWA,EVANSDALE,1950648
1214609,5517704,-92.18333,42.46667,IOWA,WATERLOO,1950648
1214609,5517703,-92.08333,42.46667,IOWA,WATERLOO,1950648
1214609,5517702,-92.61667,41.96667,IOWA,WATERLOO,1952339
1214609,5516094,-92.35,42.5,IOWA,BLOOMFIELD,1950701
1214609,5516093,-92.35,42.5,IOWA,BLOOMFIELD,1950701
1214609,5516092,-92.35,42.5,IOWA,BLOOMFIELD,1950701
1214608,5517684,-93.45,40.91667,IOWA,GRIMES,1950068
1214608,5517683,-93.71667,41.58333,IOWA,HUXLEY,1950265
1214610,5516096,-93.96667,42.91667,IOWA,CORWITH,1950430
1214610,5516100,-93.25,43.45,IOWA,MASON CITY,1950459
1214610,5516102,-93.78333,43.43333,IOWA,LEDYARD,1950478
1214611,5516105,-92.9,41.28333,IOWA,HARVEY,1950256
95985,588616,-94.51299999999999,41.766999999999996,IOWA,YALE,1950115
95985,588612,-94.57,41.754,IOWA,YALE,1950115
95985,588611,-94.493,41.81399999999999,IOWA,YALE,1950029
95985,588609,-94.419,41.82,IOWA,BAGLEY,1950026
95985,588468,-94.0674,41.839,IOWA,BOUTON,1950220
95985,588467,-93.7611,41.4847,IOWA,CUMMING,1950061
95985,588443,-94.5,41.68,IOWA,GUTHRIE CENTER,1950115
95985,576681,-93.73,41.18,IOWA,NEW VIRGINIA,1950210
95985,576703,-93.88,41.52,IOWA,BOONEVILLE,1950038
95985,576683,-93.81,41.29,IOWA,ST CHARLES,1950240
95985,576682,-92.95,42.05,IOWA,MARSHALLTOWN,1950158
1214613,5516114,-91.53333,43.36667,IOWA,HANOVER,1952172
1214613,5516112,-91.7,43.36667,IOWA,DECORAH,1952101
1214613,5516111,-91.71667,43.36667,IOWA,DECORAH,1952101
1214611,5516108,-92.8,41.33333,IOWA,LEIGHTON,1950143
1214611,5516107,-92.83333,41.28333,IOWA,LEIGHTON,1950143
95985,576693,-94.35,41.84,IOWA,HERNDON,1950026
95985,576676,-93.7912,41.3349,IOWA,BEVINGTON,1950240
95985,576675,-94.01,41.55,IOWA,DE SOTO,1950003
95985,576674,-93.95100000000001,41.3444,IOWA,PATTERSON,1950273
95985,576634,-94.3,41.79,IOWA,JAMAICA,1950277
95975,576584,-95.22,42.24,IOWA,HERRING,1951458
95975,576583,-95.29,42.2,IOWA,KIRON,1951448
95971,580234,-92.8428,41.0234,IOWA,ALBIA,1952531
95971,580234,-92.8112,41.0169,IOWA,ALBIA,1952531
95971,580233,-92.9603,41.058,IOWA,HITEMAN,1952531
95971,580233,-93.0991,41.145,IOWA,WELLER,1950049
95985,576639,-94.5,41.73,IOWA,FANSLERS,1950115
95971,580231,-93.1146,41.1609,IOWA,WILLIAMSON,1950049
95971,580230,-93.1146,41.1609,IOWA,COLUMBIA,1950049
95971,580230,-93.1169,41.1657,IOWA,COLUMBIA,1950057
1122062,5265500,-95.55,42.28333,IOWA,IDA GROVE,1951006
1122062,5265501,-95.6,42.25,IOWA,BATTLE CREEK,1951019
1122063,5265502,-95.71667,42.25,IOWA,DANBURY,1951019
1122065,5265504,-96.18333,43.05,IOWA,SIOUX CENTER,1951250
1122082,5265581,-94.98333000000001,43.26667,IOWA,TERRIL,1951364
95971,580231,-93.0991,41.145,IOWA,WILLIAMSON,1950049
95933,576356,-93.91,43.26,IOWA,BUFFALO CENTER ARPT,1950484
1094856,5143244,-92.03333,43.08333,IOWA,WAUCOMA,1952171
95985,576642,-94.5,41.73,IOWA,FANSLERS,1950115
1214608,5517681,-93.61667,41.6,IOWA,ST MARYS,1950314
1214608,5516905,-94.46667,41.36667,IOWA,INDIANOLA,1950849
95985,576672,-94.01,41.35,IOWA,WINTERSET ARPT,1950273
95985,576671,-94.64,41.5,IOWA,ADAIR,1950002
95985,576670,-94.02,41.34,IOWA,WINTERSET,1950273
95985,576669,-94.12,41.52,IOWA,DE SOTO,1950072
95985,576668,-94.03,41.57,IOWA,DE SOTO,1950003
95985,576641,-94.5,41.68,IOWA,GUTHRIE CENTER,1950115
1094854,5143240,-91.8,42.83333,IOWA,FAYETTE,1952142
95985,576666,-94.12,41.51,IOWA,DE SOTO,1950072
95985,576659,-94.93,41.5,IOWA,LORAH,1950022
95985,576657,-94.2,41.59,IOWA,REDFIELD,1950233
95985,576654,-94.32,41.49,IOWA,HOWE,1950250
95985,576652,-94.36,41.59,IOWA,DALE,1950250
95985,576646,-94.55,41.67,IOWA,PANORA,1950115
95985,576645,-94.5,41.68,IOWA,GUTHRIE CENTER,1950115
1094856,5143243,-92.21667,42.96667,IOWA,FREDRICKSBURG,1950630
51546,307339,-91.16,41.99,IOWA,OLIN,1952320
1185410,5441404,-93.85,41.96667,IOWA,PLEASANT HILL,1950156
1185410,5441402,-93.61667,41.6,IOWA,DES MOINES,1950314
1173002,5405475,-93.78333,41.63333,IOWA,CLIVE,1950323
1173002,5405476,-93.71667,41.63333,IOWA,URBANDALE,1950322
1179820,5421737,-96.06667,41.83333,IOWA,LITTLE SIOUX,1951545
9410,53076,-92.8175,41.5112,IOWA,SULLY MUNI ARPT,1950251
9410,53075,-92.8713,41.4711,IOWA,PEORIA,1950219
9410,53075,-92.8272,41.5087,IOWA,PEORIA,1950251
9410,53074,-92.8665,41.4676,IOWA,PELLA,1950219
9410,53074,-92.8723,41.4632,IOWA,PELLA,1950219
9410,52941,-93.27,41.36,IOWA,PLEASANTVILLE,1950225
9410,52940,-95.15,42.36,IOWA,LAKE VIEW,1951458
1179818,5421735,-95.86667,41.93333,IOWA,MOORHEAD,1951558
1212595,5511566,-92.31667,42.01667,IOWA,CLUTIER,1952225
1100623,5155941,-92.76666999999999,43.45,IOWA,STACYVILLE,1950476
1173002,5405477,-95.03333,42.31667,IOWA,LAKE VIEW,1951450
1173002,5405478,-93.15,41.7,IOWA,NEWTON,1950208
9410,53076,-92.757,41.5729,IOWA,LYNNVILLE,1950153
110217,659098,-92.95,43.06,IOWA,ROCKFORD,1950468
110217,659100,-92.7308,42.9155,IOWA,POWERSVILLE,1950636
110217,659100,-92.7105,42.9341,IOWA,POWERSVILLE,1950636
1212593,5511559,-93.66667,41.55,IOWA,DES MOINES ARPT,1950321
1212594,5511560,-94.98333000000001,41.38333,IOWA,ATLANTIC,1950022
1212594,5511561,-93.68333,41.48333,IOWA,NORWALK,1950211
1212594,5511562,-93.2,41.31667,IOWA,KNOXVILLE,1950138
1212594,5511563,-93.13333,41.31667,IOWA,KNOXVILLE,1950138
1212594,5511564,-94.66667,40.63333,IOWA,BEDFORD,1950833
1212594,5511565,-94.48333000000001,40.65,IOWA,BLOCKTON,1950836
1173002,5405479,-93.73333000000001,40.73333,IOWA,LEON,1950144
9410,53085,-94.8377,42.443999999999996,IOWA,JOLLEY,1950561
9410,53084,-94.885,42.4567,IOWA,LYTTON,1950561
9410,53084,-94.87,42.4661,IOWA,LYTTON,1950561
9410,53081,-92.5818,41.7421,IOWA,MALCOLM,1950157
9410,53081,-92.5181,41.79600000000001,IOWA,BROOKLYN,1952211
9410,53077,-92.6002,41.7,IOWA,MALCOLM,1950157
9410,53077,-92.7572,41.58,IOWA,SEARSBORO,1950153
1173002,5405464,-94.88333,42.25,IOWA,AUBURN,1951433
9410,53085,-94.7984,42.48,IOWA,JOLLEY,1950551
96446,580043,-92.9047,43.2719,IOWA,MEROA,1950461
110189,658473,-91.1,42.81,IOWA,GUTTENBERG ARPT,1952052
1179704,5422494,-91.75,41.61667,IOWA,COSGROVE,1952322
1173225,5405581,-91.3,42.01667,IOWA,MARTELLE,1952305
1173225,5405581,-91.31667,42.01667,IOWA,MARTELLE,1952305
1173225,5405582,-91.25,41.73333,IOWA,CEDAR VLY,1952358
1173225,5405583,-90.55,41.71667,IOWA,PARKVIEW,1952756
1173227,5405585,-91.16667,41.56667,IOWA,VINTON,1952720
1173227,5405643,-91.05,41.45,IOWA,SHELLSBURG,1952761
1173227,5405644,-91.01666999999999,41.58333,IOWA,CEDAR RAPIDS,1952778
1173227,5405645,-91.05,41.41667,IOWA,CEDAR RAPIDS,1952761
1173227,5405646,-90.98333000000001,41.5,IOWA,IOWA CITY,1952761
1173227,5405649,-90.73333000000001,41.45,IOWA,WILTON,
1173227,5405653,-91.55,41.66667,IOWA,BUFFALO,1952246
1173227,5405655,-91.7,41.85,IOWA,BLUE GRASS,1952338
1173227,5405657,-91.5,41.8,IOWA,IOWA CITY,1952333
1173227,5405658,-91.31667,41.78333,IOWA,IOWA CITY,1952333
1173227,5405659,-91.86667,42.1,IOWA,ELDRIDGE,1952332
1173225,5405580,-91.36667,42.0,IOWA,MARTELLE,1952305
1173225,5405579,-91.36667,42.03333,IOWA,MARTELLE,1952336
1173225,5405578,-90.28333,41.6,IOWA,LE CLAIRE,
1179682,5422282,-95.73333000000001,40.66667,IOWA,HAMBURG,1951640
1179700,5422489,-91.25,42.35,IOWA,HOPKINTON,1952237
1179700,5422489,-91.21667,42.38333,IOWA,HOPKINTON,1952237
1179699,5422488,-91.5,42.08333,IOWA,WHITTIER,1952336
1179699,5422488,-91.48333000000001,42.1,IOWA,WHITTIER,1952336
1179698,5422487,-91.61667,42.06667,IOWA,MARION,1952302
1179689,5422289,-95.4,41.31667,IOWA,OAKLAND,1951560
1179688,5422288,-95.2,40.66667,IOWA,COIN,1951636
110189,658472,-91.19,42.82,IOWA,OSTERDOCK,1952052
1179688,5422288,-95.03333,40.65,IOWA,COIN,1951632
1179686,5422286,-95.28333,40.66667,IOWA,COIN,1951636
1179686,5422286,-95.25,40.66667,IOWA,COIN,1951636
1179685,5422285,-95.55,40.66667,IOWA,RIVERTON,1951650
1179685,5422285,-95.6,40.65,IOWA,RIVERTON,1951650
1179684,5422284,-95.6,41.03333,IOWA,MALVERN,1951551
1179684,5422284,-95.63333,41.0,IOWA,MALVERN,1951551
1179683,5422283,-95.71667,40.65,IOWA,SIDNEY,1951640
1179687,5422287,-95.43333,41.26667,IOWA,CARSON,1951560
96446,580043,-92.9408,43.2575,IOWA,MEROA,1950461
96449,580048,-95.6,42.32,IOWA,BATTLE CREEK,1951006
96449,580050,-95.43,42.33,IOWA,IDA GROVE MUNI ARPT,1951445
1172999,5405315,-94.46667,40.81667,IOWA,CLEARFIELD,1950840
1172999,5405316,-94.41667,40.8,IOWA,DIAGONAL,1950840
51222,304542,-94.98,41.96,IOWA,HALBUR,1951455
51222,304542,-94.934,41.9614,IOWA,WILLEY,1951401
1172999,5405317,-94.0,42.26667,IOWA,DAYTON,1950530
1172999,5405318,-93.88333,42.46667,IOWA,WEBSTER CITY,1950595
1172999,5405319,-94.08333,42.36667,IOWA,LEHIGH,1950557
51222,304554,-94.92,41.71,IOWA,AUDUBON ARPT,1950025
51222,304555,-94.33,41.51,IOWA,STUART,1950250
1172999,5405365,-94.1,42.31667,IOWA,BURNSIDE,1950557
51222,304556,-94.23,41.5,IOWA,EARLHAM,1950070
51222,304557,-94.36,41.06,IOWA,CRESTON,1950801
1172999,5405366,-93.86667,42.5,IOWA,WEBSTER CITY,1950595
110284,658839,-93.27,42.52,IOWA,IOWA FALLS,1950126
110284,658837,-95.09,42.54,IOWA,NEMAHA,1950567
1172999,5405314,-93.96667,42.36667,IOWA,LEHIGH,1950557
1212593,5511554,-92.61667,41.96667,IOWA,TAMA,1952339
1212593,5511553,-92.88333,41.9,IOWA,FERGUSON,1950106
1212592,5511551,-92.36667,40.71667,IOWA,BLOOMFIELD,1952537
1172999,5405312,-94.11667,42.43333,IOWA,OTHO,1950501
1172999,5405313,-94.01666999999999,42.5,IOWA,DUNCOMBE,1950532
1125672,5275225,-91.83333,42.28333,IOWA,WALKER,1952352
1172999,5405314,-94.08333,42.33333,IOWA,LEHIGH,1950557
10865,60420,-95.6586,42.4468,IOWA,HOLSTEIN,1951018
10865,60421,-95.6224,42.4579,IOWA,HOLSTEIN,1951025
10865,60422,-95.55,42.48,IOWA,HOLSTEIN,1951025
51222,304559,-92.92,40.63,IOWA,CINCINNATI,1952549
10865,60423,-95.4807,42.4289,IOWA,HOLSTEIN,1951025
1212591,5511545,-94.31667,41.51667,IOWA,MENLO,1950250
39134,227354,-93.63,42.02,IOWA,AMES,1950010
1212591,5511546,-94.31667,41.51667,IOWA,MENLO,1950250
1212591,5511547,-94.25,41.5,IOWA,EARLHAM,1950070
1212591,5511548,-93.66667,41.13333,IOWA,OSCEOLA,1950213
1212591,5511549,-93.23333000000001,41.55,IOWA,PRAIRIE CITY,1950228
39134,227363,-93.57,41.36,IOWA,INDIANOLA,1950125
10865,60424,-95.6578,42.6096,IOWA,QUIMBY,1951061
51222,304560,-94.35,41.07,IOWA,CRESTON,1950801
51222,304561,-93.31,41.02,IOWA,CHARITON,1950049
51222,304562,-93.6,40.97,IOWA,WOODBURN,1950275
1100617,5155599,-91.36667,43.48333,IOWA,NEW ALBIN,1952160
1172999,5405372,-93.93333,42.26667,IOWA,STRATFORD,1950249
1172999,5405373,-93.96667,42.26667,IOWA,STRATFORD,1950249
1172999,5405374,-93.93333,42.26667,IOWA,STRATFORD,1950249
1172999,5405375,-93.95,42.16667,IOWA,PILOT MOUND,1950036
1100617,5155600,-92.01666999999999,43.45,IOWA,KENDALLVILLE,1952136
1172999,5405378,-93.88333,42.11667,IOWA,BOONE,1950036
51244,352105,-95.9101,41.8191,IOWA,PISGAH,1951564
1172999,5405379,-93.63333,42.18333,IOWA,STORY CITY,1950248
1172999,5405382,-93.35,42.01667,IOWA,COLO,1950056
1173001,5405458,-93.86667,41.21667,IOWA,TRURO,1950222
1173001,5405459,-93.73333000000001,41.18333,IOWA,NEW VIRGINIA,1950210
1100617,5155602,-92.0,43.3,IOWA,RIDGEWAY,1952165
1100617,5155604,-91.8,43.3,IOWA,DECORAH,1952101
1100617,5155609,-91.8,42.96667,IOWA,WEST UNION,1952175
1100617,5155612,-91.8,42.83333,IOWA,FAYETTE,1952142
1172999,5405381,-93.45,42.06667,IOWA,NEVADA,1950201
1173227,5405660,-91.13333,41.76667,IOWA,SWISHER,1952772
51244,352105,-95.8408,41.8124,IOWA,PISGAH,1951579
1212593,5511558,-93.05,42.55,IOWA,ACKLEY,1950601
51222,304563,-94.71,41.22,IOWA,DEWEY,1950837
51222,304564,-93.46,40.93,IOWA,DERBY,1950068
51222,304565,-92.87,40.73,IOWA,CENTERVILLE,1952544
51222,304566,-92.86,40.74,IOWA,CENTERVILLE,1952544
51222,304567,-92.87,40.73,IOWA,CENTERVILLE,1952544
51222,304568,-92.74,40.78,IOWA,UDELL,1952593
51222,321947,-93.78,41.03,IOWA,OSCEOLA,1950213
51244,305642,-95.74,41.05,IOWA,GLENWOOD,1951534
9437,53072,-96.08,42.15,IOWA,WHITING,1951026
1172999,5405367,-93.81667,42.46667,IOWA,WEBSTER CITY,1950595
1172999,5405368,-93.81667,42.46667,IOWA,WEBSTER CITY,1950595
1172999,5405369,-93.93333,42.26667,IOWA,STRATFORD,1950249
1172999,5405370,-93.96667,42.26667,IOWA,STRATFORD,1950249
1172999,5405371,-93.93333,42.26667,IOWA,STRATFORD,1950249
1212593,5511556,-92.38333,42.56667,IOWA,WATERLOO,1950703
1212593,5511557,-92.35,42.5,IOWA,WATERLOO,1950701
1183086,5433721,-92.41667,40.63333,IOWA,BLOOMFIELD,1952537
1173227,5405661,-91.71667,42.1,IOWA,SHUEYVILLE,1952341
1173227,5405662,-91.7,42.05,IOWA,SOLON,1952233
1173227,5405663,-91.66667,42.06667,IOWA,CEDAR BLUFF,1952328
1179417,5420219,-93.28333,41.88333,IOWA,COLLINS,1950055
1179417,5420219,-93.26666999999999,41.93333,IOWA,COLLINS,1950055
17085,98770,-90.47,41.96,IOWA,CHARLOTTE,1952731
1179417,5420136,-93.75,41.43333,IOWA,NORWALK,1950211
17085,98769,-90.7,42.5,IOWA,CENTER GROVE,1952001
17085,98767,-92.15,41.96,IOWA,KEYSTONE,1952257
1179417,5420135,-93.86667,42.5,IOWA,WEBSTER CITY,1950595
1179417,5420134,-94.41667,42.01667,IOWA,JEFFERSON,1950129
1179417,5420133,-94.38333,41.9,IOWA,JEFFERSON,1950129
1179417,5420133,-94.33333,41.98333,IOWA,JEFFERSON,1950129
17074,98773,-91.8646,43.1829,IOWA,CALMAR,1952132
17074,98766,-91.764,43.1455,IOWA,OSSIAN,1952161
17074,98765,-91.2758,43.4602,IOWA,LANSING,
1122052,5265286,-96.31667,42.31667,IOWA,(SUX)SIOUX CITY ARPT,1951052
1122052,5265485,-96.4,42.4,IOWA,SALIX,1951111
1179417,5420220,-93.53333,41.16667,IOWA,LUCAS,1950151
1179417,5420220,-93.53333,41.08333,IOWA,LUCAS,1950151
17085,98779,-90.67,42.5,IOWA,DUBUQUE,1952001
1173242,5405939,-91.81667,42.65,IOWA,STANLEY,1950671
1179420,5420243,-94.55,42.28333,IOWA,LOHRVILLE,1951453
1179420,5420241,-94.7,42.86667,IOWA,HAVELOCK,1950546
1179419,5420240,-94.63333,41.1,IOWA,PRESCOTT,1950859
1179419,5420239,-94.73333000000001,40.91667,IOWA,CORNING,1950841
1179419,5420238,-94.65,40.8,IOWA,CONWAY,1950862
1179418,5420229,-95.5,42.0,IOWA,DOW CITY,1951528
1179418,5420228,-95.33333,42.16667,IOWA,KIRON,1951448
1122053,5265486,-96.06667,42.98333,IOWA,ALTON,1951041
1179418,5420227,-95.31667,42.1,IOWA,DELOIT,1951441
109731,656453,-93.65,41.6,IOWA,DES MOINES,1950311
1179418,5420225,-95.58333,42.06667,IOWA,CHARTER OAK,1951439
1179417,5420224,-93.16667,42.01667,IOWA,STATE CENTER,1950247
1179417,5420224,-93.2,41.98333,IOWA,STATE CENTER,1950247
1179417,5420223,-93.38333,41.78333,IOWA,ELKHART,1950161
1179417,5420222,-93.2,41.98333,IOWA,STATE CENTER,1950247
1179417,5420222,-93.21667,42.03333,IOWA,STATE CENTER,1950247
1179418,5420226,-95.43333,42.21667,IOWA,SCHLESWIG,1951445
1122055,5265488,-95.71667,42.7,IOWA,QUIMBY,1951014
1122056,5265489,-95.98333000000001,42.81667,IOWA,REMSEN,1951050
1122056,5265490,-95.98333000000001,42.83333,IOWA,REMSEN,1951050
50100,294450,-93.95,41.04,IOWA,MURRAY,1950174
50100,294449,-93.95,41.04,IOWA,MURRAY,1950174
50100,294448,-94.2,41.24,IOWA,MACKSBURG,1950155
50100,294447,-94.19,41.23,IOWA,MACKSBURG,1950155
1173261,5404889,-95.0,40.73333,IOWA,CLARINDA,1951632
1209207,5502730,-92.78333,43.23333,IOWA,ORCHARD,1950460
1209207,5502731,-92.86667,42.96667,IOWA,MARBLE ROCK,1950653
50100,294451,-92.55,41.6,IOWA,MONTEZUMA,1950171
1209207,5502732,-92.45,43.25,IOWA,ELMA,1950628
1209207,5502734,-92.58333,43.28333,IOWA,NEW HAVEN,1950628
1209207,5502735,-92.6,43.36667,IOWA,RICEVILLE,1950466
1209207,5502736,-91.25,43.31667,IOWA,VILLAGE CREEK,1952151
1209207,5502737,-92.91667,43.45,IOWA,TOETERVILLE,1950472
1190491,5451993,-91.05,41.43333,IOWA,MUSCATINE,1952761
1190486,5451890,-90.88333,42.46667,IOWA,PEOSTA,1952045
1190486,5451890,-90.88333,42.43333,IOWA,PEOSTA,1952068
1209207,5502733,-92.45,43.25,IOWA,ELMA,1950628
109754,656577,-96.44,43.43,IOWA,LARCHWOOD,1951241
50100,294453,-92.64,40.96,IOWA,BLAKESBURG,1952536
50100,294455,-93.95,41.04,IOWA,MURRAY,1950174
1122056,5265491,-95.98333000000001,42.81667,IOWA,REMSEN,1951050
1122057,5265492,-96.0,42.8,IOWA,REMSEN,1951050
1122057,5265493,-95.98333000000001,42.81667,IOWA,REMSEN,1951050
1122058,5265494,-95.55,42.75,IOWA,CHEROKEE,1951012
1122059,5265495,-95.88333,42.55,IOWA,PIERSON,1951048
1122059,5265496,-95.8,42.48333,IOWA,CORRECTIONVILLE,1951016
1209201,5502654,-92.98333000000001,43.48333,IOWA,MONA,1950472
50100,294454,-94.22,40.95,IOWA,ARISPE,1950830
1122059,5265497,-95.78333,42.48333,IOWA,CORRECTIONVILLE,1951016
1122061,5265499,-95.71667,42.3,IOWA,DANBURY,1951019
1209204,5502664,-92.83333,43.01667,IOWA,ROSEVILLE,1950468
1209204,5502665,-92.91667,43.15,IOWA,RUDD,1950471
1209204,5502666,-92.96667,43.05,IOWA,ROCKFORD,1950468
1209204,5502667,-92.85,43.13333,IOWA,FLOYD,1950471
50100,294815,-92.21,41.1,IOWA,FARSON,1952533
50100,294460,-93.4,41.57,IOWA,DES MOINES EKMAN ARP,1950237
1122060,5265498,-95.68333,42.58333,IOWA,HOLSTEIN,1951061
1185410,5441403,-93.61667,41.6,IOWA,DES MOINES,1950314
109754,656578,-96.03,43.06,IOWA,ORANGE CITY,1951041
1179420,5420244,-94.4,42.25,IOWA,FARNHAMVILLE,1950538
1142462,5313453,-95.93333,43.01667,IOWA,GRANVILLE,1951003
1142463,5313521,-95.83333,43.08333,IOWA,PRIMGHAR,1951238
1142464,5313522,-96.18333,43.08333,IOWA,SIOUX CENTER,1951250
1173233,5405845,-91.51666999999999,41.91667,IOWA,MT VERNON,1952227
1142484,5312725,-96.28333,42.31667,IOWA,SALIX,1951052
1173233,5405846,-91.61667,41.85,IOWA,SHUEYVILLE,1952333
1173233,5405848,-90.76666999999999,42.06667,IOWA,MAQUOKETA,1952060
1173233,5405849,-91.26666999999999,41.85,IOWA,MECHANICSVILLE,1952306
1173233,5405852,-91.01666999999999,41.45,IOWA,MUSCATINE,1952761
1173233,5405855,-90.75,41.65,IOWA,MAYSVILLE,1952773
1173234,5405857,-91.7,41.3,IOWA,WASHINGTON,1952353
1173234,5405858,-91.93333,41.46667,IOWA,WELLMAN,1952356
16886,98336,-95.34,41.77,IOWA,DEFIANCE,1951527
1142485,5312726,-96.38333,42.5,IOWA,SIOUX CITY,1951101
1142485,5312727,-96.38333,42.5,IOWA,SIOUX CITY,1951101
1142461,5313452,-96.43333,43.31667,IOWA,INWOOD,1951240
1173233,5405842,-91.71667,41.88333,IOWA,(CID)CEDAR RAPIDS AR,1952404
1142447,5313435,-95.1,43.18333,IOWA,SPENCER,1951301
1142444,5313432,-95.03333,43.4,IOWA,SUPERIOR,1951360
1173227,5405664,-91.6,42.05,IOWA,SHELLSBURG,1952302
1173227,5405665,-91.31667,42.1,IOWA,TIPTON,1952205
1173227,5405665,-91.28333,42.11667,IOWA,TIPTON,1952205
1173227,5405666,-91.45,42.06667,IOWA,TODDVILLE,1952336
1173227,5405735,-92.03333,42.16667,IOWA,HIAWATHA,1952349
1173227,5405736,-91.86667,42.1,IOWA,ROBINS,1952332
1173227,5405737,-91.65,42.0,IOWA,MARION,1952402
1142485,5312728,-96.38333,42.5,IOWA,SIOUX CITY,1951101
1173227,5405738,-91.65,41.96667,IOWA,SPRINGVILLE,1952404
1173229,5405749,-91.35,42.58333,IOWA,GREELEY,1952050
1173229,5405750,-91.2,42.63333,IOWA,COLESBURG,1952035
1173233,5405834,-91.18333,42.61667,IOWA,COLESBURG,1952035
1173233,5405836,-91.78333,41.91667,IOWA,FAIRFAX,1952228
1173233,5405837,-91.65,42.0,IOWA,CEDAR RAPIDS,1952402
1173233,5405840,-91.8,41.91667,IOWA,FAIRFAX,1952228
1142438,5312710,-96.45,43.36667,IOWA,LARCHWOOD,1951240
1173227,5405739,-91.55,41.66667,IOWA,ANAMOSA,1952246
1142486,5317322,-96.2,42.41667,IOWA,BRONSON,1951007
1142487,5317323,-95.86667,42.4,IOWA,ANTHON,1951004
1142487,5317324,-95.86667,42.4,IOWA,ANTHON,1951004
1209195,5502576,-90.36667,41.6,IOWA,LE CLAIRE,1952753
1209195,5502576,-90.33333,41.6,IOWA,LE CLAIRE,
1142498,5317341,-95.15,43.15,IOWA,SPENCER,1951301
1142498,5317342,-95.15,43.15,IOWA,SPENCER,1951301
1142506,5317511,-96.5,42.91667,IOWA,CHATSWORTH,1951023
1142508,5317515,-96.5,42.91667,IOWA,CHATSWORTH,1951023
1142510,5317518,-96.33333,42.9,IOWA,CRAIG,1951027
1173234,5405927,-91.2,41.2,IOWA,WAPELLO,1952653
1142512,5317522,-96.05,42.81667,IOWA,OYENS,1951031
1142515,5317525,-96.16667,42.78333,IOWA,LE MARS,1951031
1142516,5317526,-95.15,43.15,IOWA,SPENCER,1951301
109763,656632,-95.54,42.49,IOWA,HOLSTEIN,1951025
109763,656631,-95.55,42.49,IOWA,HOLSTEIN,1951025
39358,228691,-92.9,43.13,IOWA,FOLKERTS FLD ARPT,1950471
1209197,5502578,-91.55,41.66667,IOWA,IOWA CITY,1952246
1179420,5420245,-94.3,42.28333,IOWA,CALLENDER,1950543
1142513,5317523,-95.6,43.01667,IOWA,GAZA,1951245
109754,656580,-95.91,42.81,IOWA,REMSEN,1951050
1173234,5405926,-91.55,41.6,IOWA,HILLS,1952240
1142495,5317337,-95.58333,43.43333,IOWA,OCHEYEDAN,1951354
1142488,5317325,-95.68333,42.38333,IOWA,BATTLE CREEK,1951006
1179648,5422122,-95.71667,41.15,IOWA,MINEOLA,1951534
17095,98836,-90.36,41.6,IOWA,LE CLAIRE,1952753
17095,98835,-90.55,41.75,IOWA,GAMBRILL,1952756
17095,98834,-91.07,41.42,IOWA,MUSCATINE,1952761
17095,98833,-91.07,41.42,IOWA,MUSCATINE,1952761
17095,98832,-91.07,41.43,IOWA,MUSCATINE,1952761
1142496,5317338,-95.28333,43.46667,IOWA,LAKE PARK,1951347
17095,98831,-91.14,41.41,IOWA,MUSCATINE MUNI ARPT,1952761
1209193,5502574,-91.05,41.38333,IOWA,MUSCATINE,
1142490,5317329,-96.36667,43.45,IOWA,LESTER,1951241
1142491,5317330,-95.63333,42.98333,IOWA,PAULLINA,1951046
1142493,5317333,-95.5,42.96667,IOWA,SUTHERLAND,1951058
1142494,5317335,-95.38333,42.91667,IOWA,PETERSON,1951047
1173234,5405925,-91.83333,41.46667,IOWA,WELLMAN,1952356
1142494,5317335,-95.28333,43.06667,IOWA,PETERSON,1951357
1209193,5502574,-91.11667,41.4,IOWA,MUSCATINE,1952761
16886,98336,-95.3382,41.7725,IOWA,DEFIANCE,1951527
1102941,5156567,-93.26666999999999,43.33333,IOWA,MANLY,1950448
16886,98335,-95.37700000000001,41.8652,IOWA,DEFIANCE,1951527
16092,96930,-92.88799999999999,41.857,IOWA,NEWBURG,1950106
16092,96930,-93.025,41.736999999999995,IOWA,NEWTON,1950208
16092,96927,-93.11,41.67,IOWA,METZ,1950208
16092,96927,-93.23,41.56,IOWA,PRAIRIE CITY,1950228
94165,566247,-95.31,41.07,IOWA,WALES,1951566
94165,566246,-95.4,41.02,IOWA,EMERSON,1951533
1120186,5260969,-95.4,41.91667,IOWA,CORNING,1951528
1120186,5260969,-95.31667,41.83333,IOWA,CORNING,1951527
1095832,5146570,-91.35,42.58333,IOWA,GREELEY,1952050
16092,96924,-93.33,41.42,IOWA,SWAN,1950225
1120186,5260968,-95.35,42.01667,IOWA,CORNING,1951442
16092,96920,-93.69,41.04,IOWA,OSCEOLA MUNI ARPT,1950213
16092,96920,-93.75,40.94,IOWA,LESLIE,1950213
16092,92961,-93.33,41.42,IOWA,SANDYVILLE,1950225
16092,92961,-93.52799999999999,41.22,IOWA,LIBERTY CENTER,1950166
1120186,5260967,-95.38333,41.98333,IOWA,CUMBERLAND,1951442
16092,92957,-92.85600000000001,41.746,IOWA,TURNER,1950135
16092,92957,-93.0,41.57,IOWA,REASNOR,1950232
16092,96924,-93.31,41.42,IOWA,PLEASANTVILLE,1950225
16092,92956,-94.3468,41.1108,IOWA,CRESTON,1950801
1095832,5146569,-91.06667,42.6,IOWA,LUXEMBURG,1952065
94184,575674,-93.898,41.273,IOWA,HANLEY,1950240
45819,265789,-96.04,42.9,IOWA,OYENS,1951050
6815,39262,-90.36,41.6,IOWA,LE CLAIRE,1952753
103415,619142,-95.78,40.68,IOWA,PAYNE,1951648
103415,619143,-95.57,40.69,IOWA,RIVERTON,1951650
94184,575682,-93.9849,41.576,IOWA,ORTONVILLE,1950003
94184,575682,-93.988,41.5721,IOWA,VAN METER,1950003
53434,319816,-95.49,41.88,IOWA,DOW CITY,1951528
53434,319817,-95.06,41.66,IOWA,IMBALLTON,1951543
94184,575674,-93.8964,41.1702,IOWA,TRURO,1950257
103415,619146,-95.37,40.76,IOWA,SHENANDOAH,1951601
53434,319818,-95.0,41.7,IOWA,SHARON,1950025
53434,319819,-95.0,41.7,IOWA,SHARON,1950025
94184,575681,-93.921,41.4259,IOWA,PATTERSON,1950261
94184,575681,-93.8957,41.4158,IOWA,PATTERSON,1950261
94184,575680,-93.9305,41.4134,IOWA,PATTERSON,1950261
94184,575680,-93.9169,41.3937,IOWA,PATTERSON,1950273
94184,575679,-93.98200000000001,41.2513,IOWA,EAST PERU,1950222
94184,575679,-93.9639,41.2718,IOWA,EAST PERU,1950273
103415,619148,-95.29,40.61,IOWA,NORTHBORO,1951647
6815,39261,-90.47,41.5906,IOWA,PANORAMA PARK,1952722
16092,92956,-94.3894,41.0807,IOWA,CRESTON,1950801
1120186,5260966,-95.38333,42.01667,IOWA,ATLANTIC,1951442
94070,566652,-94.5751,42.5337,IOWA,MANSON,1950563
94070,566652,-94.5794,42.5192,IOWA,MANSON,1950563
94070,565905,-94.6361,42.4481,IOWA,ROCKWELL CITY,1950579
94070,565905,-94.7834,42.2097,IOWA,LAKE CITY,1951449
94070,565904,-94.7834,42.2097,IOWA,LANESBORO,1951449
94070,565904,-94.8402,42.1467,IOWA,MT CARMEL,1951401
94070,565754,-94.73,42.27,IOWA,LAKE CITY,1951449
45129,261809,-92.84,40.65,IOWA,EXLINE,1952555
1095835,5146581,-91.78333,42.06667,IOWA,PALO,1952411
1150754,5353423,-90.58333,41.53333,IOWA,DAVENPORT,1952804
54920,330279,-94.68,42.97,IOWA,CURLEW,1950527
54920,330006,-94.67,42.91,IOWA,MALLARD,1950562
1095835,5146676,-91.7,41.3,IOWA,WASHINGTON,1952353
1095835,5146677,-91.65,41.95,IOWA,CEDAR RAPIDS,1952404
1095835,5146678,-91.98333000000001,41.08333,IOWA,FAIRFIELD,1952556
1095835,5146679,-91.7,41.3,IOWA,WASHINGTON,1952353
1150754,5353425,-90.96667,41.98333,IOWA,OXFORD JCT,1952323
1150757,5353432,-90.73333000000001,41.65,IOWA,MAYSVILLE,1952773
1150754,5353424,-90.51666999999999,41.53333,IOWA,BETTENDORF,1952722
16092,92954,-94.8755,41.2874,IOWA,CUMBERLAND,1950843
1095835,5146580,-91.65,41.91667,IOWA,CEDAR RAPIDS,1952404
1095835,5146578,-91.58333,41.86667,IOWA,ELY,1952227
16092,92954,-94.8666,41.3085,IOWA,CUMBERLAND,1950843
16092,92751,-94.06,41.1,IOWA,LORIMOR,1950149
16092,92637,-93.63,42.02,IOWA,AMES,1950010
16092,92635,-93.7,41.86,IOWA,SLATER,1950226
1120186,5260965,-94.73333000000001,40.98333,IOWA,ATLANTIC,1950841
1120186,5260964,-94.91667,41.13333,IOWA,BUCK GROVE,1950843
1120186,5260963,-94.88333,41.26667,IOWA,DENISON,1950843
1120186,5260904,-95.05,41.43333,IOWA,DENISON MUNI ARPT,1950022
1095835,5146579,-91.2,42.63333,IOWA,COLESBURG,1952035
1120186,5260903,-95.06667,41.5,IOWA,DENISON,1950022
45309,262799,-91.19,41.18,IOWA,WAPELLO,1952653
7589,43593,-96.05,42.03,IOWA,ONAWA,1951040
1095832,5146571,-91.21667,42.55,IOWA,PETERSBURG,1952040
1095832,5146572,-91.2,42.63333,IOWA,COLESBURG,1952035
1095832,5146573,-91.45,42.48333,IOWA,MANCHESTER,1952057
1095832,5146574,-90.28333,41.6,IOWA,LE CLAIRE,
1095832,5146575,-91.11667,42.55,IOWA,NEW VIENNA,1952065
1095834,5146577,-91.2,42.63333,IOWA,COLESBURG,1952035
1120182,5260653,-92.76666999999999,42.13333,IOWA,GREEN MTN,1950635
6815,39260,-90.5971,41.56100000000001,IOWA,DAVENPORT,1952806
7757,44621,-96.47,43.0,IOWA,HAWARDEN,1951023
7757,44622,-95.0,42.95,IOWA,WEBB,1951366
16173,93123,-92.55,41.75,IOWA,MALCOLM,1950157
16173,93122,-92.94,41.54,IOWA,GALESBURG,1950232
16173,93121,-93.24,41.59,IOWA,PRAIRIE CITY,1950228
16173,93120,-93.24,41.58,IOWA,PRAIRIE CITY,1950228
16173,93119,-95.09,42.52,IOWA,NEMAHA,1950567
16173,93118,-94.65,40.64,IOWA,BEDFORD ARPT,1950833
1176837,5414787,-94.4,42.23333,IOWA,FARNHAMVILLE,1950538
1176837,5414786,-94.48333000000001,42.21667,IOWA,CHURDAN,1951453
1213912,5518781,-91.55,41.66667,IOWA,IOWA CITY,1952246
1176837,5414785,-94.55,42.18333,IOWA,CHURDAN,1950050
16173,93116,-92.98,41.33,IOWA,DURHAM,1950119
1213911,5518779,-92.08333,42.03333,IOWA,VAN HORNE,1952346
1095682,5145727,-95.26666999999999,41.21667,IOWA,OAKLAND,1951535
1095683,5145728,-95.33333,41.13333,IOWA,WALES,1951541
1095692,5146081,-95.43333,41.13333,IOWA,HENDERSON,1951541
1095787,5146619,-96.45,43.31667,IOWA,INWOOD,1951240
1095787,5146621,-96.18333,43.43333,IOWA,ROCK RAPIDS,1951246
1095788,5146622,-96.43333,43.2,IOWA,ROCK VLY,1951247
16173,93117,-94.75,40.6,IOWA,BEDFORD ARPT,1950833
1095788,5146623,-96.46667,43.2,IOWA,ROCK VLY,1951247
53204,318208,-91.87,43.18,IOWA,CALMAR,1952132
94432,567873,-95.78,40.81,IOWA,MC PAUL,1951654
16223,93353,-92.03,43.43,IOWA,KENDALLVILLE,1952136
1213915,5518840,-91.41667,40.53333,IOWA,MONTROSE,1952639
5856,34259,-92.91,42.04,IOWA,MARSHALLTOWN,1950158
55221,331676,-90.88,41.78,IOWA,BIG ROCK,1952777
55221,331670,-91.67,41.97,IOWA,CEDAR RAPIDS,1952404
55221,331669,-91.67,41.97,IOWA,CEDAR RAPIDS,1952404
55221,331668,-91.67,41.97,IOWA,CEDAR RAPIDS,1952404
55221,331667,-91.7,42.02,IOWA,HIAWATHA,1952402
94432,567873,-95.75,40.88,IOWA,BARTLETT,1951654
55221,331666,-91.68,42.03,IOWA,HIAWATHA,1952402
55221,331664,-90.78,41.74,IOWA,DIXON,1952745
55221,331663,-90.25,41.98,IOWA,ANDOVER,1952701
55221,331662,-91.0,41.74,IOWA,BENNETT,1952721
55221,331661,-91.23,41.77,IOWA,BUCHANAN,1952772
55221,331660,-90.67,42.09,IOWA,HURSTVILLE,1952060
94439,567916,-94.3,42.36,IOWA,CALLENDER,1950523
94439,567915,-94.3,42.36,IOWA,CALLENDER,1950523
16191,93217,-93.08,43.27,IOWA,GRAFTON,1950464
55221,331665,-91.68,42.05,IOWA,HIAWATHA,1952233
1095791,5146947,-95.98333000000001,42.88333,IOWA,REMSEN,1951050
1095801,5145682,-96.2,42.41667,IOWA,BRONSON,1951007
1095802,5145683,-96.1,42.58333,IOWA,KINGSLEY,1951028
16129,92988,-93.27,43.43,IOWA,NORTHWOOD,1950459
16129,92988,-93.3,43.42,IOWA,NORTHWOOD,1950459
16129,92987,-93.66,43.38,IOWA,LELAND,1950453
16129,92987,-93.78,43.35,IOWA,THOMPSON,1950478
16129,92919,-92.51,42.04,IOWA,TOLEDO,1952342
16129,92833,-92.8,42.75,IOWA,ALLISON,1950602
16129,92832,-92.73,42.78,IOWA,CLARKSVILLE,1950602
16129,92831,-92.8,42.75,IOWA,ALLISON,1950602
41498,242146,-96.13,42.79,IOWA,LE MARS,1951031
16129,92830,-94.18,42.51,IOWA,FT DODGE,1950501
16129,92828,-93.66,43.45,IOWA,SCARVILLE,1950473
16129,92827,-93.65,43.45,IOWA,SCARVILLE,1950473
16129,92826,-93.62,43.47,IOWA,SCARVILLE,1950473
16129,92825,-93.68,43.45,IOWA,SCARVILLE,1950473
16129,92824,-93.62,43.47,IOWA,SCARVILLE,1950473
16129,92823,-93.66,43.42,IOWA,SCARVILLE,1950453
16129,92822,-93.7,43.4,IOWA,THOMPSON,1950478
16129,92821,-93.78,43.41,IOWA,THOMPSON,1950478
16129,92829,-95.43,42.16,IOWA,SCHLESWIG,1951461
16129,92989,-93.21,43.42,IOWA,NORTHWOOD,1950459
16129,92989,-93.17,43.43,IOWA,NORTHWOOD MUNI ARPT,1950459
41495,241887,-95.92,42.71,IOWA,O LEARY,1951050
1095804,5145688,-96.36667,42.9,IOWA,CRAIG,1951027
1095814,5145749,-95.86667,43.18333,IOWA,SHELDON,1951201
16129,92995,-92.35,41.14,IOWA,HIGHLAND CENTER,1952501
16129,92995,-92.32,41.16,IOWA,HIGHLAND CENTER,1952563
16129,92992,-92.8395,41.9099,IOWA,PICKERING,1950106
16129,92992,-92.8205,41.9148,IOWA,PICKERING,1950106
16129,92991,-94.75,40.75,IOWA,GRAVITY,1950848
16129,92991,-94.77,40.74,IOWA,GRAVITY,1950848
16129,92990,-93.34,43.24,IOWA,(MCW)MASON CITY MUNI,1950428
16129,92990,-93.32,43.24,IOWA,WINNEBAGO HGTS,1950428
41495,241877,-96.48,42.99,IOWA,HAWARDEN MUNI ARPT,1951023
41495,241878,-95.84,43.18,IOWA,SHELDON,1951201
41495,241880,-95.727,43.2,IOWA,SANBORN,1951248
41495,241880,-95.73299999999999,43.2,IOWA,SANBORN,1951248
41495,241882,-95.48,43.18,IOWA,HARTLEY,1951346
41495,241883,-95.39,43.13,IOWA,MONETA,1951346
41495,241884,-95.38,43.18,IOWA,EVERLY,1951346
41495,241885,-95.44,43.19,IOWA,HARTLEY MUNI ARPT,1951346
41495,241886,-95.15,43.15,IOWA,SPENCER,1951301
1095835,5146680,-91.55,41.3,IOWA,WASHINGTON,1952201
16223,93354,-91.93,43.4,IOWA,BLUFFTON,1952101
1150757,5353433,-90.73333000000001,41.45,IOWA,BUFFALO,
1150757,5353435,-91.38333,40.4,IOWA,KEOKUK,1952632
1150759,5353510,-91.2,41.18333,IOWA,WAPELLO,1952653
16043,92943,-93.9873,41.0994,IOWA,MURRAY,1950174
16043,92943,-94.0144,41.0903,IOWA,MURRAY,1950174
16043,92941,-94.1795,41.0361,IOWA,AFTON,1950830
1150759,5353512,-91.2,41.2,IOWA,WAPELLO,1952653
16043,92941,-94.0144,41.0903,IOWA,LORIMOR,1950174
16043,92940,-94.4682,40.9653,IOWA,KENT,1950851
16043,92940,-94.4485,40.9699,IOWA,KENT,1950801
7453,42812,-93.1,41.33,IOWA,KNOXVILLE,1950138
16043,92938,-94.355,40.9974,IOWA,CRESTON ARPT,1950801
16043,92936,-94.5096,40.9974,IOWA,STRINGTOWN,1950801
16043,92936,-94.6007,40.9536,IOWA,STRINGTOWN,1950841
16043,92935,-94.6462,40.9521,IOWA,MERCER,1950841
16043,92935,-94.8257,40.9747,IOWA,BROOKS,1950841
16043,92934,-94.3379,41.0278,IOWA,CRESTON ARPT,1950801
16043,92934,-94.355,41.027,IOWA,CRESTON ARPT,1950801
16043,92591,-94.73200000000001,41.04,IOWA,QUINCY,1950841
16043,92590,-94.7,40.977,IOWA,CORNING,1950841
16043,92938,-94.2923,41.0275,IOWA,CRESTON ARPT,1950830
16043,92589,-94.632,41.058,IOWA,PRESCOTT,1950859
1150759,5353509,-91.98333000000001,41.0,IOWA,FAIRFIELD,1952556
93963,564923,-94.4,43.33,IOWA,SENECA,1950514
54868,332435,-90.69,42.5,IOWA,CENTER GROVE,1952001
1095835,5146985,-90.78333,41.58333,IOWA,WALCOTT,1952773
16043,96877,-94.91799999999999,40.9367,IOWA,NODAWAY,1950857
54868,332353,-90.66,42.52,IOWA,DUBUQUE,1952001
54868,332352,-90.68,42.48,IOWA,DUBUQUE,1952003
54868,332351,-90.68,42.51,IOWA,DUBUQUE,1952001
16043,96877,-94.8878,40.9614,IOWA,NODAWAY,1950857
54864,331097,-91.53,40.96,IOWA,MT PLEASANT,1952641
1150759,5353508,-92.08333,41.13333,IOWA,PACKWOOD,1952580
93963,565123,-94.91,43.3,IOWA,RALEIGH,1951364
93963,565035,-92.93,42.43,IOWA,WELLSBURG,1950680
93963,564930,-94.54,42.53,IOWA,MANSON,1950563
93963,564928,-94.54,42.53,IOWA,MANSON,1950563
93963,564927,-94.2,42.58,IOWA,(FOD)FT DODGE MUNI A,1950501
93963,564926,-94.23,42.62,IOWA,BADGER,1950524
93963,564925,-93.35,43.45,IOWA,SILVER LAKE,1950459
93963,564924,-94.46,42.96,IOWA,WEST BEND,1950597
103845,624835,-94.68,42.55,IOWA,POMEROY,1950575
93963,565109,-94.54,42.53,IOWA,MANSON,1950563
1150759,5353507,-92.16667,41.0,IOWA,BATAVIA,1952533
16043,92586,-94.78399999999999,40.986000000000004,IOWA,CORNING MUNI ARPT,1950841
16043,92546,-94.86,40.62,IOWA,SIAM,1950833
1095835,5146987,-92.1,41.51667,IOWA,NORTH ENGLISH,1952316
1095835,5146988,-90.76666999999999,41.51667,IOWA,BLUE GRASS,1952726
1095835,5146989,-90.61667,41.66667,IOWA,ELDRIDGE,1952748
1095835,5146990,-90.73333000000001,41.45,IOWA,BUFFALO,
1095835,5146991,-90.58333,41.53333,IOWA,DAVENPORT,1952804
1095835,5146993,-90.58333,41.53333,IOWA,DAVENPORT,1952804
93926,565362,-90.97,41.81,IOWA,LOWDEN,1952255
93926,565361,-91.0,41.76,IOWA,BENNETT,1952721
1095835,5146986,-92.2,41.6,IOWA,MILLERSBURG,1952316
93926,565360,-91.51,41.66,IOWA,IOWA CITY,1952245
93926,565358,-91.39,41.06,IOWA,MT UNION,1952644
93926,565357,-91.62,40.96,IOWA,OAKLAND MILLS,1952641
93926,565356,-91.41,40.93,IOWA,NEW LONDON,1952645
93926,565355,-91.43,40.91,IOWA,NEW LONDON,1952645
93926,565354,-92.0,41.18,IOWA,RICHLAND,1952585
93926,565353,-92.0,41.19,IOWA,RICHLAND,1952585
93926,565352,-91.56,40.97,IOWA,MT PLEASANT,1952641
1150759,5353513,-91.2,41.28333,IOWA,GRANDVIEW,1952754
93926,565359,-91.55,41.15,IOWA,OLDS,1952641
16043,92585,-94.896,40.982,IOWA,DICKIEVILLE,1950857
16043,92523,-94.72,40.92,IOWA,IVEYVILLE,1950841
16043,92525,-94.36,41.06,IOWA,CRESTON,1950801
16043,92545,-93.57,41.36,IOWA,INDIANOLA,1950125
16043,92543,-93.57,41.36,IOWA,INDIANOLA,1950125
16043,92542,-94.77,41.25,IOWA,MASSENA,1950853
