EPISODE_ID,EVENT_ID,LONGITUDE,LATITUDE,STATE,LOCATION,ZIPCODE
39603,230210,-88.4996,36.3,TENNESSEE,PARIS,4738242
1093152,5139013,-85.71667,35.33333,TENNESSEE,SOUTH PORTION,4737313
1132685,5289943,-82.95,36.2,TENNESSEE,MOSHEIM,4737818
1132692,5289950,-81.8,36.48333,TENNESSEE,MOUNTAIN CITY,4737683
1123410,5268391,-84.8,35.23333,TENNESSEE,CLEVELAND,4737312
1123402,5267990,-83.56667,36.21667,TENNESSEE,BUFFALO SPGS,4737861
2814,14519,-84.72,35.86,TENNESSEE,ROCKWOOD,4737854
1123393,5267981,-85.13333,35.35,TENNESSEE,BAKEWELL,4737373
45501,264098,-89.8991,35.332,TENNESSEE,MILLINGTON,4738053
52670,314674,-84.03,36.03,TENNESSEE,POWELL,4737849
1096732,5149760,-86.3,36.21667,TENNESSEE,LEBANON,4737087
39603,230203,-88.3739,36.3,TENNESSEE,PARIS,4738242
1132675,5289933,-84.51666999999999,36.5,TENNESSEE,ONEIDA,4737841
1132678,5289936,-83.56667,35.86667,TENNESSEE,SEVIERVILLE,4737862
1123363,5268514,-83.23333000000001,36.25,TENNESSEE,MORRISTOWN,4737814
1132693,5289951,-83.65,36.58333,TENNESSEE,HARROGATE,4737752
2814,14506,-83.57,36.3777,TENNESSEE,TAZEWELL,4737879
52670,314679,-84.336,35.4531,TENNESSEE,MADISONVILLE,4737354
1132695,5289953,-82.41667,36.0,TENNESSEE,ERWIN,
1123358,5268509,-81.86667,36.4,TENNESSEE,NEVA,4737683
1123350,5268501,-85.25,35.05,TENNESSEE,CHATTANOOGA,4737406
1097362,5150455,-83.33333,36.15,TENNESSEE,WHITE PINE,4737813
1123391,5267979,-85.23333000000001,35.15,TENNESSEE,HIXON,4737343
1093150,5141959,-87.76666999999999,36.43333,TENNESSEE,CARLISLE,4737058
1093152,5139021,-85.53333,36.13333,TENNESSEE,COUNTYWIDE,4738506
1093152,5139016,-87.5,35.53333,TENNESSEE,COUNTYWIDE,4738462
1123415,5268396,-84.61667,35.26667,TENNESSEE,ETOWAH,4737325
1132686,5289944,-83.33333,36.33333,TENNESSEE,TATE SPGS,4737708
1093152,5140464,-86.46667,35.48333,TENNESSEE,SHELBYVILLE,4737160
1093151,5141962,-87.6,35.08333,TENNESSEE,WOODLAWN,4738463
39603,230212,-88.52,36.13,TENNESSEE,MC KENZIE,4738201
39603,230211,-88.52,36.13,TENNESSEE,MC KENZIE,4738201
62500,373999,-84.11,36.1,TENNESSEE,CLINTON,4737716
1093151,5141961,-87.81667,36.6,TENNESSEE,BUMPUS MILLS,4737023
52670,314678,-84.68,35.67,TENNESSEE,TEN MILE,4737880
2814,14507,-84.39,36.33,TENNESSEE,NORMA,4737756
52670,314677,-84.68,35.67,TENNESSEE,TEN MILE,4737880
1132670,5289928,-84.51666999999999,36.5,TENNESSEE,ONEIDA,4737841
1132671,5289929,-83.95,35.96667,TENNESSEE,WEST KNOXVILLE,4737921
1093150,5141960,-86.48333000000001,35.95,TENNESSEE,SMYRNA,4737167
1132674,5289932,-83.95,35.96667,TENNESSEE,WEST KNOXVILLE,4737921
1132687,5289945,-82.18333,36.58333,TENNESSEE,BRISTOL,4737620
1093152,5139308,-86.58333,36.01667,TENNESSEE,LA VERGNE,4737086
1093152,5139306,-85.85,36.18333,TENNESSEE,SMITHVILLE,4738560
63042,379943,-83.63,35.73,TENNESSEE,HATCHERTOWN,4737862
1093152,5139304,-85.9,36.08333,TENNESSEE,TEMPERANCE HALL,4737095
1093152,5139303,-85.95,35.95,TENNESSEE,WATERTOWN,4737095
1093152,5139023,-85.3,36.33333,TENNESSEE,COUNTYWIDE,4738570
1132679,5289937,-83.28333,36.21667,TENNESSEE,MORRISTOWN,4737813
1132690,5289948,-83.21667,36.26667,TENNESSEE,MORRISTOWN,4737860
1093152,5139019,-85.86667,36.43333,TENNESSEE,WILLETTE,4737150
1132691,5289949,-82.95,36.2,TENNESSEE,MOSHEIM,4737818
1097338,5150846,-85.23333000000001,35.15,TENNESSEE,HIXON,4737343
52619,314381,-84.75,35.3,TENNESSEE,CHARLESTON,4737309
52658,314635,-89.67,35.0645,TENNESSEE,COLLIERVILLE,4738017
39603,230245,-88.6824,35.3307,TENNESSEE,MASSEYVILLE,4738334
39603,230306,-89.3717,35.379,TENNESSEE,YUM YUM,4738068
39603,230304,-89.6673,35.2891,TENNESSEE,ARLINGTON MUNI ARPT,4738002
39603,230303,-89.0,35.27,TENNESSEE,BOLIVAR,4738008
39603,230260,-89.955,35.0519,TENNESSEE,OAKVILLE,4738118
39603,230265,-89.931,35.0771,TENNESSEE,OAKVILLE,4738118
39603,230302,-89.0,35.27,TENNESSEE,BOLIVAR,4738008
39603,230266,-89.93700000000001,35.118,TENNESSEE,WHITE STATION,4738111
39603,230297,-89.6759,35.2549,TENNESSEE,ARLINGTON MUNI ARPT,4738002
39603,230298,-89.6752,35.2922,TENNESSEE,ARLINGTON,4738002
39603,230300,-89.8015,35.128,TENNESSEE,CORDOVA,4738120
39603,230301,-89.8011,35.1286,TENNESSEE,CORDOVA,4738120
1132701,5290028,-82.21667,36.2,TENNESSEE,ELIZABETHTON,4737658
1132702,5290029,-82.33333,36.23333,TENNESSEE,MARBLETON,4737692
1216640,5524370,-85.46667,35.75,TENNESSEE,SPENCER,4738585
45501,264098,-89.9,35.35,TENNESSEE,MILLINGTON,4738053
1132704,5290031,-84.95,35.56667,TENNESSEE,EVENSVILLE,4737332
1093151,5141964,-87.45,35.08333,TENNESSEE,LORETTO,4738469
52771,315386,-88.21799999999999,35.5084,TENNESSEE,DECATURVILLE,4738374
52771,315385,-88.83,35.6779,TENNESSEE,JACKSON,4738305
1123096,5267931,-88.66667,35.06667,TENNESSEE,SALTILLO,4738367
1096733,5150032,-86.3,35.35,TENNESSEE,LYNCHBURG,4737388
1132705,5290032,-84.8,35.46667,TENNESSEE,DECATUR,4737322
1096733,5149761,-86.4,35.95,TENNESSEE,WALTERHILL,4737129
1096733,5149317,-86.38333,35.28333,TENNESSEE,LYNCHBURG,4737352
1132706,5290033,-84.6,35.45,TENNESSEE,ATHENS,4737303
1097318,5150826,-81.8,36.48333,TENNESSEE,MOUNTAIN CITY,4737683
62512,374041,-83.7693,35.8254,TENNESSEE,PROSPECT,4737865
39603,230307,-89.2822,35.42,TENNESSEE,DANCYVILLE,4738069
52658,314634,-89.791,35.084,TENNESSEE,FOREST HILL,4738138
52658,314630,-89.9133,35.041,TENNESSEE,CAPLEVILLE,4738118
1123096,5267930,-88.21667,35.38333,TENNESSEE,BATH SPGS,4738370
62512,374041,-83.8022,35.8273,TENNESSEE,PROSPECT,4737804
1132680,5289938,-83.36667,36.33333,TENNESSEE,BEAN STATION,4737708
1132682,5289940,-82.86667,36.5,TENNESSEE,ROGERSVILLE,4737873
1132683,5289941,-83.51666999999999,35.71667,TENNESSEE,GATLINBURG,4737738
1097316,5150824,-82.45,36.43333,TENNESSEE,SPURGEON,4737615
39553,229847,-85.1,35.56,TENNESSEE,MORGAN SPGS,4737321
1097314,5150746,-83.8,36.46667,TENNESSEE,PLEASANT HILL,4737870
1096030,5147725,-85.16667,35.28333,TENNESSEE,SODDY DAISY,4737379
1097313,5150745,-84.71667,35.66667,TENNESSEE,TEN MILE,4737880
1097311,5150743,-83.76666999999999,35.66667,TENNESSEE,TOWNSEND,4737882
1097308,5150740,-82.46667,36.46667,TENNESSEE,COLONIAL HGTS,4737663
1097303,5150427,-83.5,36.28333,TENNESSEE,RUTLEDGE,4737861
1132712,5290039,-83.28333,36.33333,TENNESSEE,BEAN STATION,4737708
1132708,5290035,-84.3,35.26667,TENNESSEE,COKER CREEK,4737385
1096038,5147794,-84.08333,35.96667,TENNESSEE,KNOXVILLE,4737931
1097302,5150426,-83.8,36.46667,TENNESSEE,PLEASANT HILL,4737870
1132698,5289956,-85.26666999999999,35.65,TENNESSEE,PIKEVILLE,4737367
1097301,5150425,-84.51666999999999,36.48333,TENNESSEE,ONEIDA,4737841
39603,230218,-88.42,36.029,TENNESSEE,HUNTINGDON,4738344
39603,230235,-88.13,35.58,TENNESSEE,DECATURVILLE,4738329
1097279,5150330,-85.11667,35.28333,TENNESSEE,SODDY DAISY,4737379
1097277,5150328,-82.33333,36.56667,TENNESSEE,BLOUNTVILLE,4737617
39603,230306,-89.4112,35.388000000000005,TENNESSEE,HEBRON,4738068
45501,264100,-88.32,36.3,TENNESSEE,PARIS,4738242
50308,302018,-89.801,35.2434,TENNESSEE,ELLENDALE,4738135
39689,230707,-88.37,35.7945,TENNESSEE,WILDERSVILLE,4738388
49915,300730,-85.39,35.36,TENNESSEE,DUNLAP,4737327
49915,300730,-85.3253,35.3969,TENNESSEE,MT AIRY,4737327
49915,300731,-84.70100000000001,35.21,TENNESSEE,BENTON STATION,4737310
49915,300731,-84.605,35.268,TENNESSEE,OLD PATTY,4737325
49915,300732,-83.0225,35.8502,TENNESSEE,TOM TOWN,4737727
49915,300732,-83.0029,35.8578,TENNESSEE,LONDON,4737727
49915,300729,-84.4,35.35,TENNESSEE,BROWNHILL,4737329
49915,300733,-85.0964,35.0681,TENNESSEE,SUMMIT,4737363
39624,230313,-84.17,35.88,TENNESSEE,FARRAGUT,4737934
49915,300733,-85.0337,35.0789,TENNESSEE,OOLTEWAH,4737363
39624,230315,-84.17,35.88,TENNESSEE,FARRAGUT,4737934
39624,230358,-85.17,35.02,TENNESSEE,EAST BRAINERD,4737421
49915,296472,-83.42,36.02,TENNESSEE,DANDRIDGE,4737725
49915,296471,-83.93,35.97,TENNESSEE,KNOXVILLE,4737921
39624,230311,-84.17,35.88,TENNESSEE,FARRAGUT,4737934
39633,230344,-88.6863,36.2723,TENNESSEE,DRESDEN,4738225
49915,300729,-84.25,35.44,TENNESSEE,BELLTOWN,4737385
49915,300461,-84.87,35.68,TENNESSEE,SPRING CITY,4737381
49915,296892,-83.93,35.97,TENNESSEE,KNOXVILLE,4737921
49915,296891,-83.28,36.12,TENNESSEE,WHITE PINE,4737890
49915,296789,-84.9875,35.0371,TENNESSEE,COLLEGEDALE ARPK,4737353
49915,296789,-85.0485,34.9868,TENNESSEE,APISON,
49915,296488,-83.28,36.12,TENNESSEE,WHITE PINE,4737890
49915,296481,-83.93,35.97,TENNESSEE,KNOXVILLE,4737921
49915,296473,-84.13,35.75,TENNESSEE,FRIENDSVILLE,4737737
49915,296479,-83.9047,35.9495,TENNESSEE,KNOXVILLE,4737920
49915,300458,-84.70299999999999,35.218,TENNESSEE,BENTON STATION,4737310
49915,300459,-85.31,35.41,TENNESSEE,MT AIRY,4737327
49915,300459,-85.42,35.34,TENNESSEE,DAUS,4737327
49915,300460,-85.1077,35.5535,TENNESSEE,NEW HARMONY,4737321
49915,300460,-85.3253,35.3969,TENNESSEE,HENDON,4737327
49915,300461,-85.1077,35.5535,TENNESSEE,MORGAN SPGS,4737321
49915,300458,-84.663,35.268,TENNESSEE,PATTY,4737309
49915,296894,-84.17,35.88,TENNESSEE,FARRAGUT,4737934
39633,230346,-88.5826,35.9102,TENNESSEE,TERRY,4738348
49915,296461,-84.06,35.8,TENNESSEE,MIDDLE SETTLEMENT,4737777
49915,300932,-83.95,35.93,TENNESSEE,SEQUOYAH HILLS,4737920
49915,300932,-83.97,35.92,TENNESSEE,SEQUOYAH HILLS,4737920
49915,300933,-85.6,34.9845,TENNESSEE,ALATEN,
49915,300933,-85.57,35.005,TENNESSEE,ALATEN,4737380
49915,300934,-84.448,35.455,TENNESSEE,MANILA,4737329
49915,300934,-84.46,35.45,TENNESSEE,MANILA,4737329
49915,300747,-85.021,35.121,TENNESSEE,MC DONALD,4737353
49915,300935,-84.448,35.455,TENNESSEE,GUDGER,4737329
49915,300936,-84.3,35.54,TENNESSEE,FAGIN,4737354
49915,300936,-84.24,35.55,TENNESSEE,VONORE,4737885
49915,295000,-84.88,35.17,TENNESSEE,CLEVELAND,4737311
49915,294995,-84.87,35.18,TENNESSEE,CLEVELAND,4737311
49915,294036,-84.70100000000001,35.21,TENNESSEE,HAUN MILL,4737310
49915,294036,-84.95,35.08,TENNESSEE,CECILTON,4737311
49915,300935,-84.26,35.53,TENNESSEE,HOPEWELL SPGS,4737354
49915,296461,-83.97,35.86,TENNESSEE,SINGLETON,4737777
49915,300747,-84.859,35.196999999999996,TENNESSEE,EAST CLEVELAND,4737312
49915,300746,-85.07,35.04,TENNESSEE,COLLEGEDALE,4737363
49915,296459,-83.9658,35.97,TENNESSEE,KNOXVILLE,4737921
49915,295009,-84.17,35.88,TENNESSEE,FARRAGUT,4737934
49915,295007,-84.27,35.78,TENNESSEE,LENOIR CITY,4737771
49915,295005,-84.0,35.82,TENNESSEE,KNOXVILLE MCGHEE TYS,4737777
49915,300734,-85.2276,35.0667,TENNESSEE,EAST CHATTANOOGA,4737406
49915,300734,-85.2144,35.0129,TENNESSEE,(CHA)LOVELL FLD CHAT,4737411
49915,300746,-85.021,35.121,TENNESSEE,OOLTEWAH,4737353
49915,300738,-85.271,34.986999999999995,TENNESSEE,LOOKOUT MTN,4737412
49915,300745,-84.99600000000001,35.352,TENNESSEE,BIRCHWOOD,4737308
49915,300745,-84.988,35.358000000000004,TENNESSEE,BIRCHWOOD,4737308
49915,295004,-84.35,35.73,TENNESSEE,LOUDON,4737774
49915,295003,-84.1,35.71,TENNESSEE,BIG SPGS,4737801
49915,295002,-84.87,35.7,TENNESSEE,SPRING CITY,4737381
49915,295001,-82.72,36.52,TENNESSEE,CHURCH HILL,4737642
49915,300738,-85.23700000000001,35.004,TENNESSEE,BRAINERD,4737412
42789,251494,-86.7711,36.2554,TENNESSEE,MADISON,4737207
49915,296896,-82.72399999999999,36.47,TENNESSEE,SURGOINSVILLE,4737642
49915,296899,-84.8446,35.17,TENNESSEE,CLEVELAND,4737312
62702,375437,-86.32,36.22,TENNESSEE,WEST END HGTS,4737087
62702,375451,-86.5877,35.9889,TENNESSEE,LA VERGNE,4737086
62702,375462,-86.65,35.95,TENNESSEE,NOLENSVILLE,4737135
62702,375494,-86.72,36.02,TENNESSEE,WRENCOE,4737211
62702,375495,-86.6765,36.0102,TENNESSEE,WRENCOE,4737013
62702,375496,-86.72,36.02,TENNESSEE,WRENCOE,4737211
62702,375436,-86.2904,36.2072,TENNESSEE,LEBANON,4737087
62702,375497,-86.39,35.85,TENNESSEE,MURFREESBORO,4737130
62702,375349,-86.14,35.82,TENNESSEE,MITCHELVILLE,4737149
62708,374982,-84.36,35.52,TENNESSEE,MADISONVILLE,4737354
62702,375348,-86.88,36.5,TENNESSEE,SPRINGFIELD,4737172
62702,375347,-86.7054,36.0301,TENNESSEE,WRENCOE,4737013
62708,374983,-84.3,35.37,TENNESSEE,TELLICO PLAINS,4737385
62702,375346,-85.7316,35.2601,TENNESSEE,HOBBS HILL,4737387
62703,375498,-87.51,35.03,TENNESSEE,ST JOSEPH,4738481
62701,375345,-86.545,35.8414,TENNESSEE,BLACKMAN,4737128
62702,375428,-86.275,36.1942,TENNESSEE,LEBANON,4737087
62702,375356,-86.3882,35.8023,TENNESSEE,DILLTON,4737127
49915,296958,-82.18,36.58,TENNESSEE,BRISTOL,4737620
49915,296959,-82.47,36.42,TENNESSEE,GRAY,4737615
49915,296962,-82.2801,36.5134,TENNESSEE,BLOUNTVILLE,4737618
49915,296963,-82.0654,36.4879,TENNESSEE,BRISTOL,4737620
45108,261586,-86.18,35.66,TENNESSEE,BARNES STORE,4737018
49915,296964,-84.67,35.18,TENNESSEE,BENTON,4737307
62702,375415,-86.59,35.62,TENNESSEE,UNIONVILLE,4737180
62702,375352,-86.4008,35.8515,TENNESSEE,MURFREESBORO,4737129
62702,375351,-86.39,35.81,TENNESSEE,MURFREESBORO,4737127
62702,375350,-86.1205,35.6285,TENNESSEE,GNAT HILL,4737355
49915,297632,-82.70200000000001,36.106,TENNESSEE,GREYSTONE,4737743
62702,375353,-86.49,36.35,TENNESSEE,PEYTONA,4737066
62702,375354,-87.05,35.62,TENNESSEE,COLUMBIA,4738401
62702,375355,-87.03,36.4,TENNESSEE,PLEASANT VIEW,4737146
49915,296965,-82.18,36.58,TENNESSEE,BRISTOL,4737620
49915,296898,-83.458,35.9893,TENNESSEE,DANDRIDGE,4737725
62701,375344,-86.3113,35.5465,TENNESSEE,FAIRFIELD,4737183
62698,375334,-84.88,36.28,TENNESSEE,BANNER SPGS,4738556
49915,296926,-84.25,35.58,TENNESSEE,VONORE,4737885
49915,296915,-83.16,35.97,TENNESSEE,OLDTOWN,4737821
49915,300456,-83.846,35.6633,TENNESSEE,LAWSON XRDS,4737878
49915,300457,-84.70299999999999,35.218,TENNESSEE,HAUN MILL,4737310
49915,300457,-84.9875,35.0371,TENNESSEE,PINE HILL,4737353
62708,374986,-84.7326,35.1288,TENNESSEE,BENTON,4737323
49915,300456,-84.0274,35.5459,TENNESSEE,CHILHOWEE,4737885
62708,374992,-83.52,35.72,TENNESSEE,GATLINBURG,4737738
49915,296915,-83.286,35.954,TENNESSEE,CLEVENGER,4737821
49915,296905,-82.6,36.48,TENNESSEE,SULLIVAN GARDENS,4737660
49915,296904,-84.6,35.45,TENNESSEE,ATHENS,4737303
49915,296903,-84.88,35.2279,TENNESSEE,CLEVELAND,4737312
49915,296902,-83.18,36.0934,TENNESSEE,BYBEE,4737821
49915,296901,-83.73,36.2,TENNESSEE,LUTTRELL,4737779
62710,375150,-82.07,36.1421,TENNESSEE,ROAN MTN,4737687
62700,375343,-86.6516,36.4699,TENNESSEE,WHITE HOUSE,4737188
49915,296950,-83.5447,35.8495,TENNESSEE,SEVIERVILLE,4737862
49915,297650,-81.82,36.5,TENNESSEE,COLD SPGS,4737683
62697,375342,-86.79,36.0,TENNESSEE,MALLORYS,4737027
62697,375340,-86.8248,35.9711,TENNESSEE,MALLORYS,4737027
62697,375339,-86.8459,35.954,TENNESSEE,BERRYS CHAPEL,4737067
62697,375338,-86.6,36.29,TENNESSEE,HENDERSONVILLE,4737075
62697,375336,-86.77,36.4,TENNESSEE,RIDGETON,4737073
62697,375335,-86.88,36.41,TENNESSEE,CRUNK,4737073
49915,297650,-81.99,36.39,TENNESSEE,DOEVILLE,4737640
62697,375333,-86.7719,36.1568,TENNESSEE,NASHVILLE,4737210
49915,297632,-82.6302,36.1302,TENNESSEE,PLEASANT HILL,4737641
62708,374984,-84.88,35.199,TENNESSEE,CLEVELAND,4737312
62708,374985,-84.87,35.18,TENNESSEE,CLEVELAND,4737311
62697,375331,-87.35,36.56,TENNESSEE,CLARKSVILLE,4737040
62697,375330,-87.05,35.62,TENNESSEE,COLUMBIA,4738401
49915,297636,-83.77,35.67,TENNESSEE,TOWNSEND,4737882
62697,375332,-86.9225,36.103,TENNESSEE,WEST MEADE,4737209
1122243,5266951,-86.75,36.13333,TENNESSEE,NASHVILLE,4737210
42789,251494,-86.7778,36.2534,TENNESSEE,MADISON,4737207
49915,300937,-84.42,35.44,TENNESSEE,WILSON STATION,4737354
1221074,5534563,-86.7,35.63333,TENNESSEE,CHAPEL HILL,4737034
2385,11855,-86.45,36.4,TENNESSEE,GALLATIN,4737066
2385,11854,-86.45,36.4,TENNESSEE,GALLATIN,4737066
2385,11853,-87.35,36.5734,TENNESSEE,CLARKSVILLE,4737042
2385,11780,-87.82,36.6,TENNESSEE,BUMPUS MILLS,4737028
2385,11777,-87.8851,36.5869,TENNESSEE,DOVER,4737058
1221074,5534562,-86.75,35.66667,TENNESSEE,CHAPEL HILL,4737034
49915,302469,-83.47200000000001,36.14,TENNESSEE,JEFFERSON CITY,4737760
1182751,5430233,-84.0,35.71667,TENNESSEE,MARYVILLE,4737803
1182752,5430234,-83.96667,35.7,TENNESSEE,MARYVILLE,4737803
1182753,5430235,-84.35,35.73333,TENNESSEE,LOUDON,4737774
1182754,5430236,-84.35,35.73333,TENNESSEE,LOUDON,4737774
1182755,5430237,-84.86667,35.7,TENNESSEE,SPRING CITY,4737381
1182756,5430238,-84.26666999999999,35.78333,TENNESSEE,LENOIR CITY,4737771
49915,302474,-83.4889,36.054,TENNESSEE,OAKLAND,4737760
1182757,5430239,-84.95,35.56667,TENNESSEE,EVENSVILLE,4737332
1221072,5534488,-85.58333,35.76667,TENNESSEE,BONE CAVE,4738581
1221072,5534477,-86.78333,36.01667,TENNESSEE,NOLENSVILLE,4737027
50308,300695,-89.9628,35.4012,TENNESSEE,MILLINGTON,4738053
50308,300692,-89.6574,35.295,TENNESSEE,ARLINGTON MUNI ARPT,4738002
50308,298167,-89.88,35.2,TENNESSEE,BARTLETT,4738134
50308,298167,-89.83,35.23,TENNESSEE,ELLENDALE,4738135
50308,298166,-89.898,35.0205,TENNESSEE,CAPLEVILLE,4738118
50308,298119,-88.2871,35.8201,TENNESSEE,SHILOH,4738387
1221072,5534478,-84.98333000000001,36.26667,TENNESSEE,GRIMSLEY,4738565
50308,298119,-88.2494,35.8389,TENNESSEE,SHILOH,4738387
50308,298114,-88.5085,35.7116,TENNESSEE,BARGERTON,4738351
50308,297448,-88.6761,36.5,TENNESSEE,DUKEDOM,4738226
50308,297448,-88.8048,36.3961,TENNESSEE,RUTHVILLE,4738237
50308,297359,-89.73,35.1702,TENNESSEE,PISGAH,4738016
1221057,5534250,-88.83333,35.66667,TENNESSEE,JACKSON,4738305
1221071,5534412,-87.2,36.41667,TENNESSEE,CLARKSVILLE,4737015
50308,298114,-88.2871,35.8201,TENNESSEE,WILDERSVILLE,4738387
50308,300696,-89.8198,35.4127,TENNESSEE,TIPTON,4738004
7263,50833,-89.35,35.7,TENNESSEE,TIBBS,4738012
1182759,5430241,-84.51666999999999,35.86667,TENNESSEE,KINGSTON,4737763
1122574,5267424,-89.05,36.41667,TENNESSEE,UNION CITY,4738261
1122577,5265887,-88.96667,35.35,TENNESSEE,TOONE,4738381
62930,376461,-89.8883,35.1529,TENNESSEE,SHELBY FARMS,4738122
62930,376461,-89.9021,35.1486,TENNESSEE,BERCLAIR,4738122
1122244,5267013,-86.41667,35.85,TENNESSEE,MURFREESBORO,4737129
62930,376480,-88.42,36.0,TENNESSEE,HUNTINGDON,4738344
49915,302478,-83.3351,36.0844,TENNESSEE,KANSAS,4737890
62930,376481,-88.4221,36.022,TENNESSEE,HUNTINGDON,4738344
39679,230634,-83.51799999999999,36.1507,TENNESSEE,JEFFERSON CITY,4737760
39689,230684,-89.2229,36.1701,TENNESSEE,TEMPLETON,4738059
39689,230686,-89.12,36.1,TENNESSEE,YORKVILLE,4738330
39689,230694,-88.9863,36.0433,TENNESSEE,DYER,4738330
39689,230701,-88.7846,35.9525,TENNESSEE,HUGHES LOOP,4738358
39689,230701,-88.7376,35.9008,TENNESSEE,LEDBETTER,4738358
1122243,5267012,-86.51666999999999,36.16667,TENNESSEE,MT JULIET,4737122
1182758,5430240,-82.71667,36.51667,TENNESSEE,CHURCH HILL,4737642
49915,302474,-83.4793,36.0603,TENNESSEE,FLAT GAP,4737760
1182787,5430633,-85.5,36.11667,TENNESSEE,COOKEVILLE,4738506
1182760,5430242,-85.28333,35.05,TENNESSEE,CHATTANOOGA,4737403
1182761,5430243,-83.71667,36.06667,TENNESSEE,MASCOT,4737806
1182762,5430244,-85.2,35.66667,TENNESSEE,PIKEVILLE,4737367
7264,41749,-89.9,35.35,TENNESSEE,MILLINGTON,4738053
1182763,5430245,-83.63333,35.73333,TENNESSEE,WALDEN CREEK,4737862
7267,41759,-89.88,35.2,TENNESSEE,BARTLETT,4738134
1182787,5430634,-86.46667,35.48333,TENNESSEE,SHELBYVILLE,4737160
1182787,5430625,-86.65,36.26667,TENNESSEE,LAKEWOOD,4737138
1182787,5430627,-86.46667,35.55,TENNESSEE,SHELBYVILLE,4737160
1182787,5430628,-86.53333,35.98333,TENNESSEE,SMYRNA,4737167
1182787,5430629,-86.11667,36.51667,TENNESSEE,LAFAYETTE,4737083
1182787,5430630,-86.38333,35.55,TENNESSEE,SHELBYVILLE,4737160
1182787,5430631,-86.13333,36.1,TENNESSEE,WATERTOWN,4737184
1182787,5430632,-86.08333,35.48333,TENNESSEE,MANCHESTER,4737355
1182787,5430626,-86.51666999999999,36.23333,TENNESSEE,MT JULIET,4737122
49915,294010,-82.83,36.33,TENNESSEE,BAILEYTON,4737745
50308,300794,-89.5973,35.2813,TENNESSEE,HICKORY WITHE,4738002
50308,300796,-89.9101,35.4632,TENNESSEE,DRUMMONDS,4738023
49915,300950,-84.9,35.21,TENNESSEE,HOPEWELL,4737312
49915,300951,-83.1319,35.8202,TENNESSEE,HARTFORD,4737753
39633,230350,-88.5678,36.0579,TENNESSEE,JARRELL,4738201
1098171,5154021,-88.6,35.81667,TENNESSEE,CEDAR GROVE,4738321
49915,300951,-83.101,35.8446,TENNESSEE,RAVEN BRANCH,4737753
49915,302469,-83.4774,36.137,TENNESSEE,JEFFERSON CITY,4737760
49915,300950,-84.88,35.23,TENNESSEE,HOPEWELL,4737312
49915,293972,-85.38,35.3655,TENNESSEE,DUNLAP,4737327
49915,293961,-85.05,35.11,TENNESSEE,OOLTEWAH,4737363
49915,293961,-85.1,35.04,TENNESSEE,SUMMIT,4737421
49915,293945,-85.28,35.05,TENNESSEE,CHATTANOOGA,4737403
49915,293911,-85.63,35.08,TENNESSEE,JASPER,4737347
49915,293908,-85.7538,35.08,TENNESSEE,JASPER,4737380
49915,293883,-84.8804,35.2251,TENNESSEE,HOPEWELL,4737312
49915,293962,-85.07,35.08,TENNESSEE,OOLTEWAH,4737363
49915,293883,-84.8977,35.17,TENNESSEE,CLEVELAND,4737311
49915,300949,-84.0659,35.658,TENNESSEE,SPRINGVIEW,4737801
49915,300947,-85.3,35.44,TENNESSEE,PAILO,4737327
54613,328021,-88.8145,35.575,TENNESSEE,BEMIS,4738301
54613,328005,-88.8111,36.0974,TENNESSEE,BRADFORD,4738316
54613,328002,-89.1561,36.339,TENNESSEE,TROY,4738260
54613,328002,-89.35,36.38,TENNESSEE,SAMBURG,4738254
49915,294009,-84.88,35.17,TENNESSEE,CLEVELAND,4737311
54591,327834,-88.4,35.65,TENNESSEE,LEXINGTON,4738351
49915,300949,-84.13,35.63,TENNESSEE,BRICK MILL,4737801
49915,300937,-84.25,35.53,TENNESSEE,RIVERSIDE,4737885
49915,300938,-84.25,35.53,TENNESSEE,RIVERSIDE,4737885
49915,300942,-84.87899999999999,35.696999999999996,TENNESSEE,IDEAL VLY,4737381
49915,300942,-84.854,35.713,TENNESSEE,SPRING CITY,4737381
49915,300945,-85.3214,35.4278,TENNESSEE,MT AIRY,4737327
49915,300945,-85.3665,35.3952,TENNESSEE,DUNLAP,4737327
49915,300947,-85.3214,35.4278,TENNESSEE,PAILO,4737327
49915,300938,-84.41,35.44,TENNESSEE,WILSON STATION,4737354
1221057,5534250,-88.83333,35.7,TENNESSEE,JACKSON,4738305
49915,293447,-84.75,35.3,TENNESSEE,CHARLESTON,4737309
49915,293441,-85.2925,35.0398,TENNESSEE,CHATTANOOGA,4737403
49873,320018,-86.09899999999999,35.1988,TENNESSEE,WINCHESTER,4737398
2814,14506,-83.6635,36.4811,TENNESSEE,NEW TAZEWELL,4737879
50308,303574,-88.2735,35.0248,TENNESSEE,COUNCE,4738326
50308,303574,-88.2072,35.0368,TENNESSEE,PICKWICK LAKE,4738326
50308,302989,-89.9502,35.3091,TENNESSEE,MILLINGTON,4738053
49915,296953,-82.2692,36.5084,TENNESSEE,BRISTOL,4737618
49873,320019,-86.11,35.19,TENNESSEE,WINCHESTER,4737398
50308,302018,-90.0529,35.143,TENNESSEE,MEMPHIS,4738103
50308,301516,-88.9926,35.3815,TENNESSEE,CLOVERPORT,4738381
50308,301503,-88.5879,35.4285,TENNESSEE,JACKS CREEK,4738340
50308,301503,-88.4633,35.4909,TENNESSEE,ROBY,4738368
50308,301135,-88.3426,35.5218,TENNESSEE,REAGAN,4738351
50308,300929,-88.5122,35.47,TENNESSEE,JACKS CREEK,4738347
50308,300927,-89.7777,35.442,TENNESSEE,ATOKA,4738004
50308,301516,-88.9677,35.3878,TENNESSEE,TOONE,4738381
49915,293446,-84.88,35.17,TENNESSEE,CLEVELAND,4737311
117737,707947,-89.2798,36.119,TENNESSEE,NEWBERN,4738059
117738,707949,-89.6748,35.1809,TENNESSEE,FISHERVILLE,4738028
49915,293437,-85.61,35.02,TENNESSEE,MOORE CROSSING,4737347
49915,293394,-85.25,35.13,TENNESSEE,HAMILLVILLE,4737343
49915,293394,-85.29,35.11,TENNESSEE,LUPTON CITY,4737415
49915,293385,-85.35,35.05,TENNESSEE,TIFTONA,4737419
49915,293385,-85.37,35.02,TENNESSEE,TIFTONA,4737419
49915,293369,-84.7,35.38,TENNESSEE,RICEVILLE,4737370
117737,707947,-89.2843,36.1163,TENNESSEE,NEWBERN,4738059
7263,50833,-89.4,35.77,TENNESSEE,FORKED DEER,4738037
2814,14500,-85.2,35.7012,TENNESSEE,PIKEVILLE,4737367
117995,709326,-89.56299999999999,35.3808,TENNESSEE,BRADEN,4738049
2814,14501,-85.2,35.6578,TENNESSEE,PIKEVILLE,4737367
49873,320023,-86.1167,35.1885,TENNESSEE,WINCHESTER,4737398
117841,708298,-88.5524,35.8664,TENNESSEE,HOWLEY,4738321
117841,708298,-88.5344,35.8832,TENNESSEE,HOWLEY,4738321
117995,709326,-89.58,35.38,TENNESSEE,BRADEN,4738049
57097,342076,-87.2,35.559,TENNESSEE,MT PLEASANT,4738474
1095678,5146909,-85.78333,35.75,TENNESSEE,NORTH PORTION,4737110
1093152,5141966,-86.7,36.03333,TENNESSEE,NASHVILLE,4737013
1209401,5506744,-89.51666999999999,35.15,TENNESSEE,OAKLAND,4738066
1209401,5506744,-89.55,35.23333,TENNESSEE,OAKLAND,4738028
1209401,5506743,-88.26666999999999,36.11667,TENNESSEE,VALE,4738317
1209401,5506741,-88.48333000000001,36.38333,TENNESSEE,COTTAGE GROVE,4738224
1209401,5506741,-88.33333,36.45,TENNESSEE,COTTAGE GROVE,4738251
1209401,5506740,-89.55,35.1,TENNESSEE,ROSSVILLE,4738066
1209401,5506739,-89.81667,35.08333,TENNESSEE,GERMANTOWN,4738138
1209401,5506738,-88.61667,36.21667,TENNESSEE,GLEASON,4738229
1209401,5506737,-89.88333,35.2,TENNESSEE,BARTLETT,4738134
1209401,5506736,-89.81667,35.08333,TENNESSEE,GERMANTOWN,4738138
1209401,5506745,-88.33333,36.45,TENNESSEE,PURYEAR,4738251
1209401,5506735,-88.76666999999999,35.98333,TENNESSEE,MILAN,4738358
53696,321839,-86.0285,35.3825,TENNESSEE,ARNOLDS AFS,4737355
1209401,5506734,-89.11667,35.78333,TENNESSEE,ALAMO,4738001
1209401,5506733,-88.31667,36.3,TENNESSEE,PARIS,4738242
1209401,5506732,-88.51666999999999,36.13333,TENNESSEE,MC KENZIE,4738201
1209401,5506731,-88.76666999999999,35.91667,TENNESSEE,MILAN,4738358
1209401,5506730,-88.91667,35.81667,TENNESSEE,HUMBOLDT,4738343
1209401,5506729,-89.08333,35.71667,TENNESSEE,BELLS,4738006
1209401,5506728,-89.23333000000001,35.61667,TENNESSEE,BROWNSVILLE,4738012
1209401,5506728,-89.26666999999999,35.6,TENNESSEE,BROWNSVILLE,4738012
1209401,5506727,-89.4,35.46667,TENNESSEE,STANTON,4738069
53696,321840,-86.0496,35.3786,TENNESSEE,ARNOLDS AFS,4737355
1209401,5506746,-89.23333000000001,35.81667,TENNESSEE,MAURY CITY,4738050
1209401,5506746,-89.11667,35.78333,TENNESSEE,MAURY CITY,4738001
1209401,5506747,-89.15,35.33333,TENNESSEE,BOLIVAR,4738075
52867,316204,-84.1626,36.02,TENNESSEE,OAK RIDGE,4737716
52867,316205,-83.95,35.97,TENNESSEE,WEST KNOXVILLE,4737921
52867,316205,-83.9483,35.9682,TENNESSEE,WEST KNOXVILLE,4737921
52870,316248,-85.4553,35.4414,TENNESSEE,DUNLAP,4737327
52870,316258,-84.53,35.3445,TENNESSEE,ETOWAH,4737331
52870,316264,-84.2247,35.4314,TENNESSEE,TELLICO PLAINS,4737385
1215557,5519238,-84.3,35.26667,TENNESSEE,COKER CREEK,4737385
1095451,5146839,-82.03333,36.35,TENNESSEE,BUTLER,4737640
1095449,5146837,-82.55,36.55,TENNESSEE,KINGSPORT,4737660
1095444,5146763,-82.55,36.55,TENNESSEE,KINGSPORT,4737660
53696,321842,-85.9651,35.4412,TENNESSEE,MANCHESTER,4737342
53696,321841,-85.98,35.42,TENNESSEE,HILLSBORO,4737342
63597,380850,-85.4,35.57,TENNESSEE,HITCHCOX,4737367
1209401,5506754,-88.48333000000001,36.38333,TENNESSEE,COTTAGE GROVE,4738224
38852,225387,-88.29299999999999,35.0705,TENNESSEE,COUNCE,4738326
1209401,5506753,-89.0,35.26667,TENNESSEE,BOLIVAR,4738008
1209401,5506752,-88.66667,35.43333,TENNESSEE,HENDERSON,4738340
1209401,5506751,-88.8,36.15,TENNESSEE,GREENFIELD,4738230
1209401,5506750,-88.88333,35.46667,TENNESSEE,MEDON,4738301
1209401,5506749,-88.93333,35.98333,TENNESSEE,TRENTON,4738382
1209401,5506749,-89.03333,35.98333,TENNESSEE,TRENTON,4738382
1209401,5506748,-88.41667,36.0,TENNESSEE,HUNTINGDON,4738344
1209401,5506747,-89.0,35.26667,TENNESSEE,BOLIVAR,4738008
53696,321836,-85.73,35.43,TENNESSEE,ALTAMONT,4737301
52867,316204,-84.162,36.02,TENNESSEE,EDGEMOOR,4737716
1209401,5506726,-89.6,35.23333,TENNESSEE,OAKLAND,4738028
1095316,5145156,-88.1,35.61667,TENNESSEE,CENTRAL PORTION,4738363
16474,95119,-85.75,35.27,TENNESSEE,TRACY CITY,4737387
53631,321803,-85.47,35.93,TENNESSEE,SPARTA,4738583
53631,321802,-85.03,35.95,TENNESSEE,CROSSVILLE,4738555
1185665,5440434,-87.25,35.25,TENNESSEE,LAWRENCEBURG,4738464
1185665,5440433,-87.35,35.16667,TENNESSEE,LEOMA,4738468
1185664,5442021,-86.8,35.45,TENNESSEE,GRIMSLEY,4737091
53631,321801,-85.47,35.93,TENNESSEE,SPARTA,4738583
53631,321799,-85.03,35.95,TENNESSEE,CROSSVILLE,4738555
53631,321338,-85.43,36.2,TENNESSEE,ALGOOD,4738506
1185664,5442020,-85.26666999999999,36.15,TENNESSEE,SPENCER,4738574
53631,321805,-85.3,35.95,TENNESSEE,DE ROSSETT,4738583
1209397,5506532,-88.35,35.31667,TENNESSEE,MORRIS CHAPEL,4738361
1209397,5506446,-89.48333000000001,36.38333,TENNESSEE,TIPTONVILLE,4738079
1209397,5506444,-89.51666999999999,35.35,TENNESSEE,LONGTOWN,4738049
1209397,5506443,-88.96667,36.13333,TENNESSEE,RUTHERFORD,4738369
1209397,5506443,-89.05,36.18333,TENNESSEE,RUTHERFORD,4738233
1185664,5442019,-84.98333000000001,36.26667,TENNESSEE,DOVER,4738565
1185664,5440336,-85.36667,35.78333,TENNESSEE,MONTEREY,4738583
53631,321337,-85.5,36.17,TENNESSEE,COOKEVILLE,4738501
53631,321335,-85.5,36.17,TENNESSEE,COOKEVILLE,4738501
53631,321333,-85.5,36.17,TENNESSEE,COOKEVILLE,4738501
53631,321332,-85.5,36.17,TENNESSEE,COOKEVILLE,4738501
1209397,5506532,-88.21667,35.38333,TENNESSEE,MORRIS CHAPEL,4738370
53631,321807,-85.03,35.95,TENNESSEE,CROSSVILLE,4738555
53631,321808,-85.5205,35.7909,TENNESSEE,SPENCER,4738559
16472,95110,-87.3655,35.25,TENNESSEE,LAWRENCEBURG,4738464
1095301,5146675,-89.21667,35.36667,TENNESSEE,FAYETTE CORNERS,4738068
1095301,5146674,-89.8,35.76667,TENNESSEE,ASHPORT,4738063
1095301,5146673,-88.76666999999999,35.8,TENNESSEE,MEDINA,4738355
1095301,5146672,-89.38333,35.16667,TENNESSEE,WILLISTON,4738076
1095301,5146671,-89.13333,35.16667,TENNESSEE,HICKORY VLY,4738042
1095292,5144467,-89.51666999999999,35.23333,TENNESSEE,OAKLAND,4738060
1209401,5506662,-89.78333,35.15,TENNESSEE,CORDOVA,4738018
1209401,5506661,-90.03333,35.01667,TENNESSEE,WHITEHAVEN,4738116
1185665,5440437,-86.41667,35.85,TENNESSEE,MURFREESBORO,4737129
1185665,5440436,-87.05,35.61667,TENNESSEE,COLUMBIA,4738401
1125447,5276088,-89.0,35.26667,TENNESSEE,PARIS,4738008
16466,95098,-87.4868,35.0778,TENNESSEE,ST JOSEPH,4738469
16466,95098,-87.4526,35.1113,TENNESSEE,BUSBY,4738469
16466,95117,-86.9421,35.1458,TENNESSEE,FIVE PTS,4738478
16466,95117,-86.9564,35.141999999999996,TENNESSEE,TARPLEY,4738478
1185665,5440435,-87.33333,35.25,TENNESSEE,LAWRENCEBURG,4738464
1125445,5276002,-88.83333,35.66667,TENNESSEE,WINDY CITY,4738305
1125445,5276002,-88.91667,35.75,TENNESSEE,WINDY CITY,4738343
53631,321815,-86.25,36.57,TENNESSEE,WESTMORELAND,4737186
53631,321812,-85.47,35.93,TENNESSEE,SPARTA,4738583
53631,321811,-85.47,35.8,TENNESSEE,CUMMINGSVILLE,4738559
16470,95105,-86.2183,35.5926,TENNESSEE,MANCHESTER,4737183
16472,95108,-87.75,35.18,TENNESSEE,COLLINWOOD,4738450
1209401,5506662,-89.68333,35.3,TENNESSEE,CORDOVA,4738002
53631,321331,-85.48,36.2724,TENNESSEE,COOKEVILLE ARPT,4738501
52862,316144,-84.47,35.77,TENNESSEE,DOGWOOD,4737774
63597,380849,-85.26,35.56,TENNESSEE,LEES STATION,4737367
16453,95080,-87.5108,36.4216,TENNESSEE,PALMYRA,4737142
16453,95080,-87.5051,36.427,TENNESSEE,PALMYRA,4737142
16453,95088,-87.37200000000001,36.5064,TENNESSEE,CUMBERLAND HGTS,4737040
1116549,5250983,-87.25,35.25,TENNESSEE,LAWRENCEBURG,4738464
1116549,5250987,-86.06667,35.21667,TENNESSEE,DECHERD,4737324
1116553,5251094,-87.75,35.78333,TENNESSEE,DOYLE,4737097
1116553,5252218,-86.4,35.28333,TENNESSEE,LOBELVILLE,4737352
1116553,5252222,-86.0,36.51667,TENNESSEE,GAINESBORO,4737083
1116554,5251099,-85.26666999999999,36.1,TENNESSEE,MONTEREY,4738574
1123838,5269465,-88.93333,36.03333,TENNESSEE,TRENTON,4738382
16453,95079,-87.5277,36.3917,TENNESSEE,SHILOH,4737142
1116554,5251100,-85.3,35.76667,TENNESSEE,LONEWOOD,4738585
16453,95088,-87.3753,36.5031,TENNESSEE,CUMBERLAND HGTS,4737040
1095487,5145561,-84.48333000000001,36.28333,TENNESSEE,BRIMSTONE SIDING,4737852
1209402,5506944,-88.88333,35.46667,TENNESSEE,MEDON,4738301
1209402,5506855,-89.88333,35.2,TENNESSEE,BARTLETT,4738134
1209402,5506852,-88.1,35.35,TENNESSEE,SAVANNAH,4738372
1209402,5506851,-89.05,35.26667,TENNESSEE,BOLIVAR,4738008
1209402,5506850,-88.25,35.28333,TENNESSEE,SAVANNAH,4738361
1116555,5251104,-87.33333,35.25,TENNESSEE,LAWRENCEBURG,4738464
1116555,5251107,-85.78333,35.68333,TENNESSEE,MC MINNVILLE,4737110
1116555,5251108,-85.66667,36.43333,TENNESSEE,NORTH PORTION,4738588
1123838,5269469,-88.98333000000001,35.61667,TENNESSEE,HUNTERSVILLE,4738301
16453,95079,-87.5288,36.3889,TENNESSEE,SHILOH,4737050
16453,95074,-87.5304,36.3836,TENNESSEE,SHILOH,4737142
16453,95074,-87.5399,36.3767,TENNESSEE,SHILOH,4737142
1209407,5507049,-89.63333,35.73333,TENNESSEE,RIPLEY,4738063
1209407,5507048,-88.76666999999999,35.91667,TENNESSEE,MILAN,4738358
1209407,5507046,-89.08333,36.1,TENNESSEE,YORKVILLE,4738330
1209407,5507046,-88.93333,35.98333,TENNESSEE,YORKVILLE,4738382
1209407,5507045,-89.38333,36.03333,TENNESSEE,DYERSBURG,4738024
1209407,5507045,-89.43333,36.03333,TENNESSEE,DYERSBURG,4738024
1123826,5270559,-86.03333,36.51667,TENNESSEE,MURFREESBORO,4737083
1123826,5270576,-86.6,35.66667,TENNESSEE,WINCHESTER,4737034
1123827,5269199,-87.0,35.9,TENNESSEE,LEIPERS FORK,4737064
1123827,5269200,-86.58333,36.01667,TENNESSEE,LA VERGNE,4737086
1123827,5269201,-86.06667,35.5,TENNESSEE,MANCHESTER,4737355
1123838,5269461,-89.48333000000001,36.38333,TENNESSEE,TIPTONVILLE,4738079
1116517,5251872,-83.56667,36.45,TENNESSEE,TAZEWELL,4737879
1116522,5251877,-84.6,36.1,TENNESSEE,WARTBURG,4737887
1116525,5251955,-84.35,35.73333,TENNESSEE,LOUDON,4737774
1116531,5251961,-85.76666999999999,35.15,TENNESSEE,NORTHWEST PORTION,4737380
1116544,5251974,-84.0,35.78333,TENNESSEE,MARYVILLE,4737701
1116544,5251974,-84.01666999999999,35.78333,TENNESSEE,MARYVILLE,4737801
1116546,5251976,-86.93333,35.75,TENNESSEE,SPRING HILL,4737174
1116547,5251980,-86.06667,35.61667,TENNESSEE,SUMMITVILLE,4737355
1116547,5252088,-85.96667,35.23333,TENNESSEE,ALTO,4737324
1116547,5252089,-87.63333,35.08333,TENNESSEE,COLLINWOOD,4738463
16453,95071,-87.35,36.6168,TENNESSEE,CLARKSVILLE,4737042
1116555,5251166,-85.13333,36.6,TENNESSEE,BYRDSTOWN,4738549
52862,316144,-84.4698,35.77,TENNESSEE,DOGWOOD,4737774
1116556,5251178,-86.71667,36.31667,TENNESSEE,GOODLETTSVILLE,4737072
1116556,5251182,-87.66667,36.23333,TENNESSEE,ERIN,4737061
1209402,5506844,-88.81667,35.33333,TENNESSEE,SILERTON,4738340
1209402,5506843,-89.15,35.33333,TENNESSEE,WHITEVILLE,4738075
1209402,5506842,-88.96667,35.35,TENNESSEE,TOONE,4738381
1209401,5506841,-88.21667,35.71667,TENNESSEE,PARSONS,4738328
1209401,5506840,-88.28333,35.43333,TENNESSEE,SARDIS,4738371
1209401,5506840,-88.33333,35.43333,TENNESSEE,SARDIS,4738371
1209401,5506839,-88.3,35.86667,TENNESSEE,CLARKSBURG,4738387
1209401,5506839,-88.36667,35.83333,TENNESSEE,CLARKSBURG,4738390
1095453,5146841,-84.26666999999999,35.78333,TENNESSEE,LENOIR CITY,4737771
1095453,5146841,-84.26666999999999,35.76667,TENNESSEE,LENOIR CITY,4737774
1209402,5506845,-88.7,35.4,TENNESSEE,HENDERSON,4738340
1095452,5146840,-82.55,36.01667,TENNESSEE,FLAG POND,4737657
1209401,5506838,-88.4,35.8,TENNESSEE,PARKER XRDS,4738388
1209401,5506837,-89.05,36.41667,TENNESSEE,UNION CITY,4738261
1209401,5506760,-88.75,35.36667,TENNESSEE,HENDERSON,4738340
1209401,5506759,-89.13333,35.16667,TENNESSEE,HICKORY VLY,4738042
1209401,5506758,-88.58333,35.7,TENNESSEE,BLUE GOOSE,4738313
1209401,5506757,-88.83333,35.58333,TENNESSEE,BEMIS,4738301
1209401,5506756,-88.13333,35.53333,TENNESSEE,DECATURVILLE,4738329
1209401,5506755,-88.3,35.45,TENNESSEE,SARDIS,4738371
1209401,5506754,-88.33333,36.45,TENNESSEE,COTTAGE GROVE,4738251
63596,380848,-83.19,36.03,TENNESSEE,BYBEE,4737821
1209401,5506838,-88.38333,35.81667,TENNESSEE,PARKER XRDS,4738388
1095454,5146842,-84.25,35.58333,TENNESSEE,VONORE,4737885
1095457,5146845,-84.75,36.2,TENNESSEE,DEER LODGE,4737726
1095461,5147137,-83.28333,36.21667,TENNESSEE,MORRISTOWN,4737813
1116557,5251247,-86.43333,35.06667,TENNESSEE,FLINTVILLE,4737335
1185665,5440439,-85.81667,35.65,TENNESSEE,MC MINNVILLE,4737110
1095480,5147156,-83.31667,36.23333,TENNESSEE,MORRISTOWN,4737814
1185665,5440438,-86.66667,36.06667,TENNESSEE,ANTIOCH,4737013
1209402,5506850,-88.35,35.31667,TENNESSEE,SAVANNAH,4738361
1209402,5506849,-88.61667,35.23333,TENNESSEE,BETHEL SPGS,4738315
1209402,5506848,-88.61667,35.28333,TENNESSEE,BETHEL SPGS,4738315
1209402,5506847,-89.0,35.26667,TENNESSEE,BOLIVAR,4738008
1095475,5147151,-84.06667,36.16667,TENNESSEE,CLINTON,4737716
1095473,5147149,-84.03333,36.03333,TENNESSEE,POWELL,4737849
1095470,5147146,-83.93333,36.03333,TENNESSEE,FOUNTAIN CITY,4737918
1095469,5147145,-83.93333,35.96667,TENNESSEE,KNOXVILLE,4737921
6143,35797,-85.03,35.95,TENNESSEE,CROSSVILLE,4738555
6143,35795,-85.03,35.95,TENNESSEE,CROSSVILLE,4738555
6134,35739,-86.6868,35.9634,TENNESSEE,NOLENSVILLE,4737135
6134,35737,-87.03,35.85,TENNESSEE,BOSTON,4737179
1209402,5506847,-89.05,35.26667,TENNESSEE,BOLIVAR,4738008
1209402,5506846,-88.6,35.36667,TENNESSEE,FINGER,4738334
1209402,5506845,-88.6,35.43333,TENNESSEE,HENDERSON,4738340
6134,35733,-86.5657,35.98,TENNESSEE,SMYRNA,4737167
1095465,5147141,-84.26666999999999,36.01667,TENNESSEE,OAK RIDGE,4737830
1095464,5147140,-84.48333000000001,36.41667,TENNESSEE,HUNTSVILLE,4737755
1095462,5147138,-84.48333000000001,36.41667,TENNESSEE,HUNTSVILLE,4737755
1116556,5251180,-86.91667,36.1,TENNESSEE,SOUTHWEST PORTION,4737205
53631,321330,-85.5,36.199,TENNESSEE,COOKEVILLE,4738501
53631,321329,-85.65,36.35,TENNESSEE,GAINESBORO,4738562
53631,321328,-85.65,36.35,TENNESSEE,GAINESBORO,4738562
44872,260085,-84.47,35.6,TENNESSEE,SWEETWATER,4737874
44872,260302,-85.1925,35.1216,TENNESSEE,CHATTANOOGA,4737343
44872,264627,-84.77,35.2945,TENNESSEE,CHARLESTON,4737310
53353,319125,-88.189,36.4257,TENNESSEE,BUCHANAN,4738222
53353,319124,-88.77,35.8,TENNESSEE,MEDINA,4738355
53353,319121,-88.83,35.6345,TENNESSEE,JACKSON,4738301
53353,319120,-89.057,35.7288,TENNESSEE,ALAMO,4738006
53353,319115,-89.27,35.6,TENNESSEE,BROWNSVILLE,4738012
53353,319104,-89.83,35.45,TENNESSEE,MUNFORD,4738058
44872,264627,-84.7678,35.294000000000004,TENNESSEE,CHARLESTON,4737310
44862,260049,-85.15,35.12,TENNESSEE,HARRISON,4737416
44872,264629,-84.1254,35.6891,TENNESSEE,GREENBACK,4737742
44872,264631,-85.4429,35.0314,TENNESSEE,GUILD,4737397
44872,264631,-85.4361,35.0329,TENNESSEE,GUILD,4737397
44885,261577,-87.45,35.97,TENNESSEE,PINEWOOD,4737055
44885,261578,-87.07,35.62,TENNESSEE,COLUMBIA,4738401
44885,261585,-87.1108,35.8629,TENNESSEE,BENDING CHESTNUT,4737064
1176754,5415112,-88.06667,36.4,TENNESSEE,SPRINGVILLE,4738256
1176754,5415113,-88.41667,36.08333,TENNESSEE,HUNTINGDON,4738344
1176757,5415192,-88.6,35.76667,TENNESSEE,BARGERTON,4738351
1176758,5415194,-88.23333000000001,35.63333,TENNESSEE,DARDEN,4738328
1176758,5415195,-88.21667,35.51667,TENNESSEE,DECATURVILLE,4738329
44872,264629,-84.1522,35.67,TENNESSEE,GREENBACK,4737742
53542,320500,-84.88,36.3366,TENNESSEE,ALLARDT,4738556
53543,320509,-86.45,36.4,TENNESSEE,GALLATIN,4737066
53543,320510,-86.3781,36.4,TENNESSEE,GALLATIN,4737066
53543,320546,-87.4261,36.0378,TENNESSEE,MT SINAI,4737055
53543,320545,-86.8805,36.1391,TENNESSEE,RICHLAND,4737209
53543,320544,-86.98700000000001,35.6712,TENNESSEE,COLUMBIA,4738401
53543,320543,-87.456,36.0186,TENNESSEE,DICKSON,4737055
53543,320542,-87.456,36.0186,TENNESSEE,DICKSON,4737055
53543,320539,-85.88,35.32,TENNESSEE,PELHAM,4737366
53543,320534,-86.9069,36.2723,TENNESSEE,NASHVILLE,4737015
53543,320532,-86.7,36.0859,TENNESSEE,PARAGON MILL,4737211
53543,320530,-86.7589,36.071999999999996,TENNESSEE,TUSCULUM,4737220
53543,320528,-86.87,36.1,TENNESSEE,BELLE MEADE,4737205
53543,320527,-87.5055,35.5929,TENNESSEE,BLONDY,4738462
53543,320526,-85.1373,35.95,TENNESSEE,CROSSVILLE,4738572
53543,320525,-87.8368,36.4508,TENNESSEE,DOVER,4737058
53543,320523,-85.07,36.13,TENNESSEE,ELMORE,4738571
53543,320522,-85.1767,36.166,TENNESSEE,DOUBLING SPUR,4738574
53543,320521,-86.78,36.17,TENNESSEE,NASHVILLE,4737201
53543,320520,-85.6,36.17,TENNESSEE,DOUBLE SPGS,4738501
53543,320519,-86.78,36.2424,TENNESSEE,NASHVILLE,4737207
53543,320518,-85.5,36.17,TENNESSEE,COOKEVILLE,4738501
53543,320517,-86.78,36.17,TENNESSEE,NASHVILLE,4737201
53543,320513,-85.5634,36.2212,TENNESSEE,COOKEVILLE,4738501
53543,320512,-85.93,36.2355,TENNESSEE,CARTHAGE,4737030
53543,320511,-85.5422,36.35,TENNESSEE,GAINESBORO,4738501
1176758,5415197,-88.06667,35.33333,TENNESSEE,OLIVEHILL,4738372
53543,320548,-86.8459,36.139,TENNESSEE,RICHLAND,4737209
1176758,5415197,-88.03333,35.26667,TENNESSEE,OLIVEHILL,4738475
1176758,5415200,-89.81667,35.08333,TENNESSEE,GERMANTOWN,4738138
1185342,5440949,-89.71667,35.56667,TENNESSEE,COVINGTON,4738019
1185342,5440950,-89.4,35.46667,TENNESSEE,STANTON,4738069
1185342,5440951,-89.66667,35.51667,TENNESSEE,COVINGTON,4738019
1185342,5440952,-89.18333,35.83333,TENNESSEE,ALAMO,4738001
1185342,5440954,-89.9,35.35,TENNESSEE,MILLINGTON,4738053
53124,317889,-89.4994,35.2782,TENNESSEE,GRIFFEN,4738068
53124,317889,-89.52,35.35,TENNESSEE,LONGTOWN,4738049
53124,317886,-89.6484,35.2692,TENNESSEE,ARLINGTON MUNI ARPT,4738002
53124,317886,-89.6381,35.3079,TENNESSEE,ARLINGTON,4738002
53124,317876,-89.6184,35.324,TENNESSEE,GALLAWAY,4738036
1185342,5440949,-89.83333,35.45,TENNESSEE,COVINGTON,4738058
53124,317875,-89.7775,35.442,TENNESSEE,ATOKA,4738004
1185342,5440955,-89.66667,35.56667,TENNESSEE,COVINGTON,4738019
1185342,5440955,-89.73333000000001,35.48333,TENNESSEE,COVINGTON,4738011
1185342,5440956,-89.88333,35.2,TENNESSEE,BARTLETT,4738134
1185342,5440957,-89.38333,36.03333,TENNESSEE,DYERSBURG,4738024
16918,97849,-90.03,35.02,TENNESSEE,WHITEHAVEN,4738116
16919,97682,-86.25,35.22,TENNESSEE,AWALT,4737398
16959,97867,-88.2072,36.4357,TENNESSEE,BUCHANAN,4738222
16959,97869,-89.27,35.6,TENNESSEE,BROWNSVILLE,4738012
16959,98009,-88.9158,35.8306,TENNESSEE,HUMBOLDT,4738343
16959,98013,-88.15,36.25,TENNESSEE,SPRINGVILLE,4738256
53124,317874,-89.8972,35.3418,TENNESSEE,MILLINGTON,4738053
32,93,-84.6,36.1,TENNESSEE,WARTBURG,4737887
32,94,-84.37,36.17,TENNESSEE,BRAYTOWN,4737710
53153,325101,-87.3147,35.2769,TENNESSEE,LAWRENCEBURG,4738464
1176758,5415201,-90.01666999999999,35.13333,TENNESSEE,MEMPHIS,4738104
5806,34029,-85.43,36.42,TENNESSEE,HILHAM,4738570
5808,34043,-85.1688,35.8376,TENNESSEE,CROSSVILLE,4738572
1124810,5272560,-85.78333,35.68333,TENNESSEE,CAMDEN,4737110
53240,318500,-85.0704,35.8725,TENNESSEE,LANTANA,4738572
53240,318499,-86.23,35.3555,TENNESSEE,TULLAHOMA,4737388
53240,318497,-85.5332,36.3905,TENNESSEE,BURRISTOWN,4738562
53240,318493,-85.27,36.15,TENNESSEE,MONTEREY,4738574
53240,318490,-85.43,36.42,TENNESSEE,HILHAM,4738570
53240,318489,-85.4537,36.397,TENNESSEE,HILHAM,4738568
53240,318486,-86.03,36.08,TENNESSEE,ALEXANDRIA,4737012
53240,318482,-86.25,36.57,TENNESSEE,WESTMORELAND,4737186
53240,318470,-86.486,36.4,TENNESSEE,GALLATIN,4737066
1176826,5414718,-86.68333,35.11667,TENNESSEE,MOLINO,4738488
1176828,5414723,-86.43333,35.28333,TENNESSEE,LYNCHBURG,4737334
1176828,5414723,-86.41667,35.28333,TENNESSEE,LYNCHBURG,4737352
5837,34175,-87.7,36.32,TENNESSEE,ERIN,4737061
53167,318216,-88.33,36.45,TENNESSEE,PURYEAR,4738251
53167,318198,-89.5894,35.4814,TENNESSEE,CANAAN GROVE,4738049
53167,318137,-89.05,36.42,TENNESSEE,UNION CITY,4738261
53167,318136,-89.7501,35.2462,TENNESSEE,BRUNSWICK,4738002
53167,318135,-89.78,35.43,TENNESSEE,ATOKA,4738004
53167,318131,-89.667,35.3796,TENNESSEE,MADGE,4738002
1176758,5415198,-88.06667,35.08333,TENNESSEE,WALNUT GROVE,4738372
53543,320550,-87.8,36.08,TENNESSEE,WAVERLY,4737185
53543,320552,-87.33,35.0763,TENNESSEE,LAWRENCEBURG,4738468
53543,320554,-86.8943,35.75,TENNESSEE,SPRING HILL,4737174
1209397,5506281,-89.95,35.43333,TENNESSEE,DIXONVILLE,4738053
1209397,5506280,-89.53333,35.76667,TENNESSEE,HALLS,4738063
114758,688355,-85.5291,36.4974,TENNESSEE,BAPTIST RIDGE,4738551
114755,694295,-87.05,36.1,TENNESSEE,PEGRAM,4737143
114755,688804,-86.8856,35.1013,TENNESSEE,BRYSON,4738449
114755,688802,-86.9,35.05,TENNESSEE,ELKTON,4738455
114755,688800,-87.08,35.15,TENNESSEE,GOOD SPG,4738478
114754,688357,-86.17,35.73,TENNESSEE,BRADYVILLE,4737026
114753,688347,-86.7468,36.1709,TENNESSEE,NASHVILLE,4737206
114753,688344,-86.6657,36.1386,TENNESSEE,(BNA)NASHVILLE METRO,4737214
1209397,5506282,-89.38333,36.03333,TENNESSEE,DYERSBURG,4738024
114751,693489,-85.7538,35.5627,TENNESSEE,IRVING COLLEGE,4737110
114751,693483,-86.5069,35.4125,TENNESSEE,MT HERMAN,4737160
114751,693483,-86.4257,35.4893,TENNESSEE,GRAY,4737160
114751,688862,-85.6997,36.4835,TENNESSEE,CELINA,4738588
1140415,5311603,-88.13333,35.18333,TENNESSEE,BURNT CHURCH,4738372
1140417,5311606,-88.66667,35.43333,TENNESSEE,HENDERSON,4738340
1140417,5311609,-88.96667,35.71667,TENNESSEE,ADAIR,4738305
1140417,5311611,-88.88333,35.46667,TENNESSEE,MEDON,4738301
114751,688858,-85.93,36.25,TENNESSEE,CARTHAGE,4737030
114751,688855,-85.65,36.17,TENNESSEE,ENSOR,4738544
114751,688853,-85.7414,36.0985,TENNESSEE,SILVER PT,4738582
114751,693489,-85.7081,35.5948,TENNESSEE,IRVING COLLEGE,4737110
1209397,5506360,-90.01666999999999,35.13333,TENNESSEE,MEMPHIS,4738104
1209397,5506362,-89.0,36.06667,TENNESSEE,DYER,4738330
1209397,5506363,-88.83333,35.58333,TENNESSEE,BEMIS,4738301
53631,321327,-86.03,36.52,TENNESSEE,LAFAYETTE,4737083
53631,321326,-86.03,36.52,TENNESSEE,LAFAYETTE,4737083
53631,321325,-86.355,36.6016,TENNESSEE,BON AIR,4737186
53631,321323,-86.2262,36.5459,TENNESSEE,WESTMORELAND,4737186
53631,321322,-86.2114,36.5622,TENNESSEE,SILOAM,4737186
53631,321320,-86.2392,36.5794,TENNESSEE,WESTMORELAND,4737186
53617,321295,-87.33,35.25,TENNESSEE,LAWRENCEBURG,4738464
53617,321284,-86.47,35.48,TENNESSEE,SHELBYVILLE,4737160
1185663,5442018,-86.58333,36.01667,TENNESSEE,LA VERGNE,4737086
44806,259758,-86.3304,35.286,TENNESSEE,PLEASANT HILL,4737352
44806,259758,-86.3155,35.2975,TENNESSEE,PLEASANT HILL,4737352
1209397,5506442,-89.3,35.6,TENNESSEE,BROWNSVILLE,4738012
1209397,5506442,-89.28333,35.6,TENNESSEE,BROWNSVILLE,4738012
1209397,5506441,-88.48333000000001,36.06667,TENNESSEE,MC KENZIE,4738201
1209397,5506441,-88.61667,36.05,TENNESSEE,MC KENZIE,4738258
1209397,5506370,-88.73333000000001,36.1,TENNESSEE,GREENFIELD,4738230
1209397,5506370,-88.56667,36.11667,TENNESSEE,GREENFIELD,4738201
1209397,5506369,-89.03333,36.06667,TENNESSEE,DYER,4738330
1209397,5506369,-88.73333000000001,36.11667,TENNESSEE,DYER,4738230
1209397,5506368,-89.51666999999999,36.11667,TENNESSEE,NEWBERN,4738024
1209397,5506368,-89.2,36.13333,TENNESSEE,NEWBERN,4738059
1209397,5506365,-88.66667,35.43333,TENNESSEE,HENDERSON,4738340
1209397,5506364,-88.4,35.65,TENNESSEE,LEXINGTON,4738351
114751,688852,-85.85,35.999,TENNESSEE,SMITHVILLE,4737166
114751,688851,-85.85,35.97,TENNESSEE,SMITHVILLE,4737166
114751,688850,-85.4427,36.6173,TENNESSEE,PEA RIDGE STORE,4738551
114751,688849,-85.85,36.53,TENNESSEE,RED BOILING SPGS,4737150
1209397,5506274,-90.01666999999999,35.13333,TENNESSEE,MEMPHIS,4738104
1209397,5506272,-90.01666999999999,35.13333,TENNESSEE,MEMPHIS,4738104
1209397,5506271,-89.01666999999999,36.2,TENNESSEE,KENTON,4738233
1209397,5506270,-89.5,36.25,TENNESSEE,RIDGELY,4738080
114677,687863,-82.67,36.25,TENNESSEE,RHEATOWN,4737681
114677,687862,-82.72,36.2,TENNESSEE,AFTON,4737616
114677,687861,-82.82,36.17,TENNESSEE,GREENEVILLE,4737745
114675,687851,-83.38,35.99,TENNESSEE,SUGAR FORKS,4737725
114675,687848,-83.95,35.97,TENNESSEE,WEST KNOXVILLE,4737921
114675,687845,-83.95,36.03,TENNESSEE,FOUNTAIN CITY,4737918
114672,687834,-84.68,35.87,TENNESSEE,ROCKWOOD,4737854
16520,95378,-86.42,35.85,TENNESSEE,MURFREESBORO,4737129
16524,95382,-86.42,35.7776,TENNESSEE,MURFREESBORO,4737128
16545,95485,-83.21,36.54,TENNESSEE,SNEEDVILLE,4737869
16545,95488,-83.3,36.21,TENNESSEE,MORRISTOWN,4737814
16545,95531,-84.87,35.18,TENNESSEE,CLEVELAND,4737311
16545,95533,-84.6,35.13,TENNESSEE,BENTON SPGS,4737369
16545,95535,-84.8,35.04,TENNESSEE,FELKER,4737323
53543,320562,-85.5359,36.17,TENNESSEE,COOKEVILLE,4738501
53543,320561,-85.65,36.35,TENNESSEE,GAINESBORO,4738562
53543,320560,-85.95,36.38,TENNESSEE,PLEASANT SHADE,4737145
53543,320558,-85.5,36.2134,TENNESSEE,COOKEVILLE,4738501
53543,320555,-87.75,35.18,TENNESSEE,COLLINWOOD,4738450
1209397,5506275,-89.2,36.26667,TENNESSEE,OBION,4738240
1209407,5507050,-88.66667,35.96667,TENNESSEE,ATWOOD,4738220
1209397,5506276,-89.83333,35.43333,TENNESSEE,MUNFORD,4738058
114751,688825,-86.8,36.43,TENNESSEE,GREENBRIER,4737073
114751,688848,-86.08,35.48,TENNESSEE,MANCHESTER,4737355
114751,688847,-85.68,36.55,TENNESSEE,UNION HILL,4738575
114751,688846,-85.9462,36.5033,TENNESSEE,WEBBTOWN,4737083
114751,688845,-86.1892,35.3979,TENNESSEE,TULLAHOMA,4737388
114751,688843,-85.77,36.58,TENNESSEE,HERMITAGE SPGS,4737150
63686,381118,-88.545,35.695,TENNESSEE,JUNO,4738351
114751,688842,-85.92,35.6,TENNESSEE,MORRISON,4737357
114751,688841,-85.93,36.25,TENNESSEE,CARTHAGE,4737030
114751,688840,-85.93,36.25,TENNESSEE,CARTHAGE,4737030
114751,688839,-86.0381,36.1717,TENNESSEE,NEW MIDDLETON,4738563
114751,688838,-86.02,35.5,TENNESSEE,RAGSDALE,4737355
114751,688837,-86.13,36.129,TENNESSEE,WATERTOWN,4737184
114751,688836,-86.13,36.1,TENNESSEE,WATERTOWN,4737184
114751,688835,-86.52,36.58,TENNESSEE,PORTLAND,4737148
114751,688834,-86.08,35.48,TENNESSEE,MANCHESTER,4737355
114751,688833,-86.08,35.48,TENNESSEE,MANCHESTER,4737355
114751,688832,-86.3,35.77,TENNESSEE,PLEASANT VIEW,4737127
114751,688831,-86.1612,35.5346,TENNESSEE,CALHOUN,4737355
1209397,5506280,-89.55,35.75,TENNESSEE,HALLS,4738063
1209397,5506279,-88.41667,36.0,TENNESSEE,HUNTINGDON,4738344
1209397,5506277,-88.51666999999999,36.13333,TENNESSEE,MC KENZIE,4738201
114751,688830,-86.42,35.4,TENNESSEE,FLAT CREEK,4737160
114751,688826,-86.75,36.38,TENNESSEE,RIDGE TOP,4737072
1209397,5506277,-88.51666999999999,36.08333,TENNESSEE,MC KENZIE,4738201
1209407,5507051,-90.05,35.25,TENNESSEE,FRAYSER,4738127
1209407,5507053,-89.88333,35.2,TENNESSEE,BARTLETT,4738134
1209407,5507054,-89.26666999999999,35.6,TENNESSEE,BROWNSVILLE,4738012
6562,38186,-84.87,35.7,TENNESSEE,SPRING CITY,4737381
6550,38169,-84.87,35.7,TENNESSEE,SPRING CITY,4737381
6550,38165,-82.72,36.52,TENNESSEE,CHURCH HILL,4737642
6550,38164,-84.8588,35.6909,TENNESSEE,SPRING CITY,4737381
6550,38162,-83.95,36.55,TENNESSEE,CLAIRFIELD,4737715
6550,38161,-84.87,35.7,TENNESSEE,SPRING CITY,4737381
6550,38160,-84.03,36.5011,TENNESSEE,WHITE OAK,4737729
6550,38159,-84.68,35.87,TENNESSEE,ROCKWOOD,4737854
1116346,5252181,-89.4,35.86667,TENNESSEE,HALLS,4738040
1116346,5252182,-88.83333,35.61667,TENNESSEE,JACKSON,4738301
6562,38187,-84.5735,35.87,TENNESSEE,KINGSTON,4737748
6550,38150,-84.1569,36.5666,TENNESSEE,JELLICO,4737762
49915,347519,-82.6418,36.1419,TENNESSEE,LIBERTY,4737641
49915,347519,-82.573,36.15,TENNESSEE,MT CARMEL,4737641
49915,347834,-85.32799999999999,34.999,TENNESSEE,ALTON PARK,4737409
49915,347834,-85.333,34.99,TENNESSEE,ALTON PARK,4737409
49915,347835,-85.0783,35.0993,TENNESSEE,OOLTEWAH,4737363
1116346,5252183,-88.96667,35.35,TENNESSEE,TOONE,4738381
1116346,5252184,-88.81667,35.6,TENNESSEE,JACKSON,4738301
1116346,5252185,-89.35,35.3,TENNESSEE,SOMERVILLE,4738068
6550,38148,-81.77,36.57,TENNESSEE,LAUREL BLOOMERY,4737680
6550,38147,-82.3,36.42,TENNESSEE,PINEY FLATS,4737694
6550,38149,-84.8689,35.1609,TENNESSEE,CLEVELAND,4737311
1095681,5145726,-86.56667,36.16667,TENNESSEE,MT JULIET,4737122
6565,38195,-84.5576,36.4078,TENNESSEE,HELENWOOD,4737755
6565,38201,-83.6588,35.9109,TENNESSEE,BOYDS CREEK,4737876
39400,229861,-89.9282,35.3259,TENNESSEE,LUCY,4738053
39400,229159,-89.27,35.6,TENNESSEE,BROWNSVILLE,4738012
39400,229158,-89.4026,35.464,TENNESSEE,STANTON,4738069
39377,237552,-87.47,36.3,TENNESSEE,SLAYDEN,4737051
39377,234843,-84.75,35.85,TENNESSEE,WESTEL,4737854
39377,234842,-86.6954,36.0959,TENNESSEE,PARAGON MILL,4737217
39377,234841,-86.79,36.0,TENNESSEE,MALLORYS,4737027
39377,234840,-86.8,36.01,TENNESSEE,MALLORYS,4737027
39377,234839,-85.65,36.36,TENNESSEE,GAINESBORO,4738562
39377,234837,-85.65,36.36,TENNESSEE,GAINESBORO,4738562
39377,234829,-85.32,36.55,TENNESSEE,FAIRVIEW,4738541
39377,234828,-87.45,35.79,TENNESSEE,SHIPPS BEND,4737033
39377,234827,-86.45,36.38,TENNESSEE,GALLATIN,4737066
39377,234826,-86.18,36.41,TENNESSEE,HARTSVILLE,4737074
39377,234825,-87.23,36.52,TENNESSEE,SANGO,4737043
39377,234824,-87.3,36.52,TENNESSEE,CLARKSVILLE,4737043
39377,234822,-86.6,36.29,TENNESSEE,HENDERSONVILLE,4737075
6636,39538,-82.56,36.53,TENNESSEE,SPRINGDALE,4737660
6636,39530,-82.86,36.47,TENNESSEE,SURGOINSVILLE,4737873
6636,39527,-83.58,36.46,TENNESSEE,TAZEWELL,4737879
6636,38575,-85.17,35.26,TENNESSEE,RATHBURN,4737379
568,2334,-84.98,35.87,TENNESSEE,CRAB ORCHARD,4738555
1095681,5145726,-86.55,36.16667,TENNESSEE,MT JULIET,4737122
6550,38146,-82.03,36.35,TENNESSEE,BUTLER,4737640
39400,229861,-89.9383,35.3228,TENNESSEE,LUCY,4738053
6426,37396,-84.37,35.52,TENNESSEE,MADISONVILLE,4737354
49915,347884,-84.0091,35.5339,TENNESSEE,CALDERWOOD DAM,4737885
1176022,5412790,-87.66667,35.25,TENNESSEE,PORTLAND,4738485
1176023,5412797,-86.45,35.53333,TENNESSEE,MANCHESTER,4737160
1176023,5412798,-86.46667,35.48333,TENNESSEE,MANCHESTER,4737160
1176023,5412799,-86.65,35.31667,TENNESSEE,TULLAHOMA,4737144
1176023,5412801,-86.18333,35.56667,TENNESSEE,LAWRENCEBURG,4737355
1176023,5412802,-86.08333,35.48333,TENNESSEE,LAWRENCEBURG,4737355
1209561,5506592,-86.8,35.45,TENNESSEE,LEWISBURG,4737091
1209561,5506591,-86.83333,36.1,TENNESSEE,NASHVILLE,4737215
1209561,5506589,-86.78333,36.0,TENNESSEE,FRANKLIN,4737027
1209561,5506588,-87.83333,36.48333,TENNESSEE,DOVER,4737058
1176022,5412619,-86.53333,35.95,TENNESSEE,TULLAHOMA,4737167
1209560,5506498,-87.33333,35.25,TENNESSEE,LAWRENCEBURG,4738464
1209560,5506494,-87.8,36.08333,TENNESSEE,WAVERLY,4737185
1176023,5412809,-87.46667,35.78333,TENNESSEE,COALMONT,4737033
1176023,5412874,-86.91667,35.8,TENNESSEE,SHELBYVILLE,4737179
1094088,5141002,-89.66667,35.56667,TENNESSEE,COVINGTON,4738019
1094088,5141004,-88.76666999999999,35.91667,TENNESSEE,MILAN,4738358
1094088,5141005,-88.83333,35.61667,TENNESSEE,JACKSON,4738301
1094088,5141006,-89.58333,35.38333,TENNESSEE,GALLAWAY,4738049
1094088,5141006,-89.61667,35.33333,TENNESSEE,GALLAWAY,4738002
1094088,5141007,-88.66667,35.43333,TENNESSEE,HENDERSON,4738340
1094088,5141008,-88.61667,35.23333,TENNESSEE,BETHEL SPGS,4738315
1209560,5506495,-87.56667,35.55,TENNESSEE,HOHENWALD,4738462
1176021,5412518,-85.43333,36.2,TENNESSEE,ALGOOD,4738506
1176020,5412307,-86.41667,35.85,TENNESSEE,MURFREESBORO,4737129
1094088,5141001,-88.83333,36.23333,TENNESSEE,SHARON,4738255
49915,347884,-84.0673,35.5094,TENNESSEE,CITICO BEACH,4737885
49915,347885,-84.0274,35.5467,TENNESSEE,CHILHOWEE,4737885
49915,347885,-83.84100000000001,35.663000000000004,TENNESSEE,LAWSON XRDS,4737878
49915,350286,-82.635,36.33,TENNESSEE,MILBURNTON,4737681
49915,350286,-82.57,36.36,TENNESSEE,HARTMANTOWN,4737659
1185772,5440071,-88.56667,35.03333,TENNESSEE,GUYS,4738367
1185772,5440070,-88.28333,35.05,TENNESSEE,COUNCE,4738326
1185772,5440069,-88.88333,36.36667,TENNESSEE,MARTIN,4738237
1185772,5440068,-89.01666999999999,36.38333,TENNESSEE,UNION CITY,4738261
6426,37394,-84.47,35.6,TENNESSEE,SWEETWATER,4737874
6426,37393,-84.53,35.33,TENNESSEE,ETOWAH,4737331
1095679,5146913,-87.41667,36.48333,TENNESSEE,CLARKSVILLE,4737040
1095679,5146912,-87.96667,36.31667,TENNESSEE,ERIN,4738221
1095679,5146912,-87.66667,36.31667,TENNESSEE,ERIN,4737061
1095679,5146911,-88.05,36.3,TENNESSEE,BIG SANDY,4738221
1095679,5145720,-85.0,36.56667,TENNESSEE,FORBUS,4738577
62500,373998,-84.18,35.49,TENNESSEE,ACORN,4737885
1095678,5146543,-87.9,36.43333,TENNESSEE,DOVER,4737058
1095678,5146467,-87.93333,36.4,TENNESSEE,DOVER,4737058
1095678,5146467,-87.95,36.4,TENNESSEE,DOVER,4737175
116368,699855,-90.0321,35.1069,TENNESSEE,MEMPHIS,4738106
1094087,5140999,-89.48333000000001,36.38333,TENNESSEE,TIPTONVILLE,4738079
1094087,5141000,-89.35,36.38333,TENNESSEE,SAMBURG,4738232
49915,347835,-85.0788,35.0986,TENNESSEE,OOLTEWAH,4737363
39400,237600,-88.9905,35.7736,TENNESSEE,GADSDEN,4738337
39400,237600,-88.9903,35.7739,TENNESSEE,GADSDEN,4738337
39400,237611,-88.8596,35.8309,TENNESSEE,HUMBOLDT ARPT,4738343
1115884,5249457,-86.81667,35.11667,TENNESSEE,DELLROSE,4738453
1115884,5249458,-86.73333000000001,35.08333,TENNESSEE,COLDWATER,4738488
1115884,5249465,-87.75,35.78333,TENNESSEE,LOBELVILLE,4737097
1115886,5249656,-87.4,35.93333,TENNESSEE,BON AQUA,4737137
49915,302478,-83.2787,36.0987,TENNESSEE,WHITE PINE,4737890
49915,302482,-84.2,35.87,TENNESSEE,VIRTUE,4737934
49915,302482,-84.19,35.87,TENNESSEE,FARRAGUT,4737934
49915,302486,-84.19,35.66,TENNESSEE,GREENBACK,4737742
49915,302486,-84.18,35.68,TENNESSEE,GREENBACK,4737742
49915,302488,-84.52,35.48,TENNESSEE,MT HARMONY,4737303
1115883,5249456,-87.11667,35.98333,TENNESSEE,FAIRVIEW,4737062
1115886,5249656,-87.4,35.96667,TENNESSEE,BON AQUA,4737025
1115886,5249745,-86.1,35.96667,TENNESSEE,AUBURNTOWN,4737016
49915,302488,-84.52,35.47,TENNESSEE,MT HARMONY,4737303
49915,302493,-84.914,35.357,TENNESSEE,BRITTSVILLE,4737336
49915,302493,-84.921,35.348,TENNESSEE,BRITTSVILLE,4737336
63181,378285,-88.7747,35.8028,TENNESSEE,MEDINA,4738355
63181,378287,-88.8974,35.6999,TENNESSEE,YOUNGS CROSSING,4738305
63181,378288,-88.8555,35.6896,TENNESSEE,GILMORE,4738305
63181,378288,-88.8348,35.6758,TENNESSEE,GILMORE,4738305
63181,378291,-88.7273,35.4832,TENNESSEE,PINSON,4738366
63181,378291,-88.8202,35.5786,TENNESSEE,BEMIS,4738301
1115886,5249745,-86.2,35.91667,TENNESSEE,AUBURNTOWN,4737118
1115881,5249361,-86.46667,36.58333,TENNESSEE,PORTLAND,4737148
1093555,5139615,-83.81667,36.53333,TENNESSEE,MANRING,
1115880,5249565,-85.86667,36.25,TENNESSEE,CARTHAGE,4738560
1093152,5141967,-86.53333,35.98333,TENNESSEE,SMYRNA,4737167
1093152,5141968,-85.5,36.16667,TENNESSEE,COOKEVILLE,4738501
1093152,5141969,-87.51666999999999,35.55,TENNESSEE,HOHENWALD,4738462
1093152,5141970,-86.91667,35.91667,TENNESSEE,FRANKLIN,4737064
1093152,5141971,-86.86667,35.91667,TENNESSEE,FRANKLIN,4737064
1093152,5141972,-86.9,35.91667,TENNESSEE,FRANKLIN,4737064
1093152,5141973,-86.53333,35.98333,TENNESSEE,SMYRNA,4737167
1093153,5139372,-86.36667,35.53333,TENNESSEE,WARTRACE,4737183
63055,377617,-87.9881,35.4708,TENNESSEE,PETERS LNDG,4738425
63055,377618,-87.7039,35.3231,TENNESSEE,FORTY EIGHT CREEK BR,4738485
63055,377620,-87.85,35.62,TENNESSEE,LINDEN,4737096
63055,377622,-87.4108,35.1069,TENNESSEE,BUSBY,4738469
1093153,5139372,-86.4,35.53333,TENNESSEE,WARTRACE,4737160
1093518,5139218,-85.2,35.6,TENNESSEE,PIKEVILLE,4737367
1093520,5139220,-84.48333000000001,36.41667,TENNESSEE,HUNTSVILLE,4737755
1093523,5139223,-84.43333,36.41667,TENNESSEE,HUNTSVILLE,4737847
1093525,5139225,-85.23333000000001,35.28333,TENNESSEE,MOWBRAY,4737379
1093526,5139226,-84.8,35.51667,TENNESSEE,DECATUR,4737322
1093531,5139505,-85.36667,35.2,TENNESSEE,LONE OAK,4737377
1093533,5139507,-85.16667,35.28333,TENNESSEE,SODDY DAISY,4737379
1093536,5139510,-84.88333,35.16667,TENNESSEE,CLEVELAND,4737311
1093538,5139512,-83.51666999999999,36.13333,TENNESSEE,JEFFERSON CITY,4737760
1093539,5139513,-83.68333,36.06667,TENNESSEE,STRAWBERRY PLAINS,4737871
63181,378293,-88.6425,35.4395,TENNESSEE,HENDERSON,4738340
63181,378297,-88.708,35.3789,TENNESSEE,MONTEZUMA,4738340
63181,378297,-88.6878,35.357,TENNESSEE,MONTEZUMA,4738340
39400,237866,-89.8987,35.3419,TENNESSEE,MILLINGTON,4738053
39400,237799,-88.2825,35.4984,TENNESSEE,CEDAR GROVE,4738371
39400,237797,-88.3639,35.3667,TENNESSEE,MORRIS CHAPEL,4738359
39400,237797,-88.3563,35.3729,TENNESSEE,LEBANON,4738359
39400,237796,-88.3639,35.3667,TENNESSEE,MILLEDGEVILLE,4738359
39400,237796,-88.6892,35.1184,TENNESSEE,FALCON,4738367
39400,237794,-88.7365,35.0787,TENNESSEE,RAMER,4738061
39400,237794,-88.7345,35.0803,TENNESSEE,RAMER,4738061
39400,237690,-88.7758,35.0623,TENNESSEE,CHEWALLA,4738061
39400,237690,-88.7872,35.055,TENNESSEE,CHEWALLA,4738061
39400,237687,-88.7872,35.055,TENNESSEE,POCAHONTAS,4738061
39400,237687,-88.8815,34.9949,TENNESSEE,POOR,
63216,378548,-89.2136,35.2985,TENNESSEE,LACONIA,4738075
49915,347401,-83.0486,36.2263,TENNESSEE,MOHAWK,4737711
49915,347518,-82.6418,36.1419,TENNESSEE,PLEASANT HILL,4737641
6913,39931,-83.19,35.96,TENNESSEE,NORTHPORT,4737821
6913,39904,-85.2,35.61,TENNESSEE,PIKEVILLE,4737367
39400,237611,-88.9066,35.8088,TENNESSEE,HUMBOLDT,4738343
6869,39622,-83.46,36.14,TENNESSEE,KEISTER,4737760
6841,39399,-85.28,35.05,TENNESSEE,CHATTANOOGA,4737403
1184885,5437673,-86.58333,35.15,TENNESSEE,FAYETTEVILLE,4737334
49915,347518,-82.80799999999999,36.035,TENNESSEE,FLAG BRANCH,4737743
63229,378568,-88.6121,36.2136,TENNESSEE,GLEASON,4738229
63229,381097,-89.947,35.1623,TENNESSEE,NATIONAL CEMETERY,4738122
39400,237799,-88.243,35.5198,TENNESSEE,SCOTTS HILL,4738374
1185772,5440067,-89.38333,35.98333,TENNESSEE,DYERSBURG,4738024
39400,237800,-88.243,35.5198,TENNESSEE,LICK SKILLET,4738374
49915,347401,-83.057,36.2255,TENNESSEE,MOHAWK,4737810
49915,302842,-84.28,35.54,TENNESSEE,HOPEWELL SPGS,4737354
49915,302842,-84.24,35.55,TENNESSEE,VONORE,4737885
49915,302843,-84.34,35.4,TENNESSEE,MT HARMONY,4737385
49915,302843,-84.35,35.39,TENNESSEE,MT HARMONY,4737385
49915,302956,-84.34,35.38,TENNESSEE,MT HARMONY,4737385
49915,302956,-84.32,35.4,TENNESSEE,ROGERS STATION,4737385
49915,302962,-83.7129,35.8531,TENNESSEE,CUSICK,4737865
49915,302962,-83.7159,35.8534,TENNESSEE,CUSICK,4737865
49915,302972,-83.3307,35.9116,TENNESSEE,BIRD XRD,4737725
49915,302972,-83.3335,35.9086,TENNESSEE,BIRD XRD,4737876
49915,302976,-83.3219,35.9217,TENNESSEE,CHESTNUT HILL,4737725
49915,302976,-83.3307,35.9116,TENNESSEE,CHESTNUT HILL,4737725
49915,302978,-82.835,36.028,TENNESSEE,FLAG BRANCH,4737743
49915,302978,-82.8706,36.0106,TENNESSEE,CEDAR CREEK,4737743
49915,305738,-82.6302,36.1302,TENNESSEE,LIBERTY,4737641
49915,305738,-82.491,36.205,TENNESSEE,MAYDAY,4737690
49915,330778,-84.51100000000001,35.2973,TENNESSEE,EAST ETOWAH,4737331
49915,330778,-84.605,35.268,TENNESSEE,DENTVILLE,4737325
49915,339858,-83.4182,36.2113,TENNESSEE,ALPHA,4737814
6988,40347,-84.85,36.15,TENNESSEE,HIGH PT,4737726
49915,339858,-83.4218,36.2108,TENNESSEE,ALPHA,4737814
49915,343727,-85.6377,34.9854,TENNESSEE,MOORE CROSSING,4737380
49915,343727,-85.5,35.07,TENNESSEE,GUILD,4737419
39400,237800,-88.1985,35.5445,TENNESSEE,LICK SKILLET,4738329
1093152,5141965,-86.83333,36.13333,TENNESSEE,NASHVILLE,4737205
1185772,5440066,-88.7,35.4,TENNESSEE,HENDERSON,4738340
1116346,5252185,-89.58333,35.38333,TENNESSEE,SOMERVILLE,4738049
53966,323444,-88.03,35.27,TENNESSEE,OLIVEHILL,4738475
53966,323441,-88.2249,35.2505,TENNESSEE,SAVANNAH,4738372
53966,323436,-88.2378,35.38,TENNESSEE,SALTILLO,4738370
53966,323434,-88.25,35.2734,TENNESSEE,SAVANNAH,4738372
53966,323433,-88.3582,35.373000000000005,TENNESSEE,LEBANON,4738359
5638,32982,-88.2803,35.6709,TENNESSEE,DARDEN,4738351
5638,32986,-88.8553,35.05,TENNESSEE,POCAHONTAS,4738052
5638,32987,-88.22,36.43,TENNESSEE,BUCHANAN,4738222
5641,32991,-89.96700000000001,35.13,TENNESSEE,MEMPHIS,4738111
5641,32994,-88.82,36.08,TENNESSEE,BRADFORD,4738316
53966,323446,-89.2498,35.1681,TENNESSEE,SOMERVILLE,4738068
5641,33004,-88.42,36.2,TENNESSEE,HENRY,4738231
1116346,5252189,-88.58333,35.55,TENNESSEE,MIFFLIN,4738313
1116346,5252192,-88.21667,35.38333,TENNESSEE,SALTILLO,4738370
1116353,5250910,-89.43333,36.03333,TENNESSEE,DYERSBURG,4738024
1116353,5250911,-89.45,35.95,TENNESSEE,UNIONVILLE,4738040
1116353,5250912,-89.38333,36.03333,TENNESSEE,DYERSBURG,4738024
1116353,5250913,-88.8,36.15,TENNESSEE,GREENFIELD,4738230
1116353,5250914,-88.31667,36.3,TENNESSEE,PARIS,4738242
49915,353666,-84.0504,35.5324,TENNESSEE,CITICO BEACH,4737885
49915,353666,-84.0274,35.5459,TENNESSEE,CALDERWOOD DAM,4737885
49944,293512,-87.8276,36.5497,TENNESSEE,BUMPUS MILLS,4737058
44098,256307,-82.56,36.53,TENNESSEE,SPRINGDALE,4737660
53966,323448,-89.367,35.07,TENNESSEE,MOSCOW,4738057
53966,323450,-88.9248,35.2086,TENNESSEE,BOLIVAR,4738008
53966,323455,-88.27,35.12,TENNESSEE,NIXON,4738372
1209553,5506330,-87.5,35.05,TENNESSEE,ST JOSEPH,4738481
1209552,5506325,-87.45,35.08333,TENNESSEE,LORETTO,4738469
1209552,5506323,-87.8,36.08333,TENNESSEE,WAVERLY,4737185
1209552,5506321,-87.83333,36.48333,TENNESSEE,DOVER,4737058
49915,353334,-84.663,35.268,TENNESSEE,LUSKVILLE,4737309
1095670,5148069,-88.01666999999999,36.06667,TENNESSEE,EVA,4738333
1131647,5286621,-89.9,35.35,TENNESSEE,MILLINGTON,4738053
1131647,5286620,-88.8,36.15,TENNESSEE,GREENFIELD,4738230
1131647,5286619,-89.41667,35.06667,TENNESSEE,MOSCOW,4738057
1131647,5286618,-89.6,35.25,TENNESSEE,HICKORY WITHE,4738002
1131647,5286617,-89.88333,35.2,TENNESSEE,BARTLETT,4738134
1131647,5286617,-90.01666999999999,35.13333,TENNESSEE,BARTLETT,4738104
1131647,5286615,-89.83333,35.45,TENNESSEE,BRIGHTON,4738058
1131647,5286615,-89.73333000000001,35.48333,TENNESSEE,BRIGHTON,4738011
1131647,5286614,-88.8,36.15,TENNESSEE,GREENFIELD,4738230
1131647,5286613,-89.38333,36.03333,TENNESSEE,DYERSBURG,4738024
1131647,5286525,-89.11667,36.5,TENNESSEE,WOODLAND MILLS,4738261
1095670,5148068,-87.76666999999999,36.33333,TENNESSEE,TENNESSEE RIDGE,4737178
1095669,5148066,-86.73333000000001,35.03333,TENNESSEE,FAYETTEVILLE,4738488
1095669,5147980,-87.01666999999999,36.4,TENNESSEE,SPRINGFIELD,4737146
1095669,5147976,-86.25,36.4,TENNESSEE,HARTSVILLE,4737022
1095669,5147972,-86.0,35.83333,TENNESSEE,WOODBURY,4737190
1095669,5147971,-86.08333,35.83333,TENNESSEE,WOODBURY,4737190
49944,293512,-87.6149,36.6383,TENNESSEE,LEGATE,
1209554,5506332,-86.25,35.38333,TENNESSEE,TULLAHOMA ARPT,4737360
1185768,5440641,-89.66667,35.55,TENNESSEE,COVINGTON,4738019
1185768,5440566,-88.83333,35.61667,TENNESSEE,JACKSON,4738301
1116494,5251807,-84.05,35.75,TENNESSEE,MARYVILLE,4737801
1116502,5251857,-83.4,35.76667,TENNESSEE,PITTMAN CENTER,4737876
1123826,5269197,-86.53333,35.98333,TENNESSEE,COUNTYWIDE,4737167
1123826,5270475,-87.3,35.23333,TENNESSEE,DICKSON,4738464
1209410,5502479,-88.33333,36.45,TENNESSEE,PURYEAR,4738251
1209410,5502477,-88.73333000000001,36.38333,TENNESSEE,HYNDSVER,4738237
1209410,5502476,-89.05,36.41667,TENNESSEE,UNION CITY,4738261
1123826,5270479,-87.46667,35.33333,TENNESSEE,FRANKLIN,4738464
1139292,5307908,-85.83333,35.25,TENNESSEE,MONTEAGLE,4737356
1139292,5307911,-86.68333,35.95,TENNESSEE,NOLENSVILLE,4737135
1116492,5251805,-84.13333,35.75,TENNESSEE,FRIENDSVILLE,4737737
1139292,5307984,-86.41667,36.11667,TENNESSEE,LEBANON,4737122
1139292,5307992,-85.55,35.91667,TENNESSEE,WEST PORTION,4738583
1139292,5309289,-86.7,36.55,TENNESSEE,CROSS PLAINS,4737049
1139294,5309291,-86.3,36.21667,TENNESSEE,LEBANON,4737087
1139295,5308078,-87.81667,36.6,TENNESSEE,BUMPUS MILLS,4737023
1123826,5270481,-85.86667,35.96667,TENNESSEE,SMYRNA,4737059
1123826,5270482,-86.03333,35.8,TENNESSEE,SMYRNA,4737190
1209407,5507057,-88.83333,35.61667,TENNESSEE,JACKSON,4738301
1209407,5507056,-89.26666999999999,35.6,TENNESSEE,BROWNSVILLE,4738012
1209407,5507055,-88.9,35.61667,TENNESSEE,JACKSON,4738301
1209407,5507055,-88.95,35.61667,TENNESSEE,JACKSON,4738301
1139292,5307985,-86.81667,35.18333,TENNESSEE,MC BURG,4738459
1116490,5251803,-83.96667,35.8,TENNESSEE,MARYVILLE,4737701
1116483,5251796,-82.75,36.16667,TENNESSEE,TUSCULUM,4737745
1139199,5309022,-85.46667,35.15,TENNESSEE,WHITWELL,4737405
1185768,5440565,-89.4,35.86667,TENNESSEE,HALLS,4738040
1185768,5440565,-89.58333,35.66667,TENNESSEE,HALLS,4738041
1116353,5250915,-89.25,35.95,TENNESSEE,TIGRETT,4738070
1116452,5251702,-82.7,36.36667,TENNESSEE,JEAROLDSTOWN,4737641
1116454,5251704,-82.48333000000001,36.58333,TENNESSEE,BLOOMINGDALE,4737660
1116460,5251710,-84.38333,35.03333,TENNESSEE,DUCKTOWN,4737326
1116464,5251714,-82.55,36.55,TENNESSEE,KINGSPORT,4737660
1185764,5440558,-88.16667,36.41667,TENNESSEE,PARIS,4738222
1116466,5251779,-84.3,35.26667,TENNESSEE,COKER CREEK,4737385
1116471,5251784,-85.28333,35.15,TENNESSEE,RED BANK,4737415
1116472,5251785,-85.16667,35.28333,TENNESSEE,SODDY DAISY,4737379
1116474,5251787,-83.03333,35.91667,TENNESSEE,DEL RIO,4737727
1116475,5251788,-82.95,36.2,TENNESSEE,MOHAWK,4737818
1116475,5251788,-83.05,36.2,TENNESSEE,MOHAWK,4737810
1116480,5251793,-83.98333000000001,35.73333,TENNESSEE,MARYVILLE,4737803
1116481,5251794,-84.31667,35.15,TENNESSEE,FARNER,4737333
1139127,5308808,-82.61667,36.55,TENNESSEE,MT CARMEL,4737660
1139128,5308809,-82.56667,36.55,TENNESSEE,KINGSPORT,4737660
1139146,5308909,-82.11667,36.36667,TENNESSEE,BLUE SPG,4737643
1139156,5308919,-82.35,36.2,TENNESSEE,UNICOI,4737692
1139158,5308921,-82.3,36.41667,TENNESSEE,PINEY FLATS,4737694
1139169,5308932,-83.56667,36.45,TENNESSEE,TAZEWELL,4737879
1139192,5309015,-84.3,35.36667,TENNESSEE,TELLICO PLAINS,4737385
1185768,5440641,-89.71667,35.56667,TENNESSEE,COVINGTON,4738019
1209554,5506334,-86.08333,35.58333,TENNESSEE,MANCHESTER,4737355
1209556,5506399,-85.9,36.26667,TENNESSEE,CARTHAGE,4737030
1209557,5506400,-87.56667,35.55,TENNESSEE,HOHENWALD,4738462
1185013,5438074,-84.36667,35.51667,TENNESSEE,MADISONVILLE,4737354
1185014,5438075,-84.65,35.1,TENNESSEE,PARKSVILLE,4737307
6236,36360,-84.7524,35.6135,TENNESSEE,DECATUR,4737322
1185027,5436753,-87.56667,35.55,TENNESSEE,HOHENWALD,4738462
1185027,5436754,-87.05,35.61667,TENNESSEE,COLUMBIA,4738401
1185027,5436755,-87.38333,36.3,TENNESSEE,DICKSON,4737051
1185027,5436756,-86.76666999999999,36.25,TENNESSEE,MADISON,4737207
1185027,5436858,-85.03333,35.95,TENNESSEE,CROSSVILLE,4738555
1185772,5440060,-88.86667,35.61667,TENNESSEE,JACKSON,4738301
6236,36359,-83.57,36.45,TENNESSEE,TAZEWELL,4737879
1185010,5438071,-84.53333,35.33333,TENNESSEE,ETOWAH,4737331
6233,36353,-82.35,36.32,TENNESSEE,JOHNSON CITY,4737601
6232,36351,-85.65,36.35,TENNESSEE,GAINESBORO,4738562
1209560,5506490,-86.65,35.48333,TENNESSEE,SHELBYVILLE,4737091
1185772,5440059,-88.83333,35.61667,TENNESSEE,JACKSON,4738301
1185772,5440058,-90.01666999999999,35.13333,TENNESSEE,MEMPHIS,4738104
49915,350287,-82.7,36.29,TENNESSEE,LIBERTY HILL,4737641
49915,350287,-82.635,36.33,TENNESSEE,DUCKTOWN,4737681
1095676,5146455,-87.25,35.68333,TENNESSEE,WILLIAMSPORT,4738487
6206,36225,-84.7,35.38,TENNESSEE,RICEVILLE,4737370
6206,36222,-85.2,35.6,TENNESSEE,PIKEVILLE,4737367
54026,328048,-89.5732,35.23,TENNESSEE,OAKLAND,4738028
6232,36352,-85.7515,36.2682,TENNESSEE,GAINESBORO,4738564
1185007,5438068,-84.88333,35.26667,TENNESSEE,CLEVELAND,4737310
1185006,5438067,-85.01666999999999,35.48333,TENNESSEE,DAYTON,4737321
1095676,5146456,-87.16667,35.61667,TENNESSEE,COLUMBIA,4738401
1116346,5252187,-88.73333000000001,35.48333,TENNESSEE,PINSON,4738366
1116346,5252188,-88.4,35.65,TENNESSEE,LEXINGTON,4738351
1176036,5413161,-86.38333,35.28333,TENNESSEE,LYNCHBURG,4737352
1132155,5285823,-85.86667,35.53333,TENNESSEE,ALTAMONT,4737357
1132155,5285822,-86.58333,35.15,TENNESSEE,FAYETTEVILLE,4737334
1095678,5146466,-88.0,36.3,TENNESSEE,BIG SANDY,4738221
1095678,5146465,-86.75,36.08333,TENNESSEE,(BNA)NASHVILLE METRO,4737211
1095678,5146465,-86.76666999999999,36.06667,TENNESSEE,(BNA)NASHVILLE METRO,4737220
1185772,5440066,-88.51666999999999,35.43333,TENNESSEE,HENDERSON,4738340
1185772,5440065,-89.01666999999999,36.36667,TENNESSEE,RIVES,4738261
1185772,5440065,-88.96667,36.41667,TENNESSEE,RIVES,4738261
1209560,5506493,-87.96667,36.01667,TENNESSEE,NEW JOHNSONVILLE,4737134
1209560,5506492,-87.05,35.55,TENNESSEE,COLUMBIA,4738401
1209560,5506491,-86.58333,35.45,TENNESSEE,SHELBYVILLE,4737160
1185772,5440064,-88.81667,35.35,TENNESSEE,SILERTON,4738340
1185772,5440063,-89.0,36.06667,TENNESSEE,DYER,4738330
1185772,5440062,-88.83333,35.61667,TENNESSEE,JACKSON,4738301
1185772,5440061,-89.06667,35.98333,TENNESSEE,TRENTON,4738382
1185772,5440060,-88.83333,35.61667,TENNESSEE,JACKSON,4738301
1095677,5146461,-87.33333,35.26667,TENNESSEE,LAWRENCEBURG,4738464
1095676,5147434,-86.25,36.56667,TENNESSEE,WESTMORELAND,4737186
1095676,5146457,-86.93333,35.53333,TENNESSEE,FOUNTAIN HGTS,4738401
1095676,5146457,-86.96667,35.55,TENNESSEE,FOUNTAIN HGTS,4738401
49915,350309,-84.8675,35.1802,TENNESSEE,CLEVELAND,4737312
49915,350309,-84.8557,35.1893,TENNESSEE,EAST CLEVELAND,4737312
49915,350402,-85.15,35.11,TENNESSEE,HARRISON,4737341
49915,350402,-85.15,35.13,TENNESSEE,HARRISON,4737416
1095676,5146454,-87.41667,35.73333,TENNESSEE,CENTERVILLE,4737033
1095676,5146070,-86.03333,36.11667,TENNESSEE,BRUSH CREEK,4738547
1095676,5146067,-86.53333,35.98333,TENNESSEE,SMYRNA,4737167
1095676,5146066,-86.8,36.13333,TENNESSEE,(BNA)NASHVILLE METRO,4737212
1095676,5146065,-86.8,36.13333,TENNESSEE,(BNA)NASHVILLE METRO,4737212
1095676,5146063,-86.18333,36.56667,TENNESSEE,NEW ZION,4737186
1095676,5146062,-86.15,36.4,TENNESSEE,WILLARD,4737074
1095676,5146062,-86.18333,36.45,TENNESSEE,WILLARD,4737074
1095675,5147433,-88.1,35.83333,TENNESSEE,CAMDEN,4738341
1095675,5147433,-88.16667,35.91667,TENNESSEE,CAMDEN,4738341
1095674,5148427,-85.11667,36.6,TENNESSEE,BYRDSTOWN,4738549
1095674,5147430,-85.11667,36.58333,TENNESSEE,NORTH PORTION,4738549
1095674,5147327,-88.0,36.53333,TENNESSEE,DOVER,4737058
1095672,5148337,-87.76666999999999,36.53333,TENNESSEE,DOVER,4737058
1095671,5148336,-87.76666999999999,35.31667,TENNESSEE,WAYNESBORO,4738485
1095671,5148335,-87.38333,36.01667,TENNESSEE,DICKSON,4737055
1095670,5148334,-86.31667,36.48333,TENNESSEE,BETHPAGE,4737022
1095670,5148332,-87.65,36.4,TENNESSEE,CUMBERLAND CITY,4737079
1095670,5148331,-87.5,36.55,TENNESSEE,WOODLAWN,4737191
1095670,5148070,-87.58333,36.53333,TENNESSEE,OAKWOOD,4737191
49915,351615,-84.921,35.316,TENNESSEE,ETOLA,4737336
49915,353334,-84.6,35.37,TENNESSEE,PINEY GROVE,4737303
1209557,5506401,-87.8,35.36667,TENNESSEE,NORTH PORTION,4738485
1095676,5146455,-87.26666999999999,35.68333,TENNESSEE,WILLIAMSPORT,4738487
1095678,5146466,-88.08333,36.26667,TENNESSEE,BIG SANDY,4738221
43899,255066,-85.42,35.98,TENNESSEE,YANKEETOWN,4738583
43896,255065,-86.21,36.56,TENNESSEE,SILOAM,4737186
49915,350722,-84.5504,35.2899,TENNESSEE,ETOWAH,4737331
1209560,5506489,-87.33333,36.15,TENNESSEE,CHARLOTTE,4737036
1209559,5506487,-87.83333,35.63333,TENNESSEE,LINDEN,4737096
1209559,5506486,-87.95,36.01667,TENNESSEE,NEW JOHNSONVILLE,4737134
1209559,5506485,-86.1,35.91667,TENNESSEE,AUBURNTOWN,4737016
1209559,5506483,-86.33333,35.91667,TENNESSEE,MURFREESBORO,4737130
1209559,5506482,-86.53333,35.98333,TENNESSEE,SMYRNA,4737167
1209559,5506481,-86.53333,35.98333,TENNESSEE,SMYRNA,4737167
1209559,5506480,-86.53333,35.98333,TENNESSEE,SMYRNA,4737167
1209559,5506414,-86.53333,35.98333,TENNESSEE,SMYRNA,4737167
1209559,5506413,-86.73333000000001,36.13333,TENNESSEE,NASHVILLE,4737210
1209558,5506404,-87.33333,35.26667,TENNESSEE,LAWRENCEBURG,4738464
1209558,5506403,-87.01666999999999,35.26667,TENNESSEE,PULASKI,4738478
1209557,5506402,-87.56667,35.55,TENNESSEE,HOHENWALD,4738462
49915,350722,-84.5425,35.3198,TENNESSEE,ETOWAH,4737331
49915,351615,-84.96,35.2975,TENNESSEE,ETOLA,4737336
54026,328014,-89.6,35.25,TENNESSEE,HICKORY WITHE,4738002
54026,328007,-89.88,35.2,TENNESSEE,BARTLETT,4738134
54026,328007,-89.68,35.3,TENNESSEE,ARLINGTON,4738002
54026,327886,-89.7792,35.0998,TENNESSEE,FOREST HILL,4738139
54026,327886,-89.78,35.15,TENNESSEE,CORDOVA,4738018
43896,254918,-87.3,35.41,TENNESSEE,SUMMERTOWN,4738483
43896,255064,-85.47,35.98,TENNESSEE,GOULDEN MTN,4738583
43896,258933,-87.41799999999999,36.0493,TENNESSEE,DICKSON,4737055
62500,373997,-84.18,35.49,TENNESSEE,ACORN,4737885
49630,302282,-87.2797,35.4313,TENNESSEE,SUMMERTOWN,4738483
62500,373993,-85.17,35.26,TENNESSEE,RATHBURN,4737379
1133130,5288169,-86.18333,35.26667,TENNESSEE,NORTHWEST PORTION,4737330
1187408,5442745,-84.46667,35.6,TENNESSEE,SWEETWATER,4737874
1133130,5288167,-87.43333,35.16667,TENNESSEE,LAWRENCEBURG,4738464
1133130,5288091,-86.33333,35.23333,TENNESSEE,SOUTH PORTION,4737398
1133130,5288090,-86.8,35.45,TENNESSEE,LEWISBURG,4737091
1133130,5288089,-86.25,35.96667,TENNESSEE,CAINSVILLE,4737085
1133130,5288088,-85.78333,35.68333,TENNESSEE,MC MINNVILLE,4737110
1133130,5288087,-87.05,35.61667,TENNESSEE,COLUMBIA,4738401
1133130,5288086,-87.2,35.66667,TENNESSEE,SAWDUST,4738401
1133130,5288085,-86.53333,35.98333,TENNESSEE,LA VERGNE,4737167
1133130,5288170,-85.78333,35.68333,TENNESSEE,MC MINNVILLE,4737110
1133130,5288085,-86.58333,36.01667,TENNESSEE,LA VERGNE,4737086
1187406,5442743,-84.56667,35.55,TENNESSEE,NIOTA,4737826
1187405,5442742,-84.53333,35.33333,TENNESSEE,ETOWAH,4737331
1187403,5442740,-85.25,35.63333,TENNESSEE,PIKEVILLE,4737367
1187402,5442739,-84.55,36.1,TENNESSEE,WARTBURG,4737887
1187401,5442738,-84.56667,36.1,TENNESSEE,WARTBURG,4737887
1187400,5442737,-84.25,36.26667,TENNESSEE,CARYVILLE,4737714
1187396,5442637,-83.28333,36.21667,TENNESSEE,MORRISTOWN,4737813
1187395,5442636,-83.56667,36.21667,TENNESSEE,BUFFALO SPGS,4737861
1187394,5442635,-83.93333,36.08333,TENNESSEE,HALLS XRDS,4737918
1187392,5442633,-84.6,35.45,TENNESSEE,ATHENS,4737303
1187407,5442744,-84.45,35.73333,TENNESSEE,LOUDON,4737774
1133130,5288171,-87.31667,35.38333,TENNESSEE,ETHRIDGE,4738483
1133130,5288172,-87.3,35.43333,TENNESSEE,SUMMERTOWN,4738483
1133130,5288176,-87.11667,35.61667,TENNESSEE,COLUMBIA,4738401
1187449,5442941,-83.21667,36.35,TENNESSEE,MOORESBURG,4737811
1187448,5442940,-83.18333,36.05,TENNESSEE,BYBEE,4737821
1187447,5442939,-83.46667,36.13333,TENNESSEE,JEFFERSON CITY,4737760
1187446,5442938,-83.2,36.25,TENNESSEE,RUSSELLVILLE,4737813
1187444,5442867,-83.56667,36.21667,TENNESSEE,BUFFALO SPGS,4737861
1187443,5442866,-84.26666999999999,35.78333,TENNESSEE,LENOIR CITY,4737771
1187442,5442865,-84.66667,35.18333,TENNESSEE,BENTON,4737307
1187441,5442864,-83.48333000000001,36.11667,TENNESSEE,JEFFERSON CITY,4737760
1187439,5442862,-84.6,35.45,TENNESSEE,ATHENS,4737303
1187438,5442861,-83.93333,35.96667,TENNESSEE,KNOXVILLE,4737921
1187437,5442860,-84.46667,35.6,TENNESSEE,SWEETWATER,4737874
1187436,5442859,-83.8,36.21667,TENNESSEE,MAYNARDVILLE,4737779
1187434,5442857,-84.18333,36.55,TENNESSEE,JELLICO,4737819
1187431,5442854,-84.63333,36.26667,TENNESSEE,SUNBRIGHT,4737872
1187430,5442853,-85.2,35.63333,TENNESSEE,PIKEVILLE,4737367
1187429,5442852,-85.61667,35.13333,TENNESSEE,WHITWELL,4737374
1187428,5442851,-84.66667,36.25,TENNESSEE,SUNBRIGHT,4737872
1187427,5442850,-85.28333,35.53333,TENNESSEE,PIKEVILLE,4737367
1187426,5442849,-85.46667,35.46667,TENNESSEE,CAGLE,4737327
1187418,5442755,-83.5,36.28333,TENNESSEE,RUTLEDGE,4737861
1187413,5442750,-84.36667,35.51667,TENNESSEE,MADISONVILLE,4737354
1133131,5288178,-86.36667,35.75,TENNESSEE,MURFREESBORO,4737037
1133131,5288178,-86.31667,35.76667,TENNESSEE,MURFREESBORO,4737127
1187391,5442632,-84.9,35.23333,TENNESSEE,HOPEWELL,4737312
1187450,5442942,-82.9,36.11667,TENNESSEE,GREENEVILLE,4737743
1187390,5442631,-84.75,35.28333,TENNESSEE,CALHOUN,4737310
1187386,5442627,-85.23333000000001,35.7,TENNESSEE,SARATOGA SPGS,4737367
1173251,5406147,-89.18333,35.05,TENNESSEE,GRAND JCT,4738039
1173251,5406058,-88.93333,35.98333,TENNESSEE,GIBSON,4738382
1173251,5406058,-88.85,35.86667,TENNESSEE,GIBSON,4738343
1133129,5289661,-85.43333,36.2,TENNESSEE,ALGOOD,4738506
1133129,5289660,-85.63333,36.16667,TENNESSEE,COOKEVILLE,4738544
1133129,5289659,-85.65,36.35,TENNESSEE,GAINESBORO,4738562
1133129,5287991,-85.35,36.15,TENNESSEE,MONTEREY,4738574
1133129,5287990,-85.6,36.15,TENNESSEE,BAXTER,4738501
1173244,5406039,-88.23333000000001,35.63333,TENNESSEE,DARDEN,4738328
1173244,5405954,-88.51666999999999,36.13333,TENNESSEE,MC KENZIE,4738201
60197,362966,-86.2433,34.9904,TENNESSEE,HUNTLAND,
1173244,5405953,-88.15,36.48333,TENNESSEE,BUCHANAN,4738222
1173244,5405951,-88.58333,35.63333,TENNESSEE,BLUE GOOSE,4738345
1173244,5405949,-89.55,35.73333,TENNESSEE,RIPLEY,4738063
1173244,5405948,-88.6,35.18333,TENNESSEE,BETHEL SPGS,4738375
1173244,5405948,-88.61667,35.23333,TENNESSEE,BETHEL SPGS,4738315
1173244,5405947,-89.55,35.05,TENNESSEE,ROSSVILLE,4738066
1178599,5419549,-84.73333000000001,35.16667,TENNESSEE,CLEVELAND,4737323
1112245,5235524,-89.93333,35.2,TENNESSEE,RALEIGH,4738128
1187249,5443676,-85.88333,35.6,TENNESSEE,MC MINNVILLE,4737357
1187247,5443623,-85.5,35.85,TENNESSEE,BYRDSTOWN,4738559
1187247,5443622,-86.23333000000001,35.36667,TENNESSEE,MAYLAND,4737388
1173244,5405952,-88.15,36.25,TENNESSEE,SPRINGVILLE,4738256
60197,362966,-86.2407,34.9916,TENNESSEE,HUNTLAND,4737345
60197,362944,-86.5835,35.0776,TENNESSEE,PROSPECT,4737334
60197,362756,-85.9268,35.0863,TENNESSEE,SHERWOOD,4737376
1187384,5442625,-85.46667,35.46667,TENNESSEE,CAGLE,4737327
1187383,5442624,-85.63333,35.08333,TENNESSEE,JASPER,4737347
1187381,5442622,-85.46667,35.46667,TENNESSEE,CAGLE,4737327
1187379,5442620,-84.53333,35.33333,TENNESSEE,ETOWAH,4737331
1187378,5442619,-85.7,35.03333,TENNESSEE,SOUTH PITTSBURG,4737380
1187377,5442618,-84.75,35.05,TENNESSEE,CONASAUGA,4737362
1133130,5288084,-86.73333000000001,36.05,TENNESSEE,NASHVILLE,4737211
1133130,5288083,-85.43333,36.2,TENNESSEE,ALGOOD,4738506
1133130,5288081,-86.83333,36.13333,TENNESSEE,NASHVILLE,4737205
1133130,5288080,-86.83333,36.13333,TENNESSEE,NASHVILLE,4737205
1133130,5288076,-86.41667,35.85,TENNESSEE,MURFREESBORO,4737129
60140,358989,-88.7462,36.15,TENNESSEE,GREENFIELD,4738230
1133130,5288074,-85.93333,36.25,TENNESSEE,CARTHAGE,4737030
1133130,5288072,-86.61667,36.28333,TENNESSEE,HENDERSONVILLE,4737075
1133130,5288006,-86.71667,36.31667,TENNESSEE,GOODLETTSVILLE,4737072
1133129,5289663,-85.2,36.05,TENNESSEE,MAYLAND,4738571
1133129,5289662,-85.5,36.16667,TENNESSEE,COOKEVILLE,4738501
60197,361151,-86.7422,35.2116,TENNESSEE,BOONSHILL,4737144
60197,361151,-86.7312,35.2117,TENNESSEE,BOONSHILL,4737144
60197,362752,-86.72,35.02,TENNESSEE,TAFT,4738488
60197,362753,-86.5711,35.0821,TENNESSEE,PROSPECT,4737334
60197,362754,-86.1514,35.188,TENNESSEE,OWL HOLLOW,4737398
60197,362755,-86.0794,35.2098,TENNESSEE,DECHERD,4737324
1187386,5442627,-85.23333000000001,35.71667,TENNESSEE,SARATOGA SPGS,4737367
1187453,5442945,-82.6,36.48333,TENNESSEE,SULLIVAN GARDENS,4737660
1187455,5442947,-84.7,35.28333,TENNESSEE,CALHOUN,4737309
1187456,5442948,-84.36667,35.56667,TENNESSEE,MADISONVILLE,4737354
59268,355191,-86.4742,36.0371,TENNESSEE,J PERCY PRIEST RES S,4737122
59269,354634,-86.45,36.38,TENNESSEE,GALLATIN,4737066
59269,354635,-87.03,35.05,TENNESSEE,KEDRON,4738477
59269,354636,-86.45,36.38,TENNESSEE,GALLATIN,4737066
14418,83209,-88.2926,35.2676,TENNESSEE,BOX ELDER,4738310
1111071,5232468,-89.03333,35.23333,TENNESSEE,BOLIVAR,4738008
1111071,5232470,-88.7,35.2,TENNESSEE,ROSE CREEK,4738375
1111071,5232470,-88.6,35.18333,TENNESSEE,ROSE CREEK,4738375
1111071,5232471,-88.71667,35.3,TENNESSEE,MASSEYVILLE,4738315
1111071,5232473,-88.31667,35.21667,TENNESSEE,CRUMP,4738327
59268,355191,-86.444,36.0432,TENNESSEE,JEFFERSON SPGS,4737122
1111071,5232475,-89.26666999999999,35.6,TENNESSEE,BROWNSVILLE,4738012
1111075,5232816,-88.66667,35.43333,TENNESSEE,HENDERSON,4738340
1212868,5515743,-84.6,35.45,TENNESSEE,ATHENS,4737303
1212870,5515745,-84.53333,35.33333,TENNESSEE,ETOWAH,4737331
1212871,5515746,-84.88333,35.25,TENNESSEE,CLEVELAND,4737312
1187577,5443720,-89.9,35.35,TENNESSEE,MILLINGTON,4738053
14418,83213,-88.7293,35.5381,TENNESSEE,JACKSON,4738301
14418,83497,-88.1529,36.2494,TENNESSEE,SPRINGVILLE,4738256
14418,83544,-89.05,36.42,TENNESSEE,UNION CITY,4738261
14418,83549,-89.1886,35.5574,TENNESSEE,WILLOW GROVE,4738012
14418,83549,-89.3,35.42,TENNESSEE,DANCYVILLE,4738069
1111075,5232810,-90.01666999999999,35.13333,TENNESSEE,MEMPHIS,4738104
14418,83209,-88.0384,35.3762,TENNESSEE,SWIFT,4738425
14418,83208,-88.42,36.0,TENNESSEE,HUNTINGDON,4738344
14418,83204,-88.63,35.1134,TENNESSEE,RAMER,4738367
14418,82847,-89.3173,35.3989,TENNESSEE,DANCYVILLE,4738068
14418,82850,-89.0739,35.553000000000004,TENNESSEE,LEIGHTON,4738391
14418,82850,-88.935,35.6467,TENNESSEE,HUNTERSVILLE,4738301
14418,83137,-88.8646,35.6772,TENNESSEE,GILMORE,4738305
1212844,5515662,-84.88333,35.2,TENNESSEE,CLEVELAND,4737312
1212864,5515739,-85.28333,35.05,TENNESSEE,CHATTANOOGA,4737403
1212865,5515740,-84.68333,35.66667,TENNESSEE,TEN MILE,4737880
1187584,5443809,-89.55,35.78333,TENNESSEE,RIPLEY,4738063
14418,83137,-88.7473,35.7325,TENNESSEE,OAKFIELD,4738362
14418,83145,-88.6877,35.7655,TENNESSEE,SPRING CREEK,4738355
14418,83145,-88.6817,35.7682,TENNESSEE,SPRING CREEK,4738305
14418,83190,-88.6123,35.07,TENNESSEE,RAMER,4738367
14418,83190,-88.4872,35.1493,TENNESSEE,PLEASANT SITE,4738379
14418,83199,-88.9088,35.7,TENNESSEE,WINDY CITY,4738305
14418,83201,-88.8375,35.0188,TENNESSEE,MIDDLETON,4738061
14418,83202,-88.9,35.07,TENNESSEE,MIDDLETON,4738052
48407,282770,-87.0721,36.2514,TENNESSEE,SULPHUR SPGS,4737015
1100493,5154867,-83.51666999999999,35.71667,TENNESSEE,PITTMAN CENTER,4737738
1212866,5515741,-85.31667,35.46667,TENNESSEE,PAILO,4737327
1111071,5232464,-88.96667,35.71667,TENNESSEE,ADAIR,4738305
1111071,5232467,-89.21667,35.05,TENNESSEE,LA GRANGE,4738039
1111071,5232468,-89.0,35.26667,TENNESSEE,BOLIVAR,4738008
14418,83203,-88.77,35.8,TENNESSEE,MEDINA,4738355
14418,83554,-88.7003,35.3375,TENNESSEE,MASSEYVILLE,4738340
14418,84569,-89.5832,35.4719,TENNESSEE,CANAAN GROVE,4738049
59805,357068,-84.18,35.87,TENNESSEE,FARRAGUT,4737934
59805,357069,-84.87,35.18,TENNESSEE,CLEVELAND,4737311
1133132,5288288,-87.65,35.78333,TENNESSEE,CENTERVILLE,4737033
1133132,5288287,-87.45,35.8,TENNESSEE,CENTERVILLE,4737033
1133132,5288285,-87.8,36.18333,TENNESSEE,WAVERLY,4737185
1133132,5288283,-87.13333,35.06667,TENNESSEE,MINOR HILL,4738477
1133132,5288282,-87.33333,35.25,TENNESSEE,LAWRENCEBURG,4738464
4408,25004,-87.63,36.12,TENNESSEE,MC EWEN,4737101
4407,25000,-85.68,36.55,TENNESSEE,CELINA,4738575
1133132,5288281,-87.25,35.18333,TENNESSEE,LAWRENCEBURG,4738468
1133132,5288280,-87.33333,35.25,TENNESSEE,LAWRENCEBURG,4738464
1133132,5288181,-87.33333,35.25,TENNESSEE,LAWRENCEBURG,4738464
1133131,5288180,-87.2,35.53333,TENNESSEE,MT PLEASANT,4738474
1111650,5234294,-87.48333000000001,35.3,TENNESSEE,DEERFIELD,4738464
1111650,5234296,-87.2,35.53333,TENNESSEE,MT PLEASANT,4738474
1111650,5234351,-86.58333,36.01667,TENNESSEE,LA VERGNE,4737086
1111650,5234354,-86.13333,36.1,TENNESSEE,WATERTOWN,4737184
1111650,5234355,-86.81667,35.98333,TENNESSEE,FRANKLIN,4737027
1111650,5234363,-86.53333,35.98333,TENNESSEE,SMYRNA,4737167
1111650,5234363,-86.53333,35.98333,TENNESSEE,SMYRNA,4737167
1111650,5234364,-86.21667,36.13333,TENNESSEE,SHOP SPGS,4737184
1133131,5288179,-86.16667,35.71667,TENNESSEE,BRADYVILLE,4737026
1133131,5288179,-86.15,35.71667,TENNESSEE,BRADYVILLE,4737026
1111755,5233593,-85.5,36.66667,TENNESSEE,CELINA,
1187457,5442949,-84.0,35.75,TENNESSEE,MARYVILLE,4737801
1133132,5288290,-86.41667,35.85,TENNESSEE,MURFREESBORO,4737129
1187247,5443621,-85.78333,35.68333,TENNESSEE,SPENCER,4737110
1133133,5288295,-87.63333,36.11667,TENNESSEE,MC EWEN,4737101
1212950,5515762,-89.81667,35.15,TENNESSEE,BARTLETT,4738018
59805,357070,-84.87,35.18,TENNESSEE,CLEVELAND,4737311
59805,357071,-85.05,35.04,TENNESSEE,COLLEGEDALE,4737363
14418,84569,-89.5857,35.4705,TENNESSEE,CANAAN GROVE,4738049
1212872,5515747,-84.53333,35.33333,TENNESSEE,ETOWAH,4737331
1212874,5515749,-84.41667,36.03333,TENNESSEE,COALFIELD,4737840
1212875,5515750,-85.15,35.11667,TENNESSEE,HARRISON,4737416
1212878,5515789,-84.36667,35.86667,TENNESSEE,LENOIR CITY,4737771
14418,84586,-89.5462,35.4951,TENNESSEE,CHARLESTON,4738019
1212879,5515790,-84.88333,35.08333,TENNESSEE,CLEVELAND,4737323
14418,84586,-89.5382,35.5035,TENNESSEE,CHARLESTON,4738019
14418,84599,-89.5241,35.5774,TENNESSEE,ANTIOCH,4738019
14418,84599,-89.5221,35.5813,TENNESSEE,ANTIOCH,4738019
14418,84759,-88.32,35.22,TENNESSEE,CRUMP,4738327
8487,48544,-86.79,35.45,TENNESSEE,LEWISBURG,4737091
8487,48543,-86.45,35.49,TENNESSEE,SHELBYVILLE,4737160
8487,48541,-85.8,35.67,TENNESSEE,MC MINNVILLE,4737110
1212946,5515754,-88.31667,35.8,TENNESSEE,WILDERSVILLE,4738388
1100493,5154867,-83.4,35.76667,TENNESSEE,PITTMAN CENTER,4737876
1100490,5155901,-83.21667,36.53333,TENNESSEE,SNEEDVILLE,4737869
1100485,5155847,-83.28333,36.25,TENNESSEE,MORRISTOWN,4737814
1100484,5155846,-83.5,36.23333,TENNESSEE,CHEROKEE,4737861
1100481,5155843,-85.15,35.11667,TENNESSEE,HARRISON,4737416
1100480,5155842,-85.28333,35.15,TENNESSEE,RED BANK,4737415
1212950,5515764,-89.73333000000001,35.18333,TENNESSEE,CORDOVA,4738016
14418,82847,-89.0739,35.553000000000004,TENNESSEE,WOODLAND,4738391
1187247,5443620,-86.23333000000001,35.36667,TENNESSEE,SPENCER,4737388
1187247,5443618,-85.43333,36.41667,TENNESSEE,QUEBECK,4738568
60486,361172,-84.13,36.02,TENNESSEE,EDGEMOOR,4737849
60486,361173,-84.13,36.09,TENNESSEE,SOUTH CLINTON,4737716
49093,291946,-84.1047,36.1405,TENNESSEE,CLINTON,4737716
60486,365151,-83.7746,36.025,TENNESSEE,WOODDALE,4737924
60486,365152,-84.1678,35.9253,TENNESSEE,BYRDS CHAPEL,4737932
49093,291947,-82.68,36.22,TENNESSEE,CHUCKEY,4737641
49093,291949,-83.22,36.53,TENNESSEE,SNEEDVILLE,4737869
49093,291955,-82.4341,36.3,TENNESSEE,JONESBORO,4737659
60486,365152,-84.1722,35.9228,TENNESSEE,BYRDS CHAPEL,4737932
49093,291956,-82.75,36.17,TENNESSEE,TUSCULUM,4737745
60486,361171,-84.34,36.04,TENNESSEE,OLIVER SPGS,4737840
49093,291957,-82.42,36.15,TENNESSEE,ERWIN,4737650
49093,291970,-83.15,35.82,TENNESSEE,HARTFORD,4737753
60486,366728,-83.6356,36.5947,TENNESSEE,CUMBERLAND GAP,4737752
49093,303792,-82.3846,36.3099,TENNESSEE,EMBREEVILLE JCT,4737604
49093,303792,-82.3923,36.3037,TENNESSEE,MC KINLEY,4737604
49093,303811,-82.3021,36.2934,TENNESSEE,MILLIGAN COLLEGE,4737601
49093,303811,-82.3174,36.2971,TENNESSEE,MILLIGAN COLLEGE,4737601
49093,303819,-82.5568,36.0424,TENNESSEE,ROCKY FORK,4737657
49093,303819,-82.5393,36.0477,TENNESSEE,ROCKY FORK,4737657
1179622,5422046,-88.4,35.23333,TENNESSEE,ADAMSVILLE,4738310
1179630,5422115,-89.78333,35.15,TENNESSEE,CORDOVA,4738018
49093,291961,-83.57,35.9568,TENNESSEE,SEVIERVILLE,4737764
60486,361170,-84.13,36.58,TENNESSEE,OSWEGO,4737762
60486,361169,-84.86,35.11,TENNESSEE,WATERVILLE,4737323
60486,361168,-84.98,35.11,TENNESSEE,MC DONALD,4737353
60386,372204,-85.1045,36.3848,TENNESSEE,MANSON,4738556
60386,372204,-85.0126,36.4055,TENNESSEE,BOATLAND,4738556
60415,360678,-89.78,35.43,TENNESSEE,ATOKA,4738004
60415,361317,-88.3925,35.585,TENNESSEE,CENTER HILL,4738351
60415,361317,-88.2692,35.6419,TENNESSEE,CHESTERFIELD,4738351
49093,291941,-81.8421,36.57,TENNESSEE,LAUREL BLOOMERY,4737688
49093,291943,-83.0,36.4,TENNESSEE,ROGERSVILLE,4737857
14418,84759,-88.35,35.32,TENNESSEE,MORRIS CHAPEL,4738361
60486,361095,-85.63,35.06,TENNESSEE,GLOVER HILL,4737347
60486,361141,-84.53,35.33,TENNESSEE,ETOWAH,4737331
60486,361144,-85.2,35.61,TENNESSEE,PIKEVILLE,4737367
60486,361146,-84.27,35.8,TENNESSEE,HIGHLAND PARK,4737771
60486,361152,-85.71,35.02,TENNESSEE,SOUTH PITTSBURG,4737380
60486,361153,-85.67,35.03,TENNESSEE,ANTIOCH,4737347
60486,361156,-85.63,35.06,TENNESSEE,GLOVER HILL,4737347
60486,361158,-84.13,36.58,TENNESSEE,OSWEGO,4737762
60486,361159,-84.55,35.51,TENNESSEE,NIOTA,4737826
60486,361160,-85.29,35.11,TENNESSEE,LUPTON CITY,4737415
60486,361163,-85.26,35.07,TENNESSEE,CHICKAMAUGA,4737406
60486,361164,-85.26,35.07,TENNESSEE,CHICKAMAUGA,4737406
60486,361165,-85.14,35.06,TENNESSEE,SILVERDALE,4737421
60486,361166,-83.97,35.75,TENNESSEE,MARYVILLE,4737803
60486,361167,-84.51,36.5,TENNESSEE,ONEIDA,4737841
49245,288468,-84.99,36.43,TENNESSEE,HELENA,4738556
60386,369877,-85.4673,36.302,TENNESSEE,WATERLOO,4738506
49245,288471,-84.94,36.43,TENNESSEE,JAMESTOWN,4738556
49245,288477,-85.25,36.45,TENNESSEE,MONROE,4738573
49245,290011,-86.09299999999999,36.099000000000004,TENNESSEE,HOLMES GAP,4737184
49245,290011,-86.001,36.065,TENNESSEE,COTTAGE HOME,4737012
49245,290014,-85.49,35.913000000000004,TENNESSEE,SPARTA,4738583
49245,290014,-85.639,35.96,TENNESSEE,CASSVILLE,4738583
49245,293747,-86.1,35.95,TENNESSEE,AUBURNTOWN,4737016
49246,288542,-87.74,35.53,TENNESSEE,SUGAR HILL,4737096
49246,288545,-87.56,35.44,TENNESSEE,VOORHIES,4738462
49246,288546,-86.26,35.45,TENNESSEE,NORMANDY,4737360
49246,288550,-87.44,35.08,TENNESSEE,LORETTO,4738469
49246,288554,-87.3386,35.1953,TENNESSEE,DUNN,4738468
49245,290008,-86.4354,35.7189,TENNESSEE,CHRISTIANA,4737037
49246,288555,-87.5041,35.0353,TENNESSEE,ST JOSEPH,4738481
1112988,5239647,-86.83333,36.13333,TENNESSEE,NASHVILLE,4737205
1112988,5239747,-87.11667,36.1,TENNESSEE,KINGSTON SPGS,4737082
1112988,5239751,-86.68333,36.13333,TENNESSEE,NASHVILLE METRO ARPT,4737214
4260,23903,-84.3,35.96,TENNESSEE,OAK RIDGE,4737830
4259,23901,-82.83,36.33,TENNESSEE,BAILEYTON,4737745
1179822,5421739,-87.63333,36.11667,TENNESSEE,MC EWEN,4737101
1179822,5421740,-88.08333,36.23333,TENNESSEE,BIG SANDY,4738221
4214,23616,-86.11,35.19,TENNESSEE,WINCHESTER,4737398
4214,23615,-86.1089,35.1891,TENNESSEE,WINCHESTER,4737398
14418,84766,-88.9549,35.6354,TENNESSEE,HUNTERSVILLE,4738301
49246,288557,-86.08,35.47,TENNESSEE,MANCHESTER,4737355
49245,290008,-86.4473,35.7295,TENNESSEE,CRESCENT,4737128
49245,288533,-85.5,36.55,TENNESSEE,CELINA,4738551
49245,288531,-85.4145,35.9934,TENNESSEE,YANKEETOWN,4738583
60486,366728,-83.6789,36.5827,TENNESSEE,FIBRE,4737724
60486,372674,-84.8976,35.5165,TENNESSEE,WASHINGTON,4737321
60486,372674,-84.94200000000001,35.5031,TENNESSEE,DAYTON ARPT,4737321
60486,372675,-85.5332,35.0491,TENNESSEE,GUILD,4737340
60486,372675,-85.5416,35.05,TENNESSEE,GUILD,4737347
60486,372686,-85.53299999999999,35.0471,TENNESSEE,GUILD,4737340
60486,372686,-85.5362,35.0475,TENNESSEE,GUILD,4737340
60486,373771,-83.5322,36.5815,TENNESSEE,UNION,4737752
60486,373771,-83.4922,36.5972,TENNESSEE,BIG SPG,4737752
60486,374002,-85.1608,35.128,TENNESSEE,BARTLEBAUGH,4737416
60486,374002,-85.0051,35.1733,TENNESSEE,SNOW HILL,4737363
60486,374045,-84.7154,35.2306,TENNESSEE,HAUN MILL,4737310
60486,374045,-85.0051,35.1733,TENNESSEE,BAUGH SPG,4737363
60486,374085,-84.3061,35.3681,TENNESSEE,TELLICO PLAINS,4737385
60486,374085,-84.0683,35.441,TENNESSEE,CALDERWOOD DAM,4737885
60486,374103,-84.5871,35.2672,TENNESSEE,DELANO,4737325
60486,374103,-84.7154,35.2306,TENNESSEE,PATTY,4737310
60486,374118,-84.4721,35.3126,TENNESSEE,CONASAUGA,4737331
60486,374118,-84.5871,35.2672,TENNESSEE,COGHILL,4737325
49245,288510,-86.6327,36.1562,TENNESSEE,DONELSON,4737214
14418,84766,-88.9846,35.6199,TENNESSEE,HUNTERSVILLE,4738301
49245,288527,-86.5094,36.1824,TENNESSEE,MT JULIET,4737122
49245,288528,-85.04,35.98,TENNESSEE,OAK HILL,4738555
49245,288474,-86.03,36.12,TENNESSEE,BRUSH CREEK,4738547
60386,369877,-85.3504,36.3328,TENNESSEE,OKALONA,4738570
60386,369876,-85.4929,36.2898,TENNESSEE,COOKEVILLE ARPT,4738501
60386,369876,-85.4673,36.302,TENNESSEE,JEREMIAH,4738506
1187245,5443530,-85.03333,35.95,TENNESSEE,CROSSVILLE,4738555
1187245,5443529,-85.01666999999999,35.78333,TENNESSEE,CRAB ORCHARD,4738555
49084,287654,-83.25,36.34,TENNESSEE,MOORESBURG,4737811
60333,360275,-83.0,36.4,TENNESSEE,ROGERSVILLE,4737857
60386,362582,-88.0,36.06,TENNESSEE,EVA,4738333
60386,362583,-86.7845,36.1654,TENNESSEE,NASHVILLE,4737219
60386,362584,-86.6923,36.2032,TENNESSEE,NASHVILLE CORNELIA F,4737214
60386,362586,-86.8698,36.311,TENNESSEE,JOELTON,4737080
60386,362587,-86.3077,36.3931,TENNESSEE,CASTALIAN SPGS,4737031
60386,362588,-86.38,35.44,TENNESSEE,SINGLETON,4737160
1173244,5405944,-88.48333000000001,36.38333,TENNESSEE,COTTAGE GROVE,4738224
60386,362589,-86.3326,35.5094,TENNESSEE,BUGSCUFFLE,4737183
60386,362591,-86.1754,35.5353,TENNESSEE,CALHOUN,4737355
1133129,5287989,-85.18333,35.96667,TENNESSEE,PLEASANT HILL,4738572
1133128,5289654,-87.0,35.38333,TENNESSEE,LYNNVILLE,4738472
1133128,5289505,-86.71667,36.31667,TENNESSEE,GOODLETTSVILLE,4737072
1133128,5289504,-87.41667,35.25,TENNESSEE,LAWRENCEBURG,4738464
1092588,5135590,-84.33333,36.05,TENNESSEE,OLIVER SPGS,4737840
1092596,5135607,-87.51666999999999,35.4,TENNESSEE,LAWRENCEBURG,4738462
1092596,5135691,-85.03333,35.95,TENNESSEE,CROSSVILLE,4738555
1092596,5135692,-85.03333,35.95,TENNESSEE,CROSSVILLE,4738555
1092596,5135693,-86.8,35.45,TENNESSEE,LEWISBURG,4737091
60386,362590,-86.1864,35.5659,TENNESSEE,NOAH,4737355
1187246,5443531,-87.9,35.26667,TENNESSEE,WAYNESBORO,4738485
1187246,5443532,-87.11667,35.98333,TENNESSEE,FAIRVIEW,4737062
1187246,5443533,-86.81667,36.1,TENNESSEE,OAK HILL,4737215
1187247,5443617,-85.86667,35.71667,TENNESSEE,DOYLE,4737110
1187247,5443616,-85.31667,36.38333,TENNESSEE,BYRDSTOWN,4738570
1187247,5443615,-85.63333,36.15,TENNESSEE,GRIMSLEY,4738544
1187247,5443613,-87.35,36.53333,TENNESSEE,SPARTA,4737040
1187247,5443612,-86.46667,36.46667,TENNESSEE,GRIMSLEY,4737066
1187247,5443611,-85.13333,36.56667,TENNESSEE,MC MINNVILLE,4738549
1187247,5443610,-85.23333000000001,36.1,TENNESSEE,DOYLE,4738574
1187247,5443609,-85.46667,35.75,TENNESSEE,TULLAHOMA,4738585
1173244,5405946,-88.15,36.25,TENNESSEE,SPRINGVILLE,4738256
1173244,5405945,-88.31667,36.31667,TENNESSEE,PARIS,4738242
1173244,5405945,-88.3,36.3,TENNESSEE,PARIS,4738242
1187247,5443608,-85.46667,35.75,TENNESSEE,MC MINNVILLE,4738585
1187247,5443607,-85.71667,35.33333,TENNESSEE,TULLAHOMA,4737313
1187247,5443606,-85.56667,35.81667,TENNESSEE,MC MINNVILLE,4738579
1187247,5443605,-85.5,35.85,TENNESSEE,HILHAM,4738559
1187247,5443604,-85.08333,36.53333,TENNESSEE,MC MINNVILLE,4738549
1187247,5443603,-84.98333000000001,36.26667,TENNESSEE,LIVINGSTON,4738565
1187247,5443542,-85.46667,35.93333,TENNESSEE,BAXTER,4738583
1187247,5443541,-85.46667,35.93333,TENNESSEE,BEECH GROVE,4738583
1187247,5443540,-84.98333000000001,36.26667,TENNESSEE,CLARKSVILLE,4738565
1187246,5443536,-88.1,35.91667,TENNESSEE,HOLLADAY,4738341
1187246,5443535,-86.7,36.55,TENNESSEE,CROSS PLAINS,4737049
1187246,5443534,-87.33333,35.88333,TENNESSEE,CENTERVILLE,4737098
49084,287656,-83.0206,36.3599,TENNESSEE,ROGERSVILLE,4737857
49084,287659,-85.38,35.3511,TENNESSEE,DUNLAP,4737327
49084,287671,-84.77,35.28,TENNESSEE,CHARLESTON,4737310
49084,287675,-84.59,35.46,TENNESSEE,ATHENS,4737303
60386,364437,-86.3601,36.1845,TENNESSEE,LEBANON ARPT,4737090
60386,364444,-86.1412,36.1999,TENNESSEE,TUCKERS XRDS,4737090
60386,364445,-86.32,36.24,TENNESSEE,WEST END HGTS,4737087
60386,364446,-85.9522,36.2534,TENNESSEE,SOUTH CARTHAGE,4737030
60386,364448,-86.18,36.2,TENNESSEE,TUCKERS XRDS,4737090
60386,364449,-87.1367,35.582,TENNESSEE,DUKES STORE,4738401
60386,364450,-87.3,35.32,TENNESSEE,ETHRIDGE,4738456
60386,364451,-86.45,35.49,TENNESSEE,SHELBYVILLE,4737160
60386,364452,-87.3039,35.3247,TENNESSEE,ETHRIDGE,4738456
60386,364453,-86.21,35.57,TENNESSEE,NOAH,4737355
60386,364454,-87.2,35.4,TENNESSEE,YOKLEY,4738483
60386,364455,-86.23,35.56,TENNESSEE,NOAH,4737355
60386,364456,-86.82,35.45,TENNESSEE,LEWISBURG,4737091
60386,364457,-86.55,35.41,TENNESSEE,RICHMOND,4737160
60386,364458,-85.1073,35.8766,TENNESSEE,LANTANA,4738572
60386,364459,-87.01,35.38,TENNESSEE,WACO,4738472
60386,364460,-85.45,35.74,TENNESSEE,SPENCER,4738585
60386,367960,-85.5537,36.2695,TENNESSEE,MT UNION,4738501
60386,367960,-85.4929,36.2898,TENNESSEE,MT UNION,4738501
60386,368123,-87.1101,36.0977,TENNESSEE,KINGSTON SPGS,4737082
60386,368123,-87.1214,36.0973,TENNESSEE,KINGSTON SPGS,4737082
60386,369143,-86.7886,36.1531,TENNESSEE,NASHVILLE,4737203
60386,369146,-87.7651,35.2511,TENNESSEE,SOUTH HIGHLAND,4738485
60386,364427,-87.3453,35.2854,TENNESSEE,FLATWOODS,4738464
1187247,5443619,-85.78333,35.71667,TENNESSEE,COALMONT,4737110
60386,364423,-86.5094,36.1677,TENNESSEE,MT JULIET,4737122
60386,364413,-86.57,36.17,TENNESSEE,STONE RIVER,4737076
60386,363431,-87.35,36.56,TENNESSEE,CLARKSVILLE,4737040
49093,291938,-82.47,36.3,TENNESSEE,JONESBORO,4737659
60386,363432,-87.4874,36.4825,TENNESSEE,DOTSONVILLE,4737191
60386,363433,-87.38,36.08,TENNESSEE,DICKSON,4737055
60386,363434,-87.29,36.08,TENNESSEE,BAKERSWORKS,4737029
60386,363435,-87.346,36.0621,TENNESSEE,COLESBURG,4737055
60386,363436,-87.3839,36.0763,TENNESSEE,DICKSON,4737055
60386,363437,-86.86,36.11,TENNESSEE,BELLE MEADE,4737205
60386,363438,-86.9528,36.0818,TENNESSEE,BELLEVUE,4737221
60386,363439,-86.9393,36.0648,TENNESSEE,BELLEVUE,4737221
60386,363440,-86.85,36.11,TENNESSEE,BELLE MEADE,4737205
60386,364336,-86.77,36.17,TENNESSEE,NASHVILLE,4737213
60386,364337,-86.7589,36.099000000000004,TENNESSEE,BERRY HILL,4737204
60386,364338,-86.87,36.1,TENNESSEE,BELLE MEADE,4737205
60386,364339,-86.7987,36.1043,TENNESSEE,OAK HILL,4737204
60386,364340,-86.7979,36.17,TENNESSEE,NASHVILLE,4737208
60386,364341,-86.78,36.17,TENNESSEE,NASHVILLE,4737201
60386,364343,-86.78,36.17,TENNESSEE,NASHVILLE,4737201
60386,364345,-86.77,36.12,TENNESSEE,BERRY HILL,4737204
60386,364346,-86.78,36.12,TENNESSEE,BERRY HILL,4737204
60386,364347,-86.6708,36.1249,TENNESSEE,(BNA)NASHVILLE METRO,4737214
60386,364406,-86.8077,36.1528,TENNESSEE,NASHVILLE,4737203
60386,364409,-86.6722,36.0602,TENNESSEE,ANTIOCH,4737013
60386,364418,-86.32,36.21,TENNESSEE,WEST END HGTS,4737087
1212839,5515657,-84.86667,35.7,TENNESSEE,SPRING CITY,4737381
1212837,5515655,-82.18333,36.58333,TENNESSEE,BRISTOL,4737620
14418,82841,-89.3712,35.3697,TENNESSEE,YUM YUM,4738068
10861,60127,-85.6132,36.2164,TENNESSEE,UNION HILL,4738545
10861,60127,-85.6126,36.216,TENNESSEE,UNION HILL,4738545
56840,340553,-88.42,36.0,TENNESSEE,HUNTINGDON,4738344
56693,339683,-83.98,35.8,TENNESSEE,ALCOA,4737701
56683,339679,-83.62,35.97,TENNESSEE,KODAK,4737764
1189175,5451162,-88.05,35.06667,TENNESSEE,WALNUT GROVE,4738372
135086,809627,-86.17200000000001,35.9296,TENNESSEE,MILTON,4737118
135086,809627,-86.189,35.9203,TENNESSEE,MILTON,4737118
56493,338811,-87.84,36.48,TENNESSEE,DOVER,4737058
135086,809852,-86.1873,36.1987,TENNESSEE,TUCKERS XRDS,4737087
10861,60128,-85.5583,36.0156,TENNESSEE,BAKERS XRDS,4738583
135086,809852,-86.1748,36.208,TENNESSEE,TUCKERS XRDS,4737090
135426,812122,-88.2473,35.0808,TENNESSEE,PYBURNS,4738372
135426,812123,-88.25,35.1866,TENNESSEE,SAVANNAH,4738372
135426,812123,-88.2239,35.196,TENNESSEE,MADDOX,4738372
41099,240096,-86.92,35.74,TENNESSEE,SPRING HILL,4737174
41102,240645,-84.9683,35.9603,TENNESSEE,DORTON,4738571
41105,240672,-85.17,36.49,TENNESSEE,MIDWAY,4738573
41108,243465,-86.7267,36.0807,TENNESSEE,PROVIDENCE,4737211
41108,243469,-86.7592,36.0748,TENNESSEE,TUSCULUM,4737211
