EPISODE_ID,EVENT_ID,LONGITUDE,LATITUDE,STATE,LOCATION,ZIPCODE
1095321,5145229,-90.23333000000001,42.56667,WISCONSIN,SHULLSBURG,5553586
63678,381080,-90.65,46.33,WISCONSIN,MELLEN,5554546
63823,381898,-89.05,44.73,WISCONSIN,TIGERTON,5554486
63678,381082,-90.09,45.7,WISCONSIN,DOVER,
63830,381994,-89.71,45.61,WISCONSIN,CASSIAN,5554487
63830,381995,-89.19,44.88,WISCONSIN,ELAND,5554427
63830,381996,-89.98,45.45,WISCONSIN,SPIRIT FALLS,5554487
63830,381997,-89.3,45.82,WISCONSIN,ROBBINS,5554521
63830,381998,-89.21,46.04,WISCONSIN,CONOVER,5554519
63830,381999,-88.66,45.43,WISCONSIN,WABENO,5554566
63830,382000,-88.66,45.44,WISCONSIN,WABENO,5554566
63830,382001,-88.0,45.5,WISCONSIN,AMBERG,5554102
63830,382002,-88.04,43.91,WISCONSIN,KIEL,5553042
63881,382491,-90.13,44.45,WISCONSIN,PITTSVILLE,5554466
63883,382494,-89.51,44.13,WISCONSIN,HANCOCK,5554943
63883,382495,-88.4441,44.3042,WISCONSIN,APPLETON,5554913
63883,382496,-88.1263,44.5534,WISCONSIN,HOWARD,5554313
38691,244360,-88.9,43.08,WISCONSIN,LAKE MILLS,5553551
38691,243247,-89.7797,43.27,WISCONSIN,SAUK CITY,5553583
38691,224431,-89.07,43.0934,WISCONSIN,DEERFIELD,5553531
38691,224431,-89.0701,43.0499,WISCONSIN,DEERFIELD,5553531
63830,381993,-89.88,45.96,WISCONSIN,LAC DU FLAMBEAU,5554538
63678,381081,-90.29,45.54,WISCONSIN,PRENTICE,5554556
63830,381992,-89.96,45.45,WISCONSIN,SPIRIT FALLS,5554487
63829,381970,-88.55,44.01,WISCONSIN,OSHKOSH,5554902
63678,381083,-90.47,45.64,WISCONSIN,PHILLIPS,5554555
63694,381149,-92.38,45.78,WISCONSIN,SIREN,5554872
63694,381150,-92.38,45.78,WISCONSIN,SIREN,5554872
63694,381151,-92.3,45.86,WISCONSIN,WEBSTER,5554893
63694,381152,-91.36,46.75,WISCONSIN,PORT WING,5554865
63694,381153,-92.06,46.7,WISCONSIN,EAST END,5554880
63694,381154,-91.26,46.76,WISCONSIN,HERBSTER,5554844
63694,381454,-92.1,46.72,WISCONSIN,SUPERIOR,5554880
63694,381455,-91.38,46.77,WISCONSIN,PORT WING,5554865
63823,381895,-89.56,44.51,WISCONSIN,PARK RIDGE,5554481
63823,381896,-88.75,44.61,WISCONSIN,CLINTONVILLE,5554929
63823,381897,-89.01,44.7,WISCONSIN,SPLIT ROCK,5554486
1095321,5145233,-88.88333,42.81667,WISCONSIN,MILTON,5553563
63823,381899,-88.75,44.61,WISCONSIN,CLINTONVILLE,5554929
63823,381918,-89.9,44.32,WISCONSIN,NEKOOSA,5554457
63829,381968,-90.13,44.73,WISCONSIN,RIVERSIDE,5554449
63829,381969,-89.68,44.91,WISCONSIN,(AUW)WAUSAW MUNI ARP,5554401
63829,384778,-90.0,44.63,WISCONSIN,AUBURNDALE,5554412
1095321,5145234,-88.7,42.93333,WISCONSIN,HEBRON,5553538
115179,691528,-88.9,43.47,WISCONSIN,BEAVER DAM ARPT,5553916
1095323,5143892,-88.71667,43.2,WISCONSIN,WATERTOWN,5553098
1215739,5519755,-89.33333,43.96667,WISCONSIN,BUDSIN,5554960
1215739,5519757,-87.78333,43.73333,WISCONSIN,KOHLER,5553081
1215740,5519760,-89.36667,43.53333,WISCONSIN,PARDEEVILLE,5553954
1215740,5519848,-89.48333000000001,43.11667,WISCONSIN,MADISON,5553562
1215740,5519937,-89.43333,42.7,WISCONSIN,ALBANY,5553502
1215741,5519945,-90.08333,43.46667,WISCONSIN,LOGANVILLE,5553959
1215741,5520009,-90.0,43.53333,WISCONSIN,REEDSBURG,5553959
1215741,5520010,-89.98333000000001,43.4,WISCONSIN,LOGANVILLE,5553943
1215741,5520011,-89.83333,43.28333,WISCONSIN,PRAIRIE DU SAC,5553578
1215741,5520012,-89.6,43.5,WISCONSIN,BARABOO,5553901
1215741,5520013,-89.61667,43.58333,WISCONSIN,WISCONSIN DELLS,5553901
1215741,5520014,-89.86667,42.7,WISCONSIN,ARGYLE,5553504
1215741,5520015,-89.88333,42.53333,WISCONSIN,SOUTH WAYNE,5553587
1215741,5520016,-90.08333,42.85,WISCONSIN,MINERAL PT,5553565
1215741,5520018,-89.45,43.15,WISCONSIN,WAUNAKEE,5553597
1215741,5520019,-90.0,42.53333,WISCONSIN,SOUTH WAYNE,5553541
1215741,5520020,-87.95,43.05,WISCONSIN,WAUWATOSA,5553208
1215741,5520020,-87.95,43.0,WISCONSIN,WAUWATOSA,5553215
1215744,5520267,-88.0,43.66667,WISCONSIN,CASCADE,5553011
1215744,5520278,-87.86667,42.68333,WISCONSIN,STURTEVANT,5553406
63039,383716,-92.79,44.75,WISCONSIN,PRESCOTT,5554021
63036,377481,-92.63,45.41,WISCONSIN,ST CROIX FALLS,5554024
63036,377480,-92.5493,45.1407,WISCONSIN,NEW RICHMOND ARPT,5554017
63036,377479,-91.6,45.59,WISCONSIN,MIKANA,5554857
63036,377478,-91.74,45.5,WISCONSIN,RICE LAKE,5554868
63036,377477,-91.75,45.52,WISCONSIN,RICE LAKE,5554868
39419,229070,-88.2105,43.4735,WISCONSIN,WEST BEND,5553040
39419,229071,-88.18,43.42,WISCONSIN,WEST BEND,5553095
39419,229072,-89.47,43.0626,WISCONSIN,SHOREWOOD HILLS,5553705
1215739,5519748,-87.81667,43.5,WISCONSIN,BELGIUM,5553004
1215739,5519747,-88.38333,43.31667,WISCONSIN,HARTFORD,5553027
1215739,5519746,-87.85,43.73333,WISCONSIN,SHEBOYGAN FALLS,5553085
1215739,5519745,-88.33333,43.63333,WISCONSIN,CAMPBELLSPORT,5553010
1215736,5519513,-89.76666999999999,43.65,WISCONSIN,WISCONSIN DELLS,5553965
1215736,5519516,-88.95,43.83333,WISCONSIN,GREEN LAKE,5554941
1215736,5519517,-88.76666999999999,43.83333,WISCONSIN,RIPON,5554971
1215736,5519517,-88.83333,43.83333,WISCONSIN,RIPON,5554971
1215737,5519579,-88.8,43.68333,WISCONSIN,ALTO,5553919
1215738,5519581,-88.15,43.06667,WISCONSIN,BROOKFIELD,5553045
1215738,5519582,-88.08333,43.05,WISCONSIN,ELM GROVE,5553122
1215738,5519584,-87.96667,43.0,WISCONSIN,WEST ALLIS,5553219
1215738,5519586,-88.0,42.98333,WISCONSIN,WEST ALLIS,5553219
1215738,5519587,-87.95,43.0,WISCONSIN,WEST ALLIS,5553215
1215738,5519588,-87.96667,43.03333,WISCONSIN,MILWAUKEE,5553208
1215738,5519589,-87.96667,43.0,WISCONSIN,WEST ALLIS,5553219
1215738,5519590,-87.86667,42.85,WISCONSIN,OAK CREEK,5553154
1215738,5519591,-88.05,42.96667,WISCONSIN,MILWAUKEE,5553228
39419,229073,-89.2599,43.0888,WISCONSIN,MADISON TRUAX AIRPORT,5553718
1215738,5519592,-87.96667,43.0,WISCONSIN,WEST ALLIS,5553219
1215738,5519660,-88.15,43.06667,WISCONSIN,BROOKFIELD,5553045
1215738,5519661,-88.16667,43.05,WISCONSIN,BROOKFIELD,5553045
1215738,5519662,-88.15,43.06667,WISCONSIN,BROOKFIELD,5553045
1215738,5519663,-88.43333,42.95,WISCONSIN,NORTH PRAIRIE,5553118
1215738,5519664,-88.4,42.93333,WISCONSIN,NORTH PRAIRIE,5553153
1215738,5519666,-87.83333,42.58333,WISCONSIN,KENOSHA,5553140
1215739,5519671,-88.18333,43.65,WISCONSIN,DUNDEE,5553010
1215739,5519736,-88.06667,43.53333,WISCONSIN,BOLTONVILLE,5553040
1215739,5519737,-89.21667,43.96667,WISCONSIN,NESHKORO,5554960
1215739,5519738,-89.36667,43.96667,WISCONSIN,WESTFIELD,5554982
1215739,5519739,-89.0,43.96667,WISCONSIN,BERLIN,5554923
1215739,5519741,-88.68333,43.8,WISCONSIN,ROSENDALE,5554974
1215739,5519743,-89.1,43.55,WISCONSIN,CAMBRIA,5553923
1215739,5519744,-89.06667,43.6,WISCONSIN,FRIESLAND,5553956
1215738,5519595,-89.3,43.03333,WISCONSIN,MC FARLAND,5553558
1215736,5519511,-89.78333,43.58333,WISCONSIN,LAKE DELTON,5553913
39419,229074,-89.3848,43.3733,WISCONSIN,POYNETTE,5553911
39419,229076,-89.616,43.1302,WISCONSIN,CROSS PLAINS,5553528
1190437,5451585,-88.45,43.78333,WISCONSIN,MADISON,5554935
1190437,5451584,-88.36667,43.95,WISCONSIN,FOND DU LAC,
1190437,5451583,-88.25,43.65,WISCONSIN,WATERTOWN,5553010
39462,229281,-90.8286,43.3361,WISCONSIN,STAR VLY,5554631
39462,229281,-90.7531,43.3257,WISCONSIN,ROLLING GROUND,5554631
1216277,5524651,-88.18333,44.88333,WISCONSIN,OCONTO FALLS,5554154
1216277,5524651,-88.3,44.88333,WISCONSIN,OCONTO FALLS,5554124
1216277,5524652,-87.43333,44.61667,WISCONSIN,ALGOMA,5554201
1216277,5524653,-87.43333,44.61667,WISCONSIN,ALGOMA,5554201
1216277,5524654,-89.15,44.0,WISCONSIN,REDGRANITE,5554960
1216277,5524655,-88.85,44.0,WISCONSIN,EUREKA,5554923
1216277,5524656,-88.05,44.15,WISCONSIN,REEDSVILLE,5554110
1216277,5524657,-88.1,44.11667,WISCONSIN,POTTER,5554129
1216277,5524658,-87.76666999999999,44.15,WISCONSIN,BRANCH,5554247
1216277,5524658,-87.66667,44.08333,WISCONSIN,BRANCH,5554220
1216277,5524660,-88.53333,45.05,WISCONSIN,KESHENA,5554174
1216277,5524661,-88.38333,45.0,WISCONSIN,HAYES,5554174
1216277,5524661,-88.3,45.01667,WISCONSIN,HAYES,5554174
1216278,5523919,-88.9,45.56667,WISCONSIN,CRANDON,5554520
1216278,5523921,-88.13333,45.23333,WISCONSIN,CRIVITZ,5554114
1216278,5523922,-88.03333,45.1,WISCONSIN,POUND,5554161
1216278,5523922,-88.03333,45.08333,WISCONSIN,POUND,5554161
1216279,5523986,-87.76666999999999,45.21667,WISCONSIN,PORTERFIELD,5554159
1216280,5523988,-87.75,43.91667,WISCONSIN,CLEVELAND,5553015
1216280,5523989,-87.35,44.95,WISCONSIN,EGG HARBOR,5554235
1216280,5523989,-87.28333,45.03333,WISCONSIN,EGG HARBOR,5554209
1216280,5523990,-87.13333,45.06667,WISCONSIN,EPHRAIM,5554202
1216280,5523990,-87.16667,45.15,WISCONSIN,EPHRAIM,5554211
1216280,5523991,-87.55,44.43333,WISCONSIN,KEWAUNEE,5554216
1190437,5451585,-88.55,43.78333,WISCONSIN,MADISON,5554932
1190437,5451586,-88.83333,43.41667,WISCONSIN,MC FARLAND,5553916
1190437,5451587,-88.8,43.33333,WISCONSIN,WAUNAKEE,5553557
1190437,5451587,-88.71667,43.31667,WISCONSIN,WAUNAKEE,5553039
1190440,5451618,-88.83333,43.23333,WISCONSIN,RICHWOOD,5553098
1190440,5451617,-88.98333000000001,43.18333,WISCONSIN,WATERLOO,5553594
1190440,5451616,-89.48333000000001,43.01667,WISCONSIN,MADISON,5553719
1190440,5451615,-89.45,43.51667,WISCONSIN,PORTAGE,5553901
1190440,5451614,-89.48333000000001,43.55,WISCONSIN,PORTAGE,5553901
1190440,5451613,-89.03333,42.51667,WISCONSIN,BELOIT,5553511
1190440,5451612,-89.2,42.56667,WISCONSIN,BELOIT,5553511
1190440,5451610,-89.1,42.61667,WISCONSIN,AFTON,5553548
1190440,5451609,-89.05,42.66667,WISCONSIN,JANESVILLE,5553548
1190440,5451608,-89.01666999999999,42.66667,WISCONSIN,JANESVILLE,5553546
1190440,5451607,-89.06667,42.6,WISCONSIN,AFTON,5553511
1190440,5451606,-89.01666999999999,42.68333,WISCONSIN,JANESVILLE,5553545
1190440,5451604,-89.36667,42.61667,WISCONSIN,BRODHEAD,5553520
1190440,5451602,-89.2,42.66667,WISCONSIN,FOOTVILLE,5553548
39419,229075,-89.12,42.998999999999995,WISCONSIN,UTICA,5553523
1190438,5451599,-88.76666999999999,43.23333,WISCONSIN,RICHWOOD,5553098
1190437,5454005,-88.98333000000001,43.18333,WISCONSIN,FOND DU LAC,5553594
1190437,5454004,-88.98333000000001,42.91667,WISCONSIN,PIPE,5553538
1190437,5454003,-88.33333,42.86667,WISCONSIN,WAUCOUSTA,5553149
1190437,5451597,-88.46667,43.0,WISCONSIN,LAKE MILLS,5553118
1190437,5451596,-88.48333000000001,43.11667,WISCONSIN,WATERLOO,5553066
1190437,5451595,-89.03333,42.9,WISCONSIN,BUSSEYVILLE,5553534
1190437,5451594,-89.2,43.01667,WISCONSIN,MUKWONAGO,5553527
1190437,5451593,-89.21667,42.91667,WISCONSIN,NORTH PRAIRIE,5553589
1190437,5451592,-89.45,43.18333,WISCONSIN,DOUSMAN,5553597
1190437,5451591,-89.25,43.01667,WISCONSIN,OCONOMOWOC,5553558
1190437,5451590,-89.36667,43.1,WISCONSIN,ALBION,5553704
1190437,5451590,-89.38333,43.13333,WISCONSIN,ALBION,5553704
1190437,5451589,-88.45,43.78333,WISCONSIN,MC FARLAND,5554935
1190437,5451588,-88.7,43.21667,WISCONSIN,STOUGHTON,5553098
1190437,5454006,-88.9,43.1,WISCONSIN,BEAVER DAM,5553551
1095323,5143891,-87.8,42.71667,WISCONSIN,RACINE,5553403
1215736,5519508,-88.93333,43.73333,WISCONSIN,MARQUETTE,5553946
1215736,5519504,-89.33333,43.75,WISCONSIN,GLENOAK,5553949
39071,245471,-88.2148,42.9102,WISCONSIN,BIG BEND,5553103
39071,246626,-88.0649,42.8433,WISCONSIN,FRANKLIN,5553126
1095325,5143908,-88.53333,42.98333,WISCONSIN,SULLIVAN,5553118
1095325,5143913,-88.05,42.68333,WISCONSIN,UNION GROVE,5553182
1095326,5143916,-89.96667,43.55,WISCONSIN,REEDSBURG,5553959
1095326,5144812,-89.88333,43.58333,WISCONSIN,LAKE DELTON,5553965
1095326,5144813,-89.43333,43.96667,WISCONSIN,WESTFIELD,5553964
1095326,5144813,-89.16667,43.96667,WISCONSIN,WESTFIELD,5554960
1095326,5144814,-89.0,43.96667,WISCONSIN,BERLIN,5554923
1095326,5144814,-89.13333,43.96667,WISCONSIN,BERLIN,5554960
1095326,5144815,-88.78333,43.86667,WISCONSIN,RIPON,5554971
1095327,5144816,-90.4,42.85,WISCONSIN,REWEY,5553580
1095327,5144817,-90.38333,42.76667,WISCONSIN,BELMONT,5553818
1095327,5144818,-89.7,42.73333,WISCONSIN,MONTICELLO,5553570
63438,384737,-89.7157,43.6504,WISCONSIN,BIG SPG,5553965
63431,379763,-89.8,44.12,WISCONSIN,BIG FLATS,5554613
63431,379761,-89.88,44.24,WISCONSIN,NEW ROME,5554457
1095327,5144819,-90.41667,42.66667,WISCONSIN,BELMONT,5553818
63431,379751,-91.4,44.4,WISCONSIN,ELK CREEK,5554747
63431,379748,-91.87,44.41,WISCONSIN,TELL,5554610
1095328,5143924,-89.0,43.53333,WISCONSIN,RANDOLPH,5553956
1095328,5143933,-87.9,42.65,WISCONSIN,SOMERS,5553144
1095329,5143934,-90.13333,42.96667,WISCONSIN,LINDEN,5553533
1095329,5143934,-90.26666999999999,42.91667,WISCONSIN,LINDEN,5553553
1095329,5143936,-89.75,43.13333,WISCONSIN,BLACK EARTH,5553515
1095329,5143938,-89.41667,43.06667,WISCONSIN,MADISON,5553711
1095329,5143938,-89.33333,43.13333,WISCONSIN,MADISON,5553704
1095329,5143939,-89.05,43.11667,WISCONSIN,MARSHALL,5553559
1095329,5143941,-88.9,43.08333,WISCONSIN,LAKE MILLS,5553551
39071,245471,-88.0985,42.9112,WISCONSIN,TESS CORNERS,5553150
39071,245456,-88.47,42.88,WISCONSIN,EAGLE,5553119
39071,245455,-88.5041,42.8683,WISCONSIN,EAGLE,5553119
39071,245455,-88.3885,42.864,WISCONSIN,JERICHO,5553149
1095323,5143894,-88.38333,42.61667,WISCONSIN,LAKE GENEVA PLYBY AR,5553147
1095323,5143895,-88.28333,42.65,WISCONSIN,BURLINGTON,5553105
1095323,5145237,-88.4,42.78333,WISCONSIN,EAST TROY,5553120
1095323,5145240,-88.28333,42.9,WISCONSIN,MUKWONAGO,5553149
1095323,5145240,-88.16667,42.98333,WISCONSIN,MUKWONAGO,5553146
1095323,5145241,-88.0,42.95,WISCONSIN,GREENFIELD,5553129
1095324,5143896,-90.38333,42.56667,WISCONSIN,BENTON,5553803
1095324,5143896,-90.23333000000001,42.56667,WISCONSIN,BENTON,5553586
1095324,5143897,-90.01666999999999,42.58333,WISCONSIN,GRATIOT,5553541
1095325,5143898,-89.91667,43.16667,WISCONSIN,ARENA,5553503
1095325,5143899,-88.65,43.36667,WISCONSIN,REESEVILLE,5553039
1095325,5143899,-88.83333,43.3,WISCONSIN,REESEVILLE,5553579
1095325,5143902,-88.53333,42.98333,WISCONSIN,SULLIVAN,5553118
38966,233843,-90.8412,43.3178,WISCONSIN,BELL CENTER,5554631
1095329,5143941,-88.8,43.01667,WISCONSIN,LAKE MILLS,5553549
38985,226268,-91.3051,44.1114,WISCONSIN,BUTMAN CORNERS,5554630
38985,226281,-91.3576,44.1394,WISCONSIN,FRENCHVILLE,5554630
38985,226288,-91.2942,44.0966,WISCONSIN,GALESVILLE,5554630
38985,226291,-91.08,43.9,WISCONSIN,WEST SALEM,5554669
39071,226816,-89.645,43.1155,WISCONSIN,CROSS PLAINS,5553528
39071,226816,-89.6479,43.1145,WISCONSIN,CROSS PLAINS,5553528
39071,226820,-90.0004,42.6455,WISCONSIN,WIOTA,5553530
39071,226820,-90.0408,42.6335,WISCONSIN,GRATIOT,5553530
39071,245318,-88.9645,42.911,WISCONSIN,BUSSEYVILLE,5553538
39071,245318,-88.9835,42.898,WISCONSIN,BUSSEYVILLE,5553538
39071,245333,-88.9805,42.83,WISCONSIN,NEWVILLE,5553563
39071,245358,-89.28,43.02,WISCONSIN,MC FARLAND,5553558
39071,245365,-89.0305,42.88,WISCONSIN,ALBION,5553534
39071,245408,-88.85,42.93,WISCONSIN,FT ATKINSON,5553538
39071,245415,-88.87799999999999,42.9095,WISCONSIN,FT ATKINSON,5553538
38985,226273,-91.1641,43.7175,WISCONSIN,STODDARD,5554658
1215736,5519507,-88.86667,43.75,WISCONSIN,MARQUETTE,5553919
1095329,5143942,-88.35,42.65,WISCONSIN,LYONS,5553105
1095329,5143944,-88.4,43.06667,WISCONSIN,DELAFIELD,5553018
1123921,5269929,-89.63333,42.6,WISCONSIN,MONROE,5553566
1123921,5269928,-89.03333,42.6,WISCONSIN,AFTON,5553546
1123921,5269928,-89.01666999999999,42.68333,WISCONSIN,AFTON,5553545
1123921,5269927,-89.25,42.63333,WISCONSIN,ORFORDVILLE,5553576
1123921,5269926,-89.36667,42.61667,WISCONSIN,BRODHEAD,5553520
1123921,5269925,-89.81667,42.58333,WISCONSIN,BROWNTOWN,5553522
1123921,5269924,-89.5,42.58333,WISCONSIN,JUDA,5553550
38691,224430,-88.928,43.0595,WISCONSIN,LAKE MILLS,5553551
1215681,5520093,-91.55,45.16667,WISCONSIN,NEW AUBURN,5554757
1215683,5520094,-90.83333,45.5,WISCONSIN,GLEN FLORA,5554526
1215683,5520095,-90.96667,45.31667,WISCONSIN,SHELDON,5554766
1215683,5520096,-92.01666999999999,45.53333,WISCONSIN,CUMBERLAND,5554829
1215683,5520097,-91.91667,44.88333,WISCONSIN,MENOMONIE,5554751
1215683,5520098,-91.91667,44.88333,WISCONSIN,MENOMONIE,5554751
1215683,5520099,-92.68333,45.16667,WISCONSIN,SOMERSET,5554025
1215683,5520100,-91.9,44.88333,WISCONSIN,MENOMONIE,5554751
1215683,5520101,-91.48333000000001,44.81667,WISCONSIN,EAU CLAIRE,5554703
1215683,5520102,-92.25,44.85,WISCONSIN,SPRING VALLEY,5554767
1215683,5520103,-91.68333,44.86667,WISCONSIN,ELK MOUND,5554739
1215683,5520105,-92.25,44.85,WISCONSIN,SPRING VALLEY,5554767
1215683,5520106,-91.46667,44.83333,WISCONSIN,EAU CLAIRE,5554703
1215683,5520175,-91.26666999999999,44.76667,WISCONSIN,FALL CREEK,5554742
63290,379064,-91.3865,44.0756,WISCONSIN,GALESVILLE,5554630
39300,228269,-91.79,44.32,WISCONSIN,CREAM,5554610
39300,228269,-91.7438,44.3193,WISCONSIN,CREAM,5554610
1215687,5520262,-90.81667,45.51667,WISCONSIN,INGRAM,5554526
1215687,5520342,-91.48333000000001,45.08333,WISCONSIN,BLOOMER,5554724
1215687,5520342,-91.46667,45.08333,WISCONSIN,BLOOMER,5554724
1215688,5520343,-91.26666999999999,45.56667,WISCONSIN,BRUCE,5554819
1123921,5269929,-89.63333,42.55,WISCONSIN,MONROE,5553566
1123921,5269930,-88.86667,42.63333,WISCONSIN,AVALON,5553505
1123921,5269932,-88.66667,42.66667,WISCONSIN,DARIEN,5553115
1123921,5269932,-88.76666999999999,42.78333,WISCONSIN,DARIEN,5553190
1095329,5143944,-88.1,43.18333,WISCONSIN,DELAFIELD,5553051
1095329,5143945,-88.21667,43.01667,WISCONSIN,WAUKESHA,5553186
1095329,5143946,-87.96667,43.03333,WISCONSIN,WEST ALLIS,5553208
1095329,5143946,-87.96667,43.0,WISCONSIN,WEST ALLIS,5553219
1095329,5143947,-87.98333000000001,43.28333,WISCONSIN,CEDARBURG,5553012
1095329,5143947,-87.95,43.31667,WISCONSIN,CEDARBURG,5553024
1095329,5143948,-88.38333,43.28333,WISCONSIN,HARTFORD,5553027
1095329,5143949,-89.06667,43.1,WISCONSIN,DEERFIELD,5553531
1095329,5143950,-88.95,43.11667,WISCONSIN,LAKE MILLS,5553551
1095329,5143951,-88.21667,43.01667,WISCONSIN,WAUKESHA,5553186
1095329,5143993,-87.95,43.05,WISCONSIN,WAUWATOSA,5553208
1095329,5143994,-88.36667,42.53333,WISCONSIN,PELL LAKE,5553128
1095329,5143995,-88.26666999999999,42.63333,WISCONSIN,BOHNERS LAKE,5553105
1095329,5143996,-87.83333,42.58333,WISCONSIN,KENOSHA,5553140
1095329,5143943,-87.95,42.61667,WISCONSIN,SOMERS,5553144
1095329,5143997,-89.01666999999999,42.63333,WISCONSIN,JANESVILLE,5553546
1095329,5143999,-88.31667,43.15,WISCONSIN,MERTON,5553029
1095329,5144000,-88.21667,43.23333,WISCONSIN,HUBERTUS,5553033
1095329,5144001,-88.4,42.78333,WISCONSIN,EAST TROY,5553120
1095329,5144301,-88.3,42.88333,WISCONSIN,MUKWONAGO,5553149
1095329,5144302,-88.15,43.06667,WISCONSIN,WAUKESHA,5553045
1095329,5144302,-88.21667,43.01667,WISCONSIN,WAUKESHA,5553186
1095329,5144303,-88.1,43.18333,WISCONSIN,MENOMONEE FALLS,5553051
1095329,5144304,-87.95,43.1,WISCONSIN,NORTH MILWAUKEE,5553209
1095331,5144328,-90.15,42.68333,WISCONSIN,DARLINGTON,5553530
63431,379747,-92.0,44.42,WISCONSIN,NELSON,5554756
1123921,5269936,-88.01666999999999,42.65,WISCONSIN,PARIS,5553182
1123921,5269935,-88.26666999999999,42.66667,WISCONSIN,BURLINGTON,5553105
1123921,5269934,-87.8,42.71667,WISCONSIN,RACINE,5553403
1123921,5269933,-88.33333,42.68333,WISCONSIN,LYONS,5553105
1095329,5143998,-88.73333000000001,42.68333,WISCONSIN,RICHMOND,5553115
38691,224429,-88.9198,43.08,WISCONSIN,LAKE MILLS,5553551
6016,35265,-87.99,45.45,WISCONSIN,CEDARVILLE,5554177
38688,224419,-89.1623,42.7369,WISCONSIN,FOOTVILLE,5553536
73452,444120,-91.3644,44.7551,WISCONSIN,BRACKETT,5554742
73452,444121,-92.34,44.93,WISCONSIN,WOODVILLE,5554002
73452,444122,-91.02,44.61,WISCONSIN,FAIRCHILD,5554741
73452,444123,-92.08,45.23,WISCONSIN,REEVE,5554004
73452,444124,-92.14,45.39,WISCONSIN,TURTLE LAKE,5554889
73452,444125,-92.17,45.32,WISCONSIN,CLAYTON,5554004
73452,444126,-91.95,45.17,WISCONSIN,RIDGELAND,5554772
73452,444131,-92.0143,45.0202,WISCONSIN,BOYCEVILLE,5554725
73452,444133,-91.9233,44.9038,WISCONSIN,MENOMONIE,5554751
73452,444134,-91.73,45.0,WISCONSIN,COLFAX,5554730
73452,444135,-91.57,45.1,WISCONSIN,BLOOMER,5554724
73452,444136,-91.51,44.82,WISCONSIN,EAU CLAIRE,5554703
73452,444137,-91.39,44.93,WISCONSIN,CHIPPEWA FALLS,5554729
73452,444138,-91.49,45.1,WISCONSIN,BLOOMER,5554724
73452,444139,-91.96,44.63,WISCONSIN,DURAND,5554736
73452,450618,-92.0683,44.9842,WISCONSIN,BOYCEVILLE,5554749
73452,450619,-91.8722,44.7344,WISCONSIN,DOWNSVILLE,5554751
73562,444985,-89.12,44.5,WISCONSIN,IOLA,5554945
73564,444989,-89.59,45.81,WISCONSIN,LAKE TOMAHAWK,5554539
73564,444990,-89.41,45.63,WISCONSIN,RHINELANDER,5554501
73564,444992,-89.39,45.67,WISCONSIN,RHINELANDER,5554501
1160555,5376997,-89.53333,43.68333,WISCONSIN,BRIGGSVILLE,5553930
1160554,5376994,-87.95,42.56667,WISCONSIN,PARIS,5553158
1160554,5376994,-88.05,42.61667,WISCONSIN,PARIS,5553182
1160554,5376993,-88.11667,42.68333,WISCONSIN,KANSASVILLE,5553139
73452,444118,-91.96,44.63,WISCONSIN,DURAND,5554736
1160552,5376984,-88.8,42.9,WISCONSIN,FT ATKINSON,5553538
31585,185588,-90.348,44.1742,WISCONSIN,CITY PT,5554666
73177,442006,-90.98,43.19,WISCONSIN,EASTMAN,5554626
32272,189192,-88.05,42.7017,WISCONSIN,UNION GROVE,5553182
32272,189191,-89.251,43.6797,WISCONSIN,MONTELLO,5553926
32269,189037,-89.33,43.13,WISCONSIN,(MSN)TRUAX FLD MADIS,5553704
32269,189037,-89.1541,43.2342,WISCONSIN,EAST BRISTOL,5553590
1161891,5337347,-88.1,44.11667,WISCONSIN,POTTER,5554129
1161891,5337346,-87.7,44.55,WISCONSIN,LUXEMBURG,5554217
1161890,5374462,-88.26666999999999,44.8,WISCONSIN,SUAMICO,5554154
1161890,5374461,-88.33333,44.51667,WISCONSIN,PULASKI,5554165
1161888,5333720,-89.25,46.05,WISCONSIN,CONOVER,5554519
1161882,5333397,-87.95,44.51667,WISCONSIN,GREEN BAY,5554302
6430,37408,-92.4819,45.5189,WISCONSIN,MILLTOWN,5554858
6430,37408,-92.4908,45.5096,WISCONSIN,MILLTOWN,5554858
1161882,5333394,-88.3,44.06667,WISCONSIN,STOCKBRIDGE,5553088
1161882,5333306,-88.31667,44.28333,WISCONSIN,KIMBERLY,5554140
72906,439930,-91.2442,43.7939,WISCONSIN,LA CROSSE,5554601
72906,439931,-91.21,43.78,WISCONSIN,HERRINGTON,5554601
72906,439932,-91.2432,43.8278,WISCONSIN,WEST LA CROSSE,5554603
31628,185807,-90.4732,45.6288,WISCONSIN,PHILLIPS,5554555
31628,185805,-90.6031,45.6012,WISCONSIN,CATAWBA,5554537
31628,185803,-90.6385,45.5709,WISCONSIN,KENNAN,5554537
31628,185801,-91.6696,45.8965,WISCONSIN,SPOONER,5554875
31622,185755,-87.74,45.08,WISCONSIN,PESHTIGO,5554157
73172,441959,-90.44,42.53,WISCONSIN,HAZEL GREEN,5553811
73172,442249,-90.45,43.43,WISCONSIN,GILLINGHAM,5553581
73177,442005,-91.02,43.1,WISCONSIN,EASTMAN,5553826
73177,442007,-90.7,43.52,WISCONSIN,LIBERTY,5554664
1160552,5376980,-88.05,42.68333,WISCONSIN,UNION GROVE,5553182
1160552,5376979,-88.7,43.5,WISCONSIN,BURNETT,5553922
1160552,5376978,-89.58333,42.73333,WISCONSIN,MONTICELLO,5553570
74222,448866,-91.47,44.58,WISCONSIN,ELEVA,5554738
74222,448868,-90.65,42.69,WISCONSIN,TENNYSON,5553820
1194592,5463212,-92.73333000000001,44.88333,WISCONSIN,RIVER FALLS,5554022
1194592,5463269,-92.63333,44.85,WISCONSIN,RIVER FALLS,5554022
1194594,5463453,-91.48333000000001,44.81667,WISCONSIN,EAU CLAIRE,5554703
1194595,5463455,-91.1,45.46667,WISCONSIN,LADYSMITH,5554848
1194663,5463945,-87.98333000000001,43.28333,WISCONSIN,CEDARBURG,5553012
1194668,5464046,-89.61667,43.36667,WISCONSIN,MERRIMAC,5553555
1194668,5464152,-88.4,42.78333,WISCONSIN,EAST TROY,5553120
1194670,5464177,-89.11667,43.7,WISCONSIN,KINGSTON,5553946
1194670,5464263,-89.23333000000001,43.33333,WISCONSIN,ARLINGTON,5553960
1194670,5464267,-88.91667,42.81667,WISCONSIN,MILTON,5553563
1194670,5464267,-88.88333,42.81667,WISCONSIN,MILTON,5553563
1194670,5464268,-88.85,42.83333,WISCONSIN,MILTON,5553190
1194670,5464268,-88.93333,42.78333,WISCONSIN,MILTON,5553563
1194670,5464277,-88.95,42.86667,WISCONSIN,MILTON,5553563
74297,449315,-91.9437,45.5079,WISCONSIN,CUMBERLAND,5554829
74308,449602,-90.84,44.45,WISCONSIN,MERRILLAN,5554754
1213552,5518164,-88.06667,44.56667,WISCONSIN,HOWARD,5554313
1213552,5518163,-88.38333,45.0,WISCONSIN,SURING,5554174
1213552,5518162,-88.03333,45.06667,WISCONSIN,COLEMAN,5554112
1213552,5518161,-88.05,45.23333,WISCONSIN,CRIVITZ,5554114
1213551,5518160,-87.8,45.15,WISCONSIN,PORTERFIELD,5554159
1213550,5518071,-88.35,44.18333,WISCONSIN,SHERWOOD,
1213550,5518066,-89.41667,44.9,WISCONSIN,ROTHSCHILD,5554471
74115,448285,-89.3523,43.3587,WISCONSIN,ARLINGTON,5553911
74115,448285,-89.3201,43.398999999999994,WISCONSIN,POYNETTE,5553960
74023,447728,-91.52,44.83,WISCONSIN,EAU CLAIRE,5554703
74023,447727,-91.49,44.82,WISCONSIN,EAU CLAIRE,5554703
1160552,5376977,-88.8,42.66667,WISCONSIN,MILTON,5553505
1160552,5376977,-88.86667,42.76667,WISCONSIN,MILTON,5553563
1160552,5376976,-89.15,43.26667,WISCONSIN,EAST BRISTOL,5553590
1160552,5376975,-88.38333,43.2,WISCONSIN,HARTFORD,5553027
1160552,5376974,-89.2,43.28333,WISCONSIN,COLUMBUS,5553925
1160552,5376973,-89.15,43.26667,WISCONSIN,EAST BRISTOL,5553590
1160552,5376972,-88.18333,43.41667,WISCONSIN,WEST BEND,5553095
1160552,5376970,-88.33333,43.53333,WISCONSIN,WAYNE,5553002
1160551,5376969,-90.11667,42.68333,WISCONSIN,DARLINGTON,5553530
1160551,5376968,-89.01666999999999,42.68333,WISCONSIN,JANESVILLE,5553545
1160551,5376967,-89.0,43.48333,WISCONSIN,RANDOLPH,5553956
1160551,5376914,-89.75,43.63333,WISCONSIN,WISCONSIN DELLS,5553965
32272,189192,-88.12299999999999,42.7411,WISCONSIN,NORTH CAPE,5553139
1160551,5376913,-89.1,43.55,WISCONSIN,CAMBRIA,5553923
1160550,5376911,-89.1,43.01667,WISCONSIN,ROCKDALE,5553531
1160550,5376908,-88.26666999999999,43.18333,WISCONSIN,MERTON,5553029
1160550,5376904,-88.9,42.8,WISCONSIN,MILTON,5553563
1160550,5376903,-89.01666999999999,42.8,WISCONSIN,EDGERTON,5553534
1160550,5376903,-89.06667,42.78333,WISCONSIN,EDGERTON,5553534
1160550,5376902,-89.36667,42.61667,WISCONSIN,BRODHEAD,5553520
73924,447200,-92.57,45.27,WISCONSIN,HORSE CREEK,5554020
73924,447201,-92.56,45.25,WISCONSIN,HORSE CREEK,5554026
73924,447202,-92.51,45.24,WISCONSIN,HORSE CREEK,5554026
73924,447203,-92.54,45.21,WISCONSIN,STAR PRAIRIE,5554026
1213881,5518410,-90.9,46.66667,WISCONSIN,WASHBURN,5554891
73924,447204,-92.41,45.18,WISCONSIN,DEER PARK,5554007
1160550,5376912,-87.98333000000001,43.21667,WISCONSIN,MEQUON,5553092
1213550,5518065,-89.63333,44.96667,WISCONSIN,WAUSAU,5554401
32272,189193,-88.05,42.5211,WISCONSIN,BRISTOL,5553104
32272,189194,-88.5191,42.8,WISCONSIN,LA GRANGE,5553120
1192921,5458330,-88.48333000000001,44.0,WISCONSIN,OSHKOSH,
1192921,5458331,-88.48333000000001,44.01667,WISCONSIN,OSHKOSH,
1192921,5458332,-88.48333000000001,44.01667,WISCONSIN,OSHKOSH,
1192923,5458336,-88.41667,44.51667,WISCONSIN,BLACK CREEK,5554106
1192925,5458341,-89.41667,45.63333,WISCONSIN,RHINELANDER,5554501
33906,196386,-88.22,43.0779,WISCONSIN,DOWNTOWN WAUKESHA,5553072
33792,195848,-90.08,45.03,WISCONSIN,ATHENS,5554411
1166646,5387811,-89.9,43.75,WISCONSIN,LYNDON STATION,5553944
33062,192628,-90.1918,45.1234,WISCONSIN,BELLINGER,5554451
33062,192627,-90.3139,45.0767,WISCONSIN,STETSONVILLE,5554480
33062,192626,-90.35,45.1011,WISCONSIN,MEDFORD,5554451
1193372,5462049,-91.31667,44.98333,WISCONSIN,CHIPPEWA FALLS,5554729
1193373,5462053,-92.63333,44.78333,WISCONSIN,RIVER FALLS,5554022
1193373,5462054,-92.61667,45.11667,WISCONSIN,SOMERSET,5554017
1193374,5462056,-92.45,45.45,WISCONSIN,BALSAM LAKE,5554810
1193374,5462057,-92.08333,45.5,WISCONSIN,COMSTOCK,5554826
1193374,5462060,-91.73333000000001,45.5,WISCONSIN,RICE LAKE,5554868
1193374,5462062,-92.55,44.66667,WISCONSIN,ELLSWORTH,5554011
1193374,5462126,-91.66667,44.96667,WISCONSIN,COLFAX,5554730
1193374,5462126,-91.71667,45.06667,WISCONSIN,COLFAX,5554730
1193374,5462128,-91.6,45.0,WISCONSIN,TILDEN,5554730
1193374,5462128,-91.51666999999999,44.98333,WISCONSIN,TILDEN,5554729
1193374,5462129,-91.85,45.4,WISCONSIN,BARRON,5554812
1193374,5462131,-91.75,45.4,WISCONSIN,CAMERON,5554822
1193374,5462132,-91.85,45.38333,WISCONSIN,BARRON,5554812
1192920,5458328,-88.55,44.01667,WISCONSIN,OSHKOSH,5554902
1193374,5462133,-91.81667,45.41667,WISCONSIN,BARRON,5554812
1192920,5458327,-88.35,44.1,WISCONSIN,STOCKBRIDGE,
1192920,5458326,-88.45,44.01667,WISCONSIN,OSHKOSH,
1167473,5389831,-88.51666999999999,43.11667,WISCONSIN,OCONOMOWOC,5553066
1167473,5389830,-88.7,42.91667,WISCONSIN,HEBRON,5553538
1131636,5286383,-88.56667,42.81667,WISCONSIN,LA GRANGE,5553190
1192912,5458106,-89.56667,44.61667,WISCONSIN,STEVENS PT,5554482
1192912,5458106,-89.56667,44.53333,WISCONSIN,STEVENS PT,5554481
1192913,5458112,-89.81667,44.38333,WISCONSIN,WISCONSIN RAPIDS,5554494
1192914,5458115,-88.68333,45.56667,WISCONSIN,LAONA,5554541
1192914,5458117,-88.9,45.56667,WISCONSIN,CRANDON,5554520
1192914,5458122,-90.13333,44.45,WISCONSIN,PITTSVILLE,5554466
1192914,5458124,-89.41667,44.51667,WISCONSIN,CUSTER,5554423
1192914,5458125,-87.93333,45.23333,WISCONSIN,CRIVITZ,5554114
1192914,5458126,-88.11667,44.51667,WISCONSIN,GREEN BAY,5554313
1192916,5458132,-89.78333,44.78333,WISCONSIN,MOSINEE,5554455
1192916,5458139,-88.78333,44.61667,WISCONSIN,CLINTONVILLE,5554929
1192916,5458199,-88.71667,44.13333,WISCONSIN,WINNECONNE,
1192918,5458227,-89.1,44.03333,WISCONSIN,REDGRANITE,5554970
1192918,5458228,-88.98333000000001,44.05,WISCONSIN,AURORAVILLE,5554923
1192918,5458230,-88.93333,44.11667,WISCONSIN,BORTH,5554923
1192918,5458232,-90.05,44.93333,WISCONSIN,EDGAR,5554426
1192918,5458232,-90.05,44.91667,WISCONSIN,EDGAR,5554426
1192918,5458233,-90.1,45.05,WISCONSIN,ATHENS,5554411
1192918,5458233,-90.1,45.03333,WISCONSIN,ATHENS,5554411
1192918,5458234,-90.08333,44.98333,WISCONSIN,ATHENS,5554411
1192918,5458312,-89.9,44.91667,WISCONSIN,MARATHON,5554448
1192918,5458313,-89.31667,44.93333,WISCONSIN,HOGARTY,5554414
1192920,5458326,-88.48333000000001,43.96667,WISCONSIN,OSHKOSH,
1193374,5462134,-91.26666999999999,45.45,WISCONSIN,BRUCE,5554819
1193374,5462135,-91.73333000000001,45.48333,WISCONSIN,RICE LAKE,5554868
1193374,5462136,-91.68333,44.81667,WISCONSIN,ELK MOUND,5554739
1193378,5462358,-92.18333,44.8,WISCONSIN,SPRING VALLEY,5554767
1193378,5462361,-91.38333,44.96667,WISCONSIN,CHIPPEWA FALLS,5554729
1193378,5462361,-91.11667,44.91667,WISCONSIN,CHIPPEWA FALLS,5554727
1193378,5462407,-91.26666999999999,45.05,WISCONSIN,JIM FALLS,5554748
1193378,5462408,-91.38333,44.93333,WISCONSIN,CHIPPEWA FALLS,5554729
1193379,5462416,-91.41667,45.48333,WISCONSIN,WEYERHAEUSER,5554895
1193380,5462487,-92.16667,45.06667,WISCONSIN,GLENWOOD CITY,5554013
32323,191158,-89.991,42.6084,WISCONSIN,GRATIOT,5553541
32323,191158,-89.9894,42.6077,WISCONSIN,GRATIOT,5553541
32323,191152,-89.1,43.55,WISCONSIN,CAMBRIA,5553923
32323,191152,-89.1,43.5645,WISCONSIN,CAMBRIA,5553923
32323,191150,-89.1,43.55,WISCONSIN,CAMBRIA,5553923
32323,191145,-89.2268,43.6968,WISCONSIN,DALTON,5553926
32323,191141,-89.2453,43.7011,WISCONSIN,DALTON,5553926
32323,191141,-89.221,43.6755,WISCONSIN,DALTON,5553926
32323,191139,-89.3682,43.7611,WISCONSIN,GLENOAK,5553949
32323,191139,-89.2453,43.7011,WISCONSIN,GLENOAK,5553926
32301,191644,-90.3119,42.5527,WISCONSIN,NEW DIGGING,5553586
32301,191644,-90.2424,42.5212,WISCONSIN,SHULLSBURG,5553586
32301,191642,-90.2167,42.5996,WISCONSIN,SHULLSBURG,5553586
32301,191642,-90.2683,42.6301,WISCONSIN,SEYMOUR CORNERS,5553586
32301,191612,-90.3997,42.57,WISCONSIN,BENTON,5553803
32301,191612,-90.1467,42.5086,WISCONSIN,SHULLSBURG,5553586
32301,191609,-90.1467,42.5086,WISCONSIN,SHULLSBURG,5553586
32301,191609,-90.3579,42.7095,WISCONSIN,BELMONT,5553510
1193378,5462355,-92.46667,44.73333,WISCONSIN,ELLSWORTH,5554011
1193377,5462348,-92.65,45.4,WISCONSIN,ST CROIX FALLS,5554009
1193375,5462295,-92.31667,45.11667,WISCONSIN,CYLON,5554013
1193375,5462295,-92.33333,45.11667,WISCONSIN,CYLON,5554013
1193374,5462137,-91.75,45.38333,WISCONSIN,CAMERON,5554822
1193374,5462138,-91.98333000000001,45.23333,WISCONSIN,PRAIRIE FARM,5554762
1193374,5462139,-91.65,45.3,WISCONSIN,CHETEK,5554728
1193374,5462140,-91.51666999999999,44.81667,WISCONSIN,EAU CLAIRE,5554703
1193374,5462197,-91.58333,45.25,WISCONSIN,CHETEK,5554757
1193374,5462199,-91.98333000000001,45.1,WISCONSIN,WHEELER,5554725
1193374,5462203,-92.16667,45.06667,WISCONSIN,GLENWOOD CITY,5554013
1193374,5462204,-92.53333,44.65,WISCONSIN,HAGER CITY,5554014
1193374,5462205,-92.48333000000001,44.96667,WISCONSIN,HAMMOND,5554023
1193374,5462386,-92.08333,45.46667,WISCONSIN,COMSTOCK,5554826
1193374,5462386,-92.1,45.48333,WISCONSIN,COMSTOCK,5554826
1193374,5462389,-92.01666999999999,45.45,WISCONSIN,ALMENA,5554805
32272,189193,-88.1405,42.55,WISCONSIN,SILVER LAKE,5553168
1193374,5462389,-92.03333,45.46667,WISCONSIN,ALMENA,5554826
1193374,5462391,-91.73333000000001,45.5,WISCONSIN,RICE LAKE,5554868
1193374,5462393,-91.75,45.4,WISCONSIN,CAMERON,5554822
1193374,5462394,-91.76666999999999,45.6,WISCONSIN,HAUGEN,5554868
1193375,5462208,-92.26666999999999,45.1,WISCONSIN,EMERALD,5554013
1193375,5462209,-92.26666999999999,45.25,WISCONSIN,CLEAR LAKE,5554005
1193375,5462209,-92.21667,45.25,WISCONSIN,CLEAR LAKE,5554005
1193375,5462292,-92.01666999999999,45.45,WISCONSIN,ALMENA,5554805
1193375,5462292,-91.96667,45.5,WISCONSIN,ALMENA,5554829
1193375,5462293,-92.55,44.85,WISCONSIN,RIVER FALLS,5554022
1193375,5462293,-92.58333,44.81667,WISCONSIN,RIVER FALLS,5554022
1193375,5462294,-92.43333,45.0,WISCONSIN,HAMMOND,5554015
1193375,5462294,-92.55,44.91667,WISCONSIN,HAMMOND,5554022
1193374,5462390,-91.76666999999999,45.6,WISCONSIN,HAUGEN,5554868
1167473,5389832,-88.98333000000001,43.18333,WISCONSIN,WATERLOO,5553594
1213550,5518064,-89.68333,44.93333,WISCONSIN,WAUSAU,5554401
1213549,5518062,-88.05,44.45,WISCONSIN,DE PERE,5554115
75064,453877,-87.66,44.08,WISCONSIN,MANITOWOC,5554220
75064,459782,-88.7592,44.6327,WISCONSIN,CLINTONVILLE,5554929
75064,464237,-89.4485,45.5578,WISCONSIN,CRESENT CORNER,5554501
75064,464255,-87.53299999999999,44.3542,WISCONSIN,NORMAN,5554216
1158672,5379590,-88.55,44.01667,WISCONSIN,OSHKOSH,5554902
1158672,5379589,-88.38333,44.21667,WISCONSIN,DARBOY,5554952
1158672,5379588,-88.38333,44.23333,WISCONSIN,DARBOY,5554915
1158672,5379587,-88.45,44.2,WISCONSIN,MENASHA,5554952
1158672,5379586,-88.38333,44.23333,WISCONSIN,DARBOY,5554915
1158672,5379585,-88.4,44.26667,WISCONSIN,APPLETON,5554911
1158672,5379584,-88.55,43.98333,WISCONSIN,OSHKOSH WITTMAN FLD,5554902
1158672,5379290,-88.45,44.4,WISCONSIN,CENTER VLY,5554106
1158670,5379286,-89.33333,44.88333,WISCONSIN,HATLEY,5554440
1158670,5379285,-90.01666999999999,44.7,WISCONSIN,ROZELLVILLE,5554412
1158670,5379284,-87.71667,45.33333,WISCONSIN,MC ALLISTER,5554177
1158670,5379283,-87.85,45.33333,WISCONSIN,WAUSAUKEE,5554177
1158670,5379282,-88.71667,45.2,WISCONSIN,WHITE LAKE,5554491
115179,691525,-89.35,43.25,WISCONSIN,DE FOREST,5553532
1158670,5379281,-89.01666999999999,45.2,WISCONSIN,BRYANT,5554418
1158667,5379207,-88.45,45.61667,WISCONSIN,ARMSTRONG CREEK,5554103
1158667,5379206,-88.66667,45.83333,WISCONSIN,LONG LAKE,5554542
1092905,5137560,-88.6,44.7,WISCONSIN,SHAWANO,5554929
75295,455166,-91.2006,44.6589,WISCONSIN,AUGUSTA,5554722
75295,455166,-91.2045,44.662,WISCONSIN,AUGUSTA,5554722
1092905,5137559,-89.03333,44.45,WISCONSIN,OGDENSBURG,5554962
75064,453876,-88.75,44.38,WISCONSIN,NEW LONDON,5554961
1092905,5137558,-90.06667,44.96667,WISCONSIN,STRATFORD,5554411
75064,453875,-87.57,44.37,WISCONSIN,NORMAN,5554216
75064,453873,-87.54,44.59,WISCONSIN,RIO CREEK WALTERS AR,5554201
75060,453841,-88.61,44.34,WISCONSIN,HORTONVILLE,5554944
1158740,5379042,-90.65,42.95,WISCONSIN,FENNIMORE,5553809
75060,453843,-88.58,44.36,WISCONSIN,STEPHENSVILLE,5554944
75060,453844,-88.4706,44.2699,WISCONSIN,APPLETON,5554913
75060,453845,-88.4,44.26,WISCONSIN,APPLETON,5554911
75060,453846,-88.3,44.28,WISCONSIN,KIMBERLY,5554140
75060,453848,-88.4,44.26,WISCONSIN,APPLETON,5554911
75060,453849,-88.31,44.28,WISCONSIN,KIMBERLY,5554140
75060,453852,-88.4258,44.273,WISCONSIN,APPLETON,5554914
75060,453852,-88.3951,44.2789,WISCONSIN,APPLETON,5554911
75060,453855,-88.81,44.41,WISCONSIN,NORTHPORT,5554961
75060,453857,-88.4459,44.2618,WISCONSIN,APPLETON,5554914
75060,453859,-88.3682,44.2585,WISCONSIN,APPLETON,5554915
75060,453860,-88.24,44.19,WISCONSIN,HIGH CLIFF JCT,5554952
75060,459739,-88.4698,44.2751,WISCONSIN,GREENVILLE,5554913
75060,459747,-88.4,44.26,WISCONSIN,APPLETON,5554911
75060,459761,-88.4259,44.2731,WISCONSIN,APPLETON,5554914
75060,459767,-88.4235,44.2715,WISCONSIN,APPLETON,5554914
75060,464204,-88.4,44.27,WISCONSIN,APPLETON,5554911
75064,453867,-89.48,45.68,WISCONSIN,(RHI)RHINELANDER ARP,5554501
75064,453868,-89.43,45.63,WISCONSIN,RHINELANDER,5554501
75064,453869,-89.41,45.6,WISCONSIN,RHINELANDER,5554501
75064,453870,-89.4095,45.6222,WISCONSIN,RHINELANDER,5554501
75064,453871,-89.24,45.36,WISCONSIN,SUMMIT LAKE,5554424
75064,453872,-88.88,44.72,WISCONSIN,CAROLINE,5554928
75064,453874,-87.63,44.44,WISCONSIN,KROK,5554216
1092905,5137557,-90.16667,44.66667,WISCONSIN,MARSHFIELD,5554449
1092905,5137462,-89.1,44.35,WISCONSIN,WAUPACA,5554981
1092905,5137461,-88.63333,44.26667,WISCONSIN,MEDINA,5554944
75686,465598,-91.44,44.01,WISCONSIN,TREMPEALEAU,5554661
75686,465599,-91.2962,44.0223,WISCONSIN,COUNCIL BAY,5554636
75686,465605,-91.22,43.66,WISCONSIN,STODDARD,5554658
1158197,5375739,-90.83333,43.93333,WISCONSIN,SPARTA,5554656
1158197,5375737,-90.43333,42.9,WISCONSIN,LIVINGSTON,5553554
75686,465612,-90.89,43.56,WISCONSIN,VIROQUA,5554665
75720,457022,-90.7,43.14,WISCONSIN,BOSCOBEL,5553805
7492,43136,-91.48,45.9477,WISCONSIN,HAYWARD,5554843
7498,43147,-90.4731,45.6289,WISCONSIN,PHILLIPS,5554555
7498,43148,-90.228,45.6302,WISCONSIN,PHILLIPS,5554555
7509,43173,-90.4,45.68,WISCONSIN,PHILLIPS,5554555
7509,43174,-90.4,45.68,WISCONSIN,PHILLIPS,5554555
7509,43175,-91.5623,46.0166,WISCONSIN,STANBERRY,5554843
7509,43176,-91.55,45.8789,WISCONSIN,STONE LAKE,5554876
7509,43177,-91.57,45.87,WISCONSIN,SPRING BROOK,5554876
7509,43178,-91.01,45.82,WISCONSIN,WINTER,5554896
75859,457849,-88.75,44.58,WISCONSIN,CLINTONVILLE,5554929
75918,458264,-89.73,45.46,WISCONSIN,TOMAHAWK,5554487
75918,458265,-89.68,45.18,WISCONSIN,MERRILL,5554452
75918,459779,-89.73,45.47,WISCONSIN,TOMAHAWK,5554487
75918,461915,-89.68,45.18,WISCONSIN,MERRILL,5554452
1195857,5466128,-90.55,44.01667,WISCONSIN,TOMAH,5554660
1195858,5466131,-91.11667,44.21667,WISCONSIN,FRANKLIN,5554659
7509,43179,-90.3,45.45,WISCONSIN,OGEMA,5554459
7509,43180,-90.53,45.4633,WISCONSIN,CATAWBA,5554515
75686,465597,-91.2962,44.0223,WISCONSIN,COUNCIL BAY,5554636
75686,465596,-91.2962,44.0223,WISCONSIN,COUNCIL BAY,5554636
75686,464372,-91.45,44.07,WISCONSIN,CENTERVILLE,5554630
75686,464368,-91.4701,44.0181,WISCONSIN,TREMPEALEAU,5554661
1092905,5137460,-89.0,44.05,WISCONSIN,AURORAVILLE,5554923
1092905,5137459,-89.3,44.31667,WISCONSIN,BLAINE,5554909
30716,180071,-90.76,43.45,WISCONSIN,READSTOWN,5554652
1158308,5379130,-90.88333,46.81667,WISCONSIN,BAYFIELD,5554814
1158307,5379128,-92.5,45.78333,WISCONSIN,SIREN,5554872
1158307,5379127,-92.53333,45.76667,WISCONSIN,FALUN,5554840
1158307,5379126,-90.5,46.01667,WISCONSIN,BUTTERNUT,5554514
1158298,5378719,-91.8,46.25,WISCONSIN,GORDON,5554838
1158295,5378709,-92.6,45.68333,WISCONSIN,TRADE LAKE,5554840
7381,42388,-90.42,45.88,WISCONSIN,FIFIELD,5554524
7381,42389,-90.42,45.88,WISCONSIN,FIFIELD,5554524
7381,42390,-90.07,46.17,WISCONSIN,MERCER,5554547
1158742,5379047,-90.6,43.16667,WISCONSIN,BLUE RIVER,5553805
1158205,5378916,-91.68333,44.55,WISCONSIN,MONDOVI,5554755
1158205,5378914,-90.63333,44.63333,WISCONSIN,CHRISTIE,5554456
75553,456141,-91.2971,44.0256,WISCONSIN,COUNCIL BAY,5554636
75553,456142,-90.5,43.99,WISCONSIN,TOMAH,5554660
1158202,5375834,-90.65,43.28333,WISCONSIN,TRAVERA,5553518
1158202,5375833,-90.76666999999999,43.4,WISCONSIN,SOLDIERS GROVE,5554655
1158202,5375831,-90.73333000000001,43.45,WISCONSIN,GAYS MILLS,5554652
1158202,5375830,-90.96667,43.41667,WISCONSIN,RISING SUN,5554628
1158202,5375828,-91.2,43.41667,WISCONSIN,DE SOTO,
7470,42925,-91.54,44.28,WISCONSIN,GARDEN VLY,5554612
1158202,5375826,-91.15,43.45,WISCONSIN,DE SOTO,5554624
75686,456863,-91.5347,44.0502,WISCONSIN,CENTERVILLE,5554661
75686,456863,-91.5535,44.0418,WISCONSIN,CENTERVILLE,5554661
1158205,5378915,-90.63333,44.63333,WISCONSIN,CHRISTIE,5554456
1213550,5518063,-89.63333,44.96667,WISCONSIN,WAUSAU,5554401
1158742,5379048,-90.75,43.25,WISCONSIN,PLUGTOWN,5553805
1158742,5379050,-91.1,43.36667,WISCONSIN,FERRYVILLE,5554628
74382,450091,-91.57,44.25,WISCONSIN,WAUMANDEE,5554612
74382,450092,-91.49,44.3,WISCONSIN,ARCADIA ARPT,5554612
74382,450093,-91.3168,44.3672,WISCONSIN,WHITEHALL,5554773
74382,450095,-91.2092,44.4252,WISCONSIN,PIGEON FALLS,5554760
74382,450508,-91.7,44.21,WISCONSIN,FOUNTAIN CITY,5554629
7007,48249,-91.0418,42.7507,WISCONSIN,CASSVILLE,5553806
74546,450735,-92.62,44.86,WISCONSIN,RIVER FALLS,5554022
31160,186088,-92.2992,45.0789,WISCONSIN,EMERALD,5554013
31160,186088,-92.2979,45.0585,WISCONSIN,EMERALD,5554013
31160,186082,-92.415,44.677,WISCONSIN,ESDAILE,5554011
31160,186082,-92.417,44.6798,WISCONSIN,ESDAILE,5554011
31160,182816,-92.2581,45.1552,WISCONSIN,FOREST,5554013
31160,182816,-92.2807,45.1372,WISCONSIN,FOREST,5554013
31160,182814,-92.69,44.9751,WISCONSIN,BURKHARDT,5554016
31160,182814,-92.6869,44.9803,WISCONSIN,BURKHARDT,5554016
7077,40757,-89.9,45.46,WISCONSIN,SPIRIT FALLS,5554487
7077,41234,-89.73,45.4555,WISCONSIN,TOMAHAWK,5554487
7077,41236,-89.25,45.4783,WISCONSIN,ENTERPRISE,5554463
7077,41237,-89.18,45.43,WISCONSIN,ELCHO,5554428
7077,41238,-89.18,45.43,WISCONSIN,ELCHO,5554428
7077,41239,-89.1492,45.4796,WISCONSIN,PELICAN LAKE,5554463
7077,41241,-88.7123,45.38,WISCONSIN,CARTER,5554566
7077,41242,-88.1021,45.23,WISCONSIN,CRIVITZ,5554114
7077,41243,-87.38,44.8734,WISCONSIN,STURGEON BAY,5554235
7077,41244,-87.38,44.83,WISCONSIN,STURGEON BAY,5554235
74382,450084,-90.55,45.2,WISCONSIN,PERKINSTOWN,5554451
7078,40759,-88.17,45.73,WISCONSIN,SPREAD EAGLE,5554121
74382,449910,-90.48,45.19,WISCONSIN,PERKINSTOWN,5554451
74382,449906,-91.38,44.39,WISCONSIN,ELK CREEK,5554747
1213548,5518061,-88.03333,43.91667,WISCONSIN,KIEL,5553042
1213548,5518060,-88.08333,43.95,WISCONSIN,NEW HOLSTEIN,5553061
1213548,5518056,-88.06667,44.18333,WISCONSIN,BRILLION,5554110
1213548,5518055,-87.11667,45.18333,WISCONSIN,SISTER BAY,5554234
1213546,5518052,-89.56667,44.51667,WISCONSIN,STEVENS PT,5554481
1213546,5518051,-88.86667,44.41667,WISCONSIN,ROYALTON,5554961
1213546,5518048,-89.96667,44.43333,WISCONSIN,VESPER,5554489
1213546,5518047,-89.73333000000001,45.46667,WISCONSIN,TOMAHAWK,5554487
1213545,5518044,-88.55,44.01667,WISCONSIN,OSHKOSH,5554902
1213545,5518043,-88.51666999999999,44.06667,WISCONSIN,WINNEBAGO,5554901
1213545,5518042,-88.55,44.01667,WISCONSIN,OSHKOSH,5554902
1213545,5518041,-88.51666999999999,44.06667,WISCONSIN,WINNEBAGO,5554901
1213545,5518040,-88.55,44.13333,WISCONSIN,LARSEN,5554956
1213545,5518039,-88.51666999999999,44.18333,WISCONSIN,LARSEN,5554956
74308,449608,-91.12,43.84,WISCONSIN,BARRE MILLS,5554601
74308,449613,-91.1155,42.92,WISCONSIN,WYALUSING,5553801
74308,449613,-91.135,42.9025,WISCONSIN,BAGLEY,
74308,455495,-91.3228,44.3548,WISCONSIN,WHITEHALL,5554773
74322,449720,-89.5,42.58,WISCONSIN,JUDA,5553550
74358,449724,-89.73,43.27,WISCONSIN,SAUK CITY,5553583
74358,449725,-89.23,43.45,WISCONSIN,RIO,5553960
74382,449896,-91.7,44.12,WISCONSIN,FOUNTAIN CITY,5554629
74382,449899,-91.49,44.58,WISCONSIN,ELEVA,5554738
74382,449903,-91.42,44.32,WISCONSIN,ARCADIA ARPT,5554612
74382,449904,-91.42,44.36,WISCONSIN,INDEPENDENCE,5554747
74382,449908,-91.39,44.55,WISCONSIN,STRUM,5554770
7079,40760,-89.45,45.18,WISCONSIN,DOERING,5554452
7079,41395,-88.83,45.82,WISCONSIN,ALVIN,5554511
7079,41396,-89.55,45.6,WISCONSIN,WOODBORO,5554501
7079,41428,-88.35,44.85,WISCONSIN,PULCIFER,5554124
7079,41429,-88.32,44.88,WISCONSIN,GILLETT,5554124
7079,41431,-87.4664,44.7687,WISCONSIN,STURGEON BAY,5554235
7079,41432,-89.63,44.97,WISCONSIN,WAUSAU,5554403
7079,42031,-88.13,45.88,WISCONSIN,SPREAD EAGLE,5554121
7079,42034,-88.0405,45.23,WISCONSIN,CRIVITZ,5554114
7079,42036,-88.82,44.98,WISCONSIN,NEOPIT,5554150
1093159,5139808,-88.7,42.6,WISCONSIN,DARIEN,5553114
74738,452416,-88.3466,42.8591,WISCONSIN,MUKWONAGO,5553149
74801,456166,-89.28,43.2,WISCONSIN,TOKEN CREEK,5553590
74893,452864,-87.825,44.945,WISCONSIN,OCONTO,5554153
74893,452864,-87.85700000000001,44.942,WISCONSIN,OCONTO,5554153
74893,452894,-89.52600000000001,44.26,WISCONSIN,BANCROFT,5554966
74893,452894,-89.529,44.25899999999999,WISCONSIN,BANCROFT,5554966
74893,452936,-89.69200000000001,45.285,WISCONSIN,SCHULTZ,5554452
74893,452936,-89.609,45.29,WISCONSIN,BLOOMVILLE,5554452
74893,452941,-89.23299999999999,45.236999999999995,WISCONSIN,DEERBROOK,5554424
74893,452941,-89.425,45.263999999999996,WISCONSIN,PARRISH,5554435
1159077,5329471,-91.41667,44.68333,WISCONSIN,CLEGHORN,5554738
1159074,5329467,-92.68333,45.11667,WISCONSIN,SOMERSET,5554025
75060,453835,-89.07,44.97,WISCONSIN,MATTOON,5554414
75060,453840,-88.6922,44.4132,WISCONSIN,NEW LONDON,5554961
1158742,5379053,-90.93333,43.31667,WISCONSIN,MT STERLING,5554631
1158742,5379052,-91.1,43.35,WISCONSIN,FERRYVILLE,5554628
1158742,5379051,-91.1,43.36667,WISCONSIN,FERRYVILLE,5554628
7079,41427,-89.63,45.0857,WISCONSIN,WAUSAU,5554452
7079,41426,-89.8236,45.18,WISCONSIN,MERRILL,5554452
7079,41425,-88.0356,44.6198,WISCONSIN,SUAMICO,5554173
7079,41424,-89.8505,45.1302,WISCONSIN,MERRILL,5554452
7079,41397,-89.67,45.35,WISCONSIN,IRMA,5554442
7079,41398,-88.88,45.7134,WISCONSIN,ARGONNE,5554511
7079,41398,-88.88,45.7423,WISCONSIN,ARGONNE,5554511
7079,41399,-89.55,45.73,WISCONSIN,MC NAUGHTON,5554539
7079,41399,-89.6,45.82,WISCONSIN,LAKE TOMAHAWK,5554539
7079,41400,-89.3755,45.15,WISCONSIN,ANTIGO,5554409
7079,41401,-88.0405,45.23,WISCONSIN,CRIVITZ,5554114
7079,41402,-89.42,45.6445,WISCONSIN,RHINELANDER,5554501
7079,41404,-87.95,45.37,WISCONSIN,WAUSAUKEE,5554177
7079,41405,-87.8362,45.2482,WISCONSIN,MC ALLISTER,5554159
7079,41406,-88.9556,44.8802,WISCONSIN,BOWLER,5554416
7079,41407,-90.08,45.0734,WISCONSIN,ATHENS,5554411
1158742,5379049,-90.73333000000001,43.38333,WISCONSIN,GAYS MILLS,5554655
7079,41408,-89.9,44.9555,WISCONSIN,RIB FALLS,5554426
7079,41411,-89.6336,44.88,WISCONSIN,ROTHSCHILD,5554474
7079,41411,-89.83,44.92,WISCONSIN,MARATHON,5554448
7079,41413,-87.75,45.1078,WISCONSIN,PESHTIGO,5554143
7079,41414,-89.45,44.88,WISCONSIN,ROTHSCHILD,5554471
7079,41415,-89.7578,44.8689,WISCONSIN,MARATHON,5554448
7079,41416,-87.2985,44.83,WISCONSIN,STURGEON BAY,5554235
7079,41416,-87.38,44.83,WISCONSIN,STURGEON BAY,5554235
7079,41417,-89.2,44.6,WISCONSIN,NORTHLAND,5554945
7079,41419,-89.68,45.1945,WISCONSIN,MERRILL,5554452
7079,41420,-89.8236,45.18,WISCONSIN,MERRILL,5554452
7079,41421,-89.68,45.18,WISCONSIN,MERRILL,5554452
7079,41423,-89.15,45.15,WISCONSIN,ANTIGO,5554409
7079,41408,-89.8708,44.92,WISCONSIN,MARATHON,5554448
1167473,5389833,-88.58333,43.01667,WISCONSIN,SULLIVAN,5553178
1167473,5389836,-89.93333,43.48333,WISCONSIN,REEDSBURG,5553961
1167473,5389836,-89.9,43.5,WISCONSIN,REEDSBURG,5553961
65426,391738,-91.9417,45.1535,WISCONSIN,RIDGELAND,5554772
1214625,5516368,-89.73333000000001,44.11667,WISCONSIN,BIG FLATS,5554943
1214625,5516367,-89.7,44.18333,WISCONSIN,BIG FLATS,5554943
1214625,5516366,-89.78333,44.23333,WISCONSIN,NEW ROME,5554457
1214625,5516365,-90.71667,43.83333,WISCONSIN,NORWALK,5554648
1214623,5516359,-90.61667,42.96667,WISCONSIN,FENNIMORE,5553809
1214623,5516358,-90.58333,42.78333,WISCONSIN,ELLENBORO,5553818
1214623,5516265,-90.58333,43.56667,WISCONSIN,ASHRIDGE,5554639
1214622,5516264,-91.23333000000001,44.08333,WISCONSIN,GALESVILLE,5554630
1214621,5516263,-90.83333,44.73333,WISCONSIN,WILLARD,5554493
1214621,5516262,-90.96667,44.85,WISCONSIN,THORP,5554726
1214621,5516260,-90.51666999999999,45.08333,WISCONSIN,STETSONVILLE,5554460
1214621,5516259,-90.35,44.81667,WISCONSIN,CURTISS,5554488
1214621,5516258,-90.95,45.28333,WISCONSIN,DONALD,5554745
65426,391738,-91.9703,45.1685,WISCONSIN,RIDGELAND,5554772
65426,394772,-92.2755,44.4853,WISCONSIN,STOCKHOLM,5554769
65606,393525,-87.8359,43.5102,WISCONSIN,BELGIUM,5553004
65606,393526,-87.9799,43.83,WISCONSIN,ELKHART LAKE,5553020
65606,393527,-88.02,43.83,WISCONSIN,ELKHART LAKE,5553020
1214614,5516232,-89.8,43.66667,WISCONSIN,BIG SPG,5553965
1214614,5516230,-89.76666999999999,43.61667,WISCONSIN,LYNDON STATION,5553965
1214614,5516127,-89.83333,43.83333,WISCONSIN,WHITE CREEK,5553910
1214614,5516126,-90.88333,43.55,WISCONSIN,VIROQUA,5554665
1214614,5516124,-90.88333,43.55,WISCONSIN,VIROQUA,5554665
1214614,5516123,-90.88333,43.55,WISCONSIN,VIROQUA,5554665
65143,390318,-91.18,46.88,WISCONSIN,CORNUCOPIA,5554844
1214614,5516122,-90.88333,43.55,WISCONSIN,VIROQUA,5554665
65104,390210,-91.53,45.7,WISCONSIN,LAKE CHETAC,5554817
64847,388408,-90.35,45.14,WISCONSIN,MEDFORD,5554451
5946,34670,-90.87,46.58,WISCONSIN,ASHLAND,5554806
1168938,5394160,-91.1,43.35,WISCONSIN,FERRYVILLE,5554628
38474,223432,-90.35,44.69,WISCONSIN,VEEFKIND,5554420
64775,387683,-88.38,45.0,WISCONSIN,SURING,5554174
64775,387684,-88.3785,44.9957,WISCONSIN,SURING,5554174
64775,387687,-87.88,44.88,WISCONSIN,OCONTO,5554153
64789,387796,-89.62,45.34,WISCONSIN,IRMA,5554442
64789,387797,-90.24,44.91,WISCONSIN,CHEROKEE,5554421
64789,387798,-90.22,44.95,WISCONSIN,MILAN,5554405
64789,387799,-89.19,45.38,WISCONSIN,SUMMIT LAKE,5554428
64789,387800,-89.65,45.03,WISCONSIN,BROKAW,5554403
64789,387801,-89.53,44.45,WISCONSIN,PLOVER,5554467
64789,387802,-89.13,44.33,WISCONSIN,KING,5554981
64789,387803,-88.75,44.61,WISCONSIN,CLINTONVILLE,5554929
64789,387804,-89.06,44.34,WISCONSIN,WAUPACA,5554981
64789,387805,-87.75,45.04,WISCONSIN,PESHTIGO,5554157
64789,392207,-88.72,44.24,WISCONSIN,ZITTAU,5554947
64789,392208,-88.44,44.18,WISCONSIN,NEENAH,
64789,392209,-88.44,44.2,WISCONSIN,MENASHA,5554952
64789,392211,-88.4,44.23,WISCONSIN,DARBOY,5554915
64789,392214,-88.3996,44.2107,WISCONSIN,DARBOY,5554952
64789,392220,-88.6094,44.2,WISCONSIN,WINCHESTER,5554947
64846,388405,-90.35,44.89,WISCONSIN,UNITY,5554421
64846,388406,-90.34,44.9,WISCONSIN,COLBY,5554421
64846,388406,-90.32,44.91,WISCONSIN,COLBY,5554421
65101,390187,-91.41,46.56,WISCONSIN,IRON RIVER,5554847
1168749,5393748,-91.28333,45.86667,WISCONSIN,HAYWARD,5554828
1168749,5393745,-92.08333,45.88333,WISCONSIN,HERTEL,5554893
1168749,5393743,-90.43333,46.06667,WISCONSIN,BUTTERNUT,5554514
1094869,5142807,-90.8,42.85,WISCONSIN,LANCASTER,5553813
1094869,5142806,-90.88333,42.8,WISCONSIN,BEETOWN,5553802
1094869,5142805,-91.1,43.65,WISCONSIN,CHASEBURG,5554621
1094869,5142804,-91.0,44.13333,WISCONSIN,MELROSE,5554642
1094869,5142803,-91.23333000000001,43.88333,WISCONSIN,ONALASKA,5554650
1094869,5142802,-90.48333000000001,42.73333,WISCONSIN,PLATTEVILLE,5553818
1094869,5142801,-90.71667,42.85,WISCONSIN,LANCASTER,5553813
1094869,5142800,-91.21667,43.58333,WISCONSIN,GENOA,5554632
1094864,5142719,-90.9,42.71667,WISCONSIN,CASSVILLE,5553806
1094864,5142718,-90.65,42.91667,WISCONSIN,FENNIMORE,5553825
1094864,5142717,-91.43333,44.0,WISCONSIN,TREMPEALEAU,5554661
1094864,5142716,-90.61667,42.78333,WISCONSIN,ELLENBORO,5553813
1168749,5393635,-91.55,46.06667,WISCONSIN,HAYWARD,5554843
1094864,5142715,-90.71667,42.85,WISCONSIN,LANCASTER,5553813
1094864,5142714,-90.71667,42.85,WISCONSIN,LANCASTER,5553813
1094864,5142713,-90.71667,42.85,WISCONSIN,LANCASTER,5553813
1094864,5142712,-90.71667,42.85,WISCONSIN,LANCASTER,5553813
1094864,5142711,-90.96667,42.93333,WISCONSIN,PATCH GROVE,5553804
1094864,5142710,-91.13333,42.93333,WISCONSIN,WYALUSING,5553801
1094864,5142709,-90.43333,42.6,WISCONSIN,CUBA CITY,5553807
1094864,5142708,-90.48333000000001,42.73333,WISCONSIN,PLATTEVILLE,5553818
1094864,5142707,-90.88333,42.8,WISCONSIN,BEETOWN,5553802
1094864,5142706,-91.06667,42.83333,WISCONSIN,GLENHAVEN,5553810
1094861,5143606,-89.8,44.08333,WISCONSIN,BIG FLATS,5553934
1094861,5143605,-89.81667,43.96667,WISCONSIN,FRIENDSHIP,5553910
1094869,5142808,-90.61667,42.98333,WISCONSIN,FENNIMORE,5553809
1094869,5142809,-91.25,43.8,WISCONSIN,LA CROSSE,5554601
1094874,5142820,-90.76666999999999,43.4,WISCONSIN,SOLDIERS GROVE,5554655
1094874,5142821,-90.93333,43.31667,WISCONSIN,MT STERLING,5554631
1168749,5393742,-92.1,46.71667,WISCONSIN,SUPERIOR,5554880
1168749,5393741,-90.56667,46.1,WISCONSIN,GLIDDEN,5554514
1168749,5393740,-90.56667,46.13333,WISCONSIN,GLIDDEN,5554527
1168749,5393739,-91.43333,46.01667,WISCONSIN,HAYWARD,5554843
1168749,5393738,-91.05,46.16667,WISCONSIN,NAMEKAGON,5554821
1168749,5393737,-91.35,46.01667,WISCONSIN,HAYWARD,5554843
1168749,5393736,-92.6,45.68333,WISCONSIN,TRADE LAKE,5554840
1168749,5393735,-92.18333,45.81667,WISCONSIN,HERTEL,5554893
1168749,5393734,-92.53333,45.76667,WISCONSIN,FALUN,5554840
1168749,5393733,-92.6,45.68333,WISCONSIN,TRADE LAKE,5554840
1168749,5393733,-92.53333,45.68333,WISCONSIN,TRADE LAKE,5554837
1168749,5393732,-92.75,45.65,WISCONSIN,TRADE RIVER,5554840
1168938,5394161,-91.06667,43.35,WISCONSIN,FERRYVILLE,5554628
1168749,5393732,-92.71667,45.65,WISCONSIN,TRADE RIVER,5554840
1168749,5393643,-92.36667,45.95,WISCONSIN,DANBURY,5554830
1168749,5393642,-91.26666999999999,46.01667,WISCONSIN,HAYWARD,5554843
1168749,5393641,-90.45,45.93333,WISCONSIN,PARK FALLS,5554552
1168749,5393640,-91.35,46.01667,WISCONSIN,HAYWARD,5554843
1168749,5393639,-91.38333,45.88333,WISCONSIN,RESERVE,5554843
1168749,5393638,-91.9,45.83333,WISCONSIN,SPOONER,5554801
1168749,5393637,-91.98333000000001,45.75,WISCONSIN,SHELL LAKE,5554871
1168749,5393636,-91.9,45.83333,WISCONSIN,SPOONER,5554801
1094879,5142441,-90.73333000000001,43.33333,WISCONSIN,ROLLING GROUND,5554655
1094877,5142914,-91.21667,43.45,WISCONSIN,VICTORY,5554624
1094877,5142913,-90.71667,42.68333,WISCONSIN,POTOSI,5553820
1094875,5142822,-90.2,43.51667,WISCONSIN,CAZENOVIA,5553924
1168749,5393731,-92.35,46.0,WISCONSIN,DANBURY,5554830
1094861,5143604,-90.08333,43.98333,WISCONSIN,NECEDAH,5554646
1168938,5394162,-91.06667,43.35,WISCONSIN,FERRYVILLE,5554628
1168938,5394164,-91.1,43.31667,WISCONSIN,FERRYVILLE,
1169449,5395863,-91.11667,44.68333,WISCONSIN,AUGUSTA,5554722
1169449,5395862,-92.15,44.43333,WISCONSIN,PEPIN,5554759
1169449,5395798,-91.96667,44.63333,WISCONSIN,DURAND,5554736
1169449,5395794,-92.53333,44.68333,WISCONSIN,ELLSWORTH,5554011
1169449,5395794,-92.46667,44.73333,WISCONSIN,ELLSWORTH,5554011
1169449,5395793,-92.46667,44.58333,WISCONSIN,ELLSWORTH,5554723
1169449,5395792,-91.76666999999999,45.21667,WISCONSIN,DALLAS,5554728
1169449,5395791,-92.36667,44.73333,WISCONSIN,ELLSWORTH,5554011
1169449,5395786,-92.63333,45.35,WISCONSIN,DRESSER,5554009
1169448,5395785,-92.48333000000001,45.56667,WISCONSIN,LUCK,5554853
64300,385059,-88.01,45.26,WISCONSIN,CRIVITZ,5554114
64300,385060,-88.07,44.56,WISCONSIN,CORMIER,5554303
64300,385061,-88.0993,44.5094,WISCONSIN,ASHWAUBENON,5554304
64300,385062,-87.98,44.51,WISCONSIN,PREBLE,5554302
64300,385064,-87.90899999999999,44.4906,WISCONSIN,PREBLE,5554311
64300,385066,-88.02,44.47,WISCONSIN,ALLOUEZ,5554301
64300,386090,-87.94,44.4,WISCONSIN,KOLB,5554115
64300,386091,-88.0787,44.4295,WISCONSIN,DE PERE,5554115
64300,386092,-87.94,44.34,WISCONSIN,SHIRLEY,5554115
64300,386093,-87.8309,43.9496,WISCONSIN,SPRING VLY,5553063
64370,386099,-88.8482,43.0421,WISCONSIN,LAKE MILLS,5553549
64370,386100,-88.9,43.08,WISCONSIN,LAKE MILLS,5553551
64370,386101,-88.88600000000001,43.0698,WISCONSIN,LAKE MILLS,5553551
64370,386102,-88.72,43.2,WISCONSIN,WATERTOWN,5553098
64370,386103,-88.77,43.08,WISCONSIN,JOHNSON CREEK,5553038
1169449,5395864,-91.8,45.13333,WISCONSIN,RIDGELAND,5554772
64370,386104,-88.6709,43.08,WISCONSIN,JOHNSON CREEK,5553094
1191278,5456534,-87.86667,43.38333,WISCONSIN,PORT WASHINGTON,5553074
1191273,5456444,-89.4,43.4,WISCONSIN,POYNETTE,5553955
1191269,5457445,-88.16667,43.28333,WISCONSIN,JACKSON,5553037
1191270,5456428,-87.96667,43.0,WISCONSIN,HONEY CREEK,5553219
1191270,5457446,-90.38333,42.56667,WISCONSIN,DELAVAN,5553803
1191270,5457446,-90.21667,42.68333,WISCONSIN,DELAVAN,5553530
1191270,5457447,-90.15,42.96667,WISCONSIN,WATERFORD,5553533
1191270,5457448,-89.86667,42.7,WISCONSIN,WEST ALLIS,5553504
1191270,5457454,-90.06667,43.18333,WISCONSIN,LAKE MILLS,5553588
1191270,5457455,-89.73333000000001,43.46667,WISCONSIN,JANESVILLE,5553913
1191270,5457455,-90.11667,43.41667,WISCONSIN,JANESVILLE,5553937
1191270,5457456,-89.51666999999999,43.31667,WISCONSIN,KENOSHA,5553555
1191272,5456431,-90.11667,43.58333,WISCONSIN,LA VALLE,5553941
1191272,5456432,-87.9,42.95,WISCONSIN,(MKE)MITCHELL APT MI,5553207
1191272,5456433,-87.85,42.91667,WISCONSIN,SOUTH MILWAUKEE,5553172
1191272,5456434,-87.88333,42.96667,WISCONSIN,(MKE)MITCHELL APT MI,5553235
1191272,5456435,-87.85,42.93333,WISCONSIN,CUDAHY,5553110
5849,34237,-92.1,46.72,WISCONSIN,SUPERIOR,5554880
5849,34238,-91.58,46.55,WISCONSIN,BRULE,5554820
5849,34239,-90.99,46.61,WISCONSIN,ASHLAND JCT,5554806
5849,34240,-90.87,46.58,WISCONSIN,ASHLAND,5554806
5849,34241,-90.23,46.43,WISCONSIN,MONTREAL,5554550
5849,34242,-90.45,45.96,WISCONSIN,LYMANTOWN,5554552
5849,37447,-91.98,46.6,WISCONSIN,SOUTH RANGE,5554874
1191273,5456436,-90.03333,43.43333,WISCONSIN,LOGANVILLE,5553943
1191273,5456440,-89.45,43.06667,WISCONSIN,MADISON,5553705
1191273,5456441,-89.48333000000001,42.93333,WISCONSIN,FITCHBURG,5553575
1191275,5456453,-90.15,43.46667,WISCONSIN,LIMERIDGE,5553941
64370,386105,-88.58,43.0924,WISCONSIN,SULLIVAN,5553066
64370,386106,-88.63,43.25,WISCONSIN,LEBANON,5553098
64370,386107,-88.1,43.23,WISCONSIN,GERMANTOWN,5553022
1095060,5144920,-88.11667,44.01667,WISCONSIN,STOCKBRIDGE,5553014
1095060,5144919,-88.75,44.03333,WISCONSIN,OMRO,5554963
1095060,5144919,-88.55,44.01667,WISCONSIN,OMRO,5554902
1095060,5144918,-89.1,44.03333,WISCONSIN,COLOMA,5554970
1095060,5144918,-89.53333,44.03333,WISCONSIN,COLOMA,5554930
1095057,5144915,-88.45,44.18333,WISCONSIN,NEENAH,5554956
1095057,5144914,-88.73333000000001,44.2,WISCONSIN,WINCHESTER,5554947
1095056,5144573,-89.41667,45.58333,WISCONSIN,RHINELANDER,5554501
1168946,5393986,-91.15,43.11667,WISCONSIN,PRAIRIE DU CHIEN,5553821
1168946,5393985,-90.23333000000001,43.65,WISCONSIN,WONEWOC,5553968
1168946,5393984,-90.36667,43.65,WISCONSIN,HILLSBORO,5554634
38558,223762,-92.44,44.97,WISCONSIN,HAMMOND,5554015
1168946,5393983,-90.78333,43.48333,WISCONSIN,VIROQUA,5554652
1168946,5393982,-90.9,43.48333,WISCONSIN,LIBERTY POLE,5554665
1168946,5393981,-91.08333,43.45,WISCONSIN,RETREAT,5554624
1168946,5393980,-91.2,43.41667,WISCONSIN,DE SOTO,
1168943,5394439,-91.66667,44.35,WISCONSIN,NELSON,5554622
1168943,5393975,-90.83333,45.16667,WISCONSIN,MONTANA,5554433
1168943,5393973,-91.41667,44.35,WISCONSIN,LOYAL,5554747
1168943,5393972,-90.73333000000001,44.61667,WISCONSIN,INDEPENDENCE,5554456
1168943,5393971,-92.0,44.41667,WISCONSIN,WILLARD,5554756
1168941,5394427,-91.4,44.43333,WISCONSIN,ELK CREEK,5554747
1168941,5394169,-90.81667,43.93333,WISCONSIN,SPARTA,5554656
1168940,5394168,-90.43333,42.53333,WISCONSIN,HAZEL GREEN,5553811
1168940,5394167,-90.43333,42.53333,WISCONSIN,HAZEL GREEN,5553811
1095060,5144920,-88.3,44.06667,WISCONSIN,STOCKBRIDGE,5553088
1095060,5144921,-88.01666999999999,44.03333,WISCONSIN,ST NAZIANZ,5553014
1095060,5144922,-87.66667,44.06667,WISCONSIN,ST NAZIANZ,5554220
1095060,5144922,-87.98333000000001,44.0,WISCONSIN,ST NAZIANZ,5553042
64370,386108,-88.2903,43.24,WISCONSIN,HOLY HILL,5553033
64370,386109,-88.3958,43.1814,WISCONSIN,OCONOMOWOC,5553029
64370,386110,-88.508,43.0995,WISCONSIN,OCONOMOWOC,5553066
64370,386111,-88.508,43.0995,WISCONSIN,OCONOMOWOC,5553066
64370,386112,-88.7,43.4,WISCONSIN,JUNEAU,5553039
64370,386113,-88.836,42.9402,WISCONSIN,FT ATKINSON,5553538
64370,386114,-89.78,43.47,WISCONSIN,WEST BARABOO,5553913
64373,386118,-89.28,43.53,WISCONSIN,PARDEEVILLE,5553954
64373,386119,-89.28,43.5445,WISCONSIN,PARDEEVILLE,5553954
64373,386120,-89.07,42.83,WISCONSIN,EDGERTON,5553534
64373,386121,-89.0256,42.6759,WISCONSIN,DOWNTOWN JANESVILLE,5553548
64379,385545,-89.57,43.8668,WISCONSIN,OXFORD,5553952
1168938,5394163,-90.96667,43.26667,WISCONSIN,SENECA,5554654
64380,386125,-90.0,43.53,WISCONSIN,REEDSBURG,5553959
64380,386127,-89.58,43.65,WISCONSIN,BRIGGSVILLE,5553901
64380,386128,-89.32,43.7711,WISCONSIN,MONTELLO,5553949
64380,386129,-89.5,43.1434,WISCONSIN,MIDDLETON,5553597
64380,386130,-89.14,43.75,WISCONSIN,MARQUETTE,5553946
64380,386131,-89.3,42.78,WISCONSIN,EVANSVILLE,5553536
64380,386132,-89.22,42.9272,WISCONSIN,STOUGHTON,5553589
64380,386133,-87.98,43.28,WISCONSIN,CEDARBURG,5553012
64380,386134,-88.42,43.178999999999995,WISCONSIN,STONEBANK,5553066
64380,386142,-89.1973,42.9601,WISCONSIN,STOUGHTON,5553589
1095061,5145411,-88.38333,45.0,WISCONSIN,SURING,5554174
1095061,5144923,-88.4,44.28333,WISCONSIN,APPLETON,5554911
1095061,5144923,-88.4,44.26667,WISCONSIN,APPLETON,5554911
64380,386126,-89.77,43.63,WISCONSIN,WISCONSIN DELLS,5553965
1094861,5143603,-90.08333,44.03333,WISCONSIN,NECEDAH,5554646
1094861,5143602,-90.2,43.88333,WISCONSIN,NEW LISBON,5553950
1094860,5143601,-90.35,43.46667,WISCONSIN,HUB CITY,5553581
66918,401562,-88.9,45.56,WISCONSIN,CRANDON,5554520
66940,401661,-88.43,45.81,WISCONSIN,FENCE,5554121
66997,401991,-89.71,45.79,WISCONSIN,HAZELHURST,5554531
66997,401992,-89.19,45.66,WISCONSIN,STARKS,5554501
67012,402093,-88.38,44.23,WISCONSIN,DARBOY,5554915
67012,402094,-88.37,44.24,WISCONSIN,DARBOY,5554915
67012,402097,-88.38,44.23,WISCONSIN,DARBOY,5554915
67012,402104,-88.4,44.23,WISCONSIN,DARBOY,5554915
67012,402110,-88.3232,44.2131,WISCONSIN,HIGH CLIFF JCT,5554952
67047,402189,-88.22,44.6,WISCONSIN,KUNESH,5554162
67050,402194,-87.56,44.15,WISCONSIN,TWO RIVERS,5554241
67050,402196,-87.56,44.15,WISCONSIN,TWO RIVERS,5554241
67053,402235,-89.2041,44.9429,WISCONSIN,BIRNAMWOOD,5554414
67060,402270,-88.0,45.75,WISCONSIN,NIAGARA,5554151
67060,402271,-88.75,44.54,WISCONSIN,CLINTONVILLE,5554922
67060,402272,-88.14,44.71,WISCONSIN,CHASE,5554171
67060,402274,-88.12,44.54,WISCONSIN,CORMIER,5554155
67060,402275,-87.99,44.71,WISCONSIN,LITTLE SUAMICO,5554141
67060,402276,-88.0,44.51,WISCONSIN,GREEN BAY,5554301
67060,402279,-88.06,44.56,WISCONSIN,CORMIER,5554303
67060,402280,-88.05,44.62,WISCONSIN,SUAMICO,5554313
67060,402282,-87.91,44.43,WISCONSIN,BELLEVUE,5554311
67060,402284,-87.69,44.41,WISCONSIN,STANGELVILLE,5554217
67060,402285,-88.16,44.33,WISCONSIN,WRIGHTSTOWN,5554180
67060,402286,-87.98,44.29,WISCONSIN,MORRISON,5554126
66918,401548,-88.9,45.56,WISCONSIN,CRANDON,5554520
67060,402287,-88.09,44.31,WISCONSIN,GREENLEAF,5554126
66885,401522,-88.55,44.01,WISCONSIN,OSHKOSH,5554902
1192447,5459375,-91.91667,44.31667,WISCONSIN,ALMA,
66717,408974,-90.9272,42.9162,WISCONSIN,PATCH GROVE,5553804
66754,400490,-90.3692,44.7133,WISCONSIN,VEEFKIND,5554479
66799,400778,-92.13,46.01,WISCONSIN,WEBB LAKE,5554830
1192434,5459972,-90.83333,45.16667,WISCONSIN,GILMAN,5554433
1192434,5459973,-90.53333,44.73333,WISCONSIN,LOYAL,5554446
1192434,5459973,-90.41667,45.0,WISCONSIN,LOYAL,5554425
1192434,5459974,-90.4,45.16667,WISCONSIN,MEDFORD,5554451
66885,401249,-88.7356,44.6302,WISCONSIN,CLINTONVILLE,5554929
66885,401249,-88.75,44.61,WISCONSIN,CLINTONVILLE,5554929
66885,401251,-88.75,44.41,WISCONSIN,NEW LONDON,5554961
1192437,5460051,-91.7,44.3,WISCONSIN,WAUMANDEE,5554612
1192437,5460052,-91.25,44.15,WISCONSIN,ETTRICK,5554627
1192438,5460053,-91.05,44.53333,WISCONSIN,PRICE,5554758
1192438,5460054,-91.1,44.46667,WISCONSIN,NORTHFIELD,5554635
1192438,5460055,-90.83333,44.45,WISCONSIN,MERRILLAN,5554754
1192438,5460057,-90.6,44.61667,WISCONSIN,NEILLSVILLE,5554456
1192438,5460058,-91.21667,44.43333,WISCONSIN,PIGEON FALLS,5554773
1192438,5460059,-91.31667,44.36667,WISCONSIN,WHITEHALL,5554773
1192438,5460061,-90.26666999999999,43.65,WISCONSIN,WONEWOC,5553968
66885,401252,-88.75,44.38,WISCONSIN,NEW LONDON,5554961
66885,401253,-88.75,44.38,WISCONSIN,NEW LONDON,5554961
66885,401254,-88.63,44.33,WISCONSIN,HORTONVILLE,5554944
1192442,5459363,-89.81667,44.11667,WISCONSIN,ONALASKA,5554613
1192444,5459369,-90.8,45.21667,WISCONSIN,GILMAN,5554433
1192444,5459370,-90.48333000000001,45.28333,WISCONSIN,CHELSEA,5554451
66885,401256,-88.38,44.23,WISCONSIN,DARBOY,5554915
67060,402288,-87.19,45.14,WISCONSIN,EPHRAIM FSH CRK ARPT,5554212
67060,402289,-87.23,45.13,WISCONSIN,FISH CREEK,5554212
67060,402291,-87.8,44.26,WISCONSIN,MARIBEL,5554227
68388,410426,-89.57,44.9,WISCONSIN,KELLY,5554476
68388,412048,-89.5482,44.8919,WISCONSIN,KELLY,5554476
68711,412046,-87.62,45.1,WISCONSIN,MARINETTE,5554143
68711,412047,-90.13,44.45,WISCONSIN,PITTSVILLE,5554466
68851,413019,-90.5983,44.8861,WISCONSIN,LONGWOOD,5554460
68851,413020,-90.5576,44.9801,WISCONSIN,OWEN,5554460
68874,414553,-90.33,42.73,WISCONSIN,BELMONT,5553510
68971,413852,-90.16,44.59,WISCONSIN,MARSHFIELD MUNI ARPT,5554449
69022,414159,-88.5,42.6145,WISCONSIN,COMO,5553147
69022,414160,-88.05,42.93,WISCONSIN,HALES CORNERS,5553132
69022,414161,-87.9227,42.9901,WISCONSIN,(MKE)MITCHELL APT MI,5553215
69022,414162,-88.0,42.9572,WISCONSIN,GREENFIELD,5553220
1167500,5389751,-90.66667,44.61667,WISCONSIN,NEILLSVILLE,5554456
1167500,5389750,-90.58333,43.3,WISCONSIN,BOAZ,5553518
1167500,5389747,-90.45,43.18333,WISCONSIN,MUSCODA,5553573
1167500,5389746,-90.08333,43.8,WISCONSIN,MAUSTON,5553948
1167500,5389745,-90.4,43.75,WISCONSIN,GLENDALE,5553929
1167500,5389744,-90.63333,44.95,WISCONSIN,WITHEE,5554498
1167500,5389464,-90.26666999999999,43.75,WISCONSIN,ELROY,5553929
1167500,5389463,-90.78333,43.75,WISCONSIN,CASHTON,5554619
1167500,5389462,-91.25,43.8,WISCONSIN,LA CROSSE,5554601
1167500,5389461,-91.18333,43.75,WISCONSIN,LA CROSSE,5554658
69126,414691,-90.45,45.93,WISCONSIN,PARK FALLS,5554552
1167473,5389839,-88.73333000000001,42.83333,WISCONSIN,WHITEWATER,5553190
1167473,5389838,-89.05,43.16667,WISCONSIN,MARSHALL,5553559
68388,410425,-89.59,44.9,WISCONSIN,SCHOFIELD,5554476
68388,410424,-89.41,45.7,WISCONSIN,ROOSEVELT,5554501
68134,408822,-89.82,44.53,WISCONSIN,JUNCTION CITY,5554443
67980,407783,-88.19200000000001,43.0393,WISCONSIN,BROOKFIELD,5553186
67060,402293,-87.28,45.04,WISCONSIN,EGG HARBOR,5554209
67060,402294,-87.28,45.04,WISCONSIN,EGG HARBOR,5554209
67146,408844,-90.13,44.45,WISCONSIN,PITTSVILLE,5554466
67146,408845,-88.75,44.38,WISCONSIN,NEW LONDON,5554961
67146,408846,-88.86,44.26,WISCONSIN,FREMONT,5554940
67146,408847,-88.86,44.26,WISCONSIN,FREMONT,5554940
67146,408848,-88.55,44.01,WISCONSIN,OSHKOSH,5554902
67474,404642,-89.3,42.78,WISCONSIN,EVANSVILLE,5553536
67474,404643,-89.25,42.6879,WISCONSIN,ORFORDVILLE,5553520
67482,405845,-88.4217,43.7595,WISCONSIN,FOND DU LAC,5554935
67482,405846,-89.2,43.18,WISCONSIN,SUN PRAIRIE,5553590
67482,405847,-89.214,43.1902,WISCONSIN,SUN PRAIRIE,5553590
66717,408963,-90.7826,42.8558,WISCONSIN,FIVE PTS,5553813
67482,405848,-89.0079,43.1393,WISCONSIN,MARSHALL,5553594
67482,405852,-87.8,42.748999999999995,WISCONSIN,DOWNTOWN RACINE,5553402
67556,405017,-91.4696,44.0184,WISCONSIN,TREMPEALEAU,5554661
67556,405018,-91.2827,43.9886,WISCONSIN,NEW AMSTERDAM,5554636
67556,405022,-91.2964,44.0228,WISCONSIN,COUNCIL BAY,5554636
67556,405645,-90.82,43.92,WISCONSIN,SPARTA,5554656
67851,406994,-90.87,46.58,WISCONSIN,ASHLAND,5554806
67851,406995,-90.68,46.6,WISCONSIN,ODANAH,5554806
67851,406996,-90.68,46.6,WISCONSIN,ODANAH,5554806
67852,406998,-91.41,46.13,WISCONSIN,SEELEY,5554843
67852,406999,-91.48,46.08,WISCONSIN,PHIPPS,5554843
67852,407000,-92.05,46.72,WISCONSIN,SUPERIOR,5554880
67979,407773,-88.22,43.52,WISCONSIN,KEWASKUM,5553040
67482,405851,-88.3605,42.93,WISCONSIN,NORTH PRAIRIE,5553149
66717,408924,-91.14,43.04,WISCONSIN,PRAIRIE DU CHIEN,5553821
66717,408923,-90.4164,43.3736,WISCONSIN,RICHLAND CENTER,5553581
66717,408920,-91.0464,42.9524,WISCONSIN,BRODTVILLE,5553801
1168540,5394865,-89.48333000000001,46.03333,WISCONSIN,BOULDER JCT,5554521
1168540,5394864,-89.65,45.91667,WISCONSIN,ARBOR VITAE,5554568
1168540,5394863,-89.9,46.21667,WISCONSIN,WINCHESTER,5554557
1168540,5394862,-89.53333,46.0,WISCONSIN,ARBOR VITAE,5554560
1168540,5394862,-89.65,45.91667,WISCONSIN,ARBOR VITAE,5554568
1168540,5394861,-89.88333,45.96667,WISCONSIN,LAC DU FLAMBEAU,5554538
1168539,5394860,-90.18333,45.1,WISCONSIN,ATHENS,5554451
1125339,5275073,-88.25,45.91667,WISCONSIN,FLORENCE,5554121
66255,397395,-91.12,45.22,WISCONSIN,HOLCOMBE,5554745
66255,397396,-91.65,45.26,WISCONSIN,CHETEK,5554728
66255,397397,-91.65,45.32,WISCONSIN,CHETEK,5554728
66255,397398,-91.53,45.5,WISCONSIN,WEYERHAEUSER,5554895
66255,397399,-91.65,45.32,WISCONSIN,CHETEK,5554728
66255,397400,-91.65,45.32,WISCONSIN,CHETEK,5554728
66255,397401,-91.62,45.3,WISCONSIN,CHETEK,5554728
66255,397402,-91.35,44.73,WISCONSIN,BRACKETT,5554742
6008,35166,-88.57,44.76,WISCONSIN,SHAWANO,5554166
66255,397403,-91.27,44.72,WISCONSIN,FALL CREEK,5554742
6016,35182,-89.82,44.38,WISCONSIN,WISCONSIN RAPIDS,5554494
6016,35189,-89.85,44.33,WISCONSIN,PORT EDWARDS,5554494
6016,35189,-89.82,44.38,WISCONSIN,WISCONSIN RAPIDS,5554494
6016,35195,-89.53,44.45,WISCONSIN,PLOVER,5554467
6016,35198,-89.57,44.52,WISCONSIN,STEVENS PT,5554481
6016,35200,-88.77,45.17,WISCONSIN,WHITE LAKE,5554491
6016,35204,-88.8325,45.18,WISCONSIN,LANGLADE,5554491
1168540,5394865,-89.63333,46.11667,WISCONSIN,BOULDER JCT,5554512
1168540,5394866,-89.25,46.05,WISCONSIN,CONOVER,5554519
1168540,5394870,-88.28333,45.9,WISCONSIN,FLORENCE,5554121
1168541,5394871,-89.9,46.25,WISCONSIN,WINCHESTER,5554557
1094860,5143600,-90.66667,43.5,WISCONSIN,VIOLA,5554664
1094860,5143599,-91.2,43.41667,WISCONSIN,DE SOTO,
1094858,5143594,-91.01666999999999,43.16667,WISCONSIN,EASTMAN,5554626
1094858,5143593,-90.98333000000001,43.16667,WISCONSIN,EASTMAN,5553826
1094855,5143242,-90.43333,42.53333,WISCONSIN,HAZEL GREEN,5553811
1094855,5143241,-90.6,42.63333,WISCONSIN,DICKEYVILLE,5553807
38290,222463,-88.8,43.33,WISCONSIN,LOWELL,5553557
38290,222460,-88.83,43.3,WISCONSIN,REESEVILLE,5553579
38290,222455,-90.23,42.57,WISCONSIN,SHULLSBURG,5553586
38281,222425,-88.95,43.858999999999995,WISCONSIN,GREEN LAKE,5554941
38281,222419,-89.14200000000001,43.775,WISCONSIN,PRINCETON,5553949
38281,222419,-89.2455,43.7267,WISCONSIN,DALTON,5553946
6016,35208,-88.73,45.18,WISCONSIN,LANGLADE,5554491
38281,222418,-89.2455,43.7267,WISCONSIN,GLENOAK,5553946
38281,222411,-89.2277,43.7687,WISCONSIN,MONTELLO,5553949
38281,222411,-89.176,43.7956,WISCONSIN,GERMANIA,5553949
38281,222407,-89.2277,43.7687,WISCONSIN,KINGSTON,5553949
38281,222407,-89.2454,43.7592,WISCONSIN,KINGSTON,5553949
38281,222406,-89.2454,43.7592,WISCONSIN,GLENOAK,5553949
38281,222406,-89.3048,43.7274,WISCONSIN,GLENOAK,5553949
38281,222395,-88.89,43.9482,WISCONSIN,BERLIN,5554923
38281,222395,-88.9129,43.9245,WISCONSIN,BERLIN,5554923
38220,222051,-90.84,44.45,WISCONSIN,MERRILLAN,5554754
38220,222050,-91.22,43.89,WISCONSIN,ONALASKA,5554650
38220,222048,-91.2761,43.9654,WISCONSIN,HOLMEN,5554636
38220,222046,-91.2645,43.8578,WISCONSIN,WEST LA CROSSE,5554603
38281,222418,-89.2801,43.7107,WISCONSIN,GLENOAK,5553926
38688,224420,-88.95,42.77,WISCONSIN,MILTON,5553563
6016,35210,-88.78,44.85,WISCONSIN,GRESHAM,5554128
6016,35213,-89.0077,44.1166,WISCONSIN,POY SIPPI,5554965
1192194,5460210,-90.48333000000001,45.95,WISCONSIN,PARK FALLS,5554552
1192194,5460211,-90.45,45.93333,WISCONSIN,PARK FALLS,5554552
1192194,5460283,-90.45,45.93333,WISCONSIN,PARK FALLS,5554552
1192194,5460284,-90.45,45.93333,WISCONSIN,PARK FALLS,5554552
1192196,5460286,-92.08333,45.81667,WISCONSIN,HERTEL,5554801
1192196,5460287,-91.9,45.83333,WISCONSIN,SPOONER,5554801
1192196,5460288,-90.45,45.93333,WISCONSIN,PARK FALLS,5554552
1192196,5460289,-92.4,45.93333,WISCONSIN,YELLOW LAKE,5554830
1192199,5460293,-90.3,45.45,WISCONSIN,OGEMA,5554459
66537,398982,-89.16,45.79,WISCONSIN,THREE LAKES,5554562
66537,398984,-89.88,45.96,WISCONSIN,LAC DU FLAMBEAU,5554538
66537,398985,-89.66,45.92,WISCONSIN,ARBOR VITAE,5554568
6124,35672,-87.7695,43.7858,WISCONSIN,SHEBOYGAN,5553083
6126,35685,-88.38,43.3055,WISCONSIN,HARTFORD,5553027
1192208,5459106,-92.5,45.78333,WISCONSIN,SIREN,5554872
1192208,5459107,-92.18333,45.81667,WISCONSIN,HERTEL,5554893
1192210,5459183,-91.48333000000001,46.01667,WISCONSIN,HAYWARD,5554843
66717,400292,-90.995,42.9089,WISCONSIN,PATCH GROVE,5553801
66717,400292,-90.9839,42.9025,WISCONSIN,PATCH GROVE,5553801
66717,408911,-91.2181,43.5302,WISCONSIN,GENOA,5554632
66717,408912,-91.22,43.48,WISCONSIN,VICTORY,
66717,408913,-91.2326,43.8347,WISCONSIN,WEST LA CROSSE,5554603
66717,408915,-91.1388,43.7696,WISCONSIN,HERRINGTON,5554601
66717,408916,-91.14,43.04,WISCONSIN,PRAIRIE DU CHIEN,5553821
66717,408917,-91.1438,43.4723,WISCONSIN,RED MOUND,5554624
1192194,5460209,-90.5,46.01667,WISCONSIN,BUTTERNUT,5554514
1192194,5460207,-90.51666999999999,45.88333,WISCONSIN,FIFIELD,5554552
1192194,5460206,-90.33333,45.93333,WISCONSIN,PARK FALLS,5554552
1168293,5392274,-91.3,44.93333,WISCONSIN,CHIPPEWA FALLS,5554729
6016,35215,-88.87,44.17,WISCONSIN,LAKE POYGAN,5554940
6016,35219,-88.52,44.25,WISCONSIN,(ATW)APPLETON ARPT,5554914
6016,35244,-89.478,44.778,WISCONSIN,PEPLIN,5554440
6016,35244,-89.352,44.833,WISCONSIN,PIKE LAKE,5554440
6016,35247,-89.8741,44.37,WISCONSIN,WISC RPDS SOUTH CO A,5554495
6016,35248,-88.98100000000001,45.016999999999996,WISCONSIN,MATTOON,
6016,35248,-88.99700000000001,45.00899999999999,WISCONSIN,MATTOON,5554409
6016,35257,-88.766,45.117,WISCONSIN,ZOAR SETTLEMENT,
6016,35257,-88.98100000000001,45.016999999999996,WISCONSIN,ZOAR SETTLEMENT,
6016,35262,-88.639,45.176,WISCONSIN,MARKTON,5554491
6016,35262,-88.766,45.117,WISCONSIN,WHITE LAKE,
6016,35264,-88.309,45.328,WISCONSIN,LAKEWOOD CTRY CLUB A,5554138
6016,35211,-88.0709,45.4096,WISCONSIN,ATHELSTANE,5554177
6016,35264,-88.639,45.176,WISCONSIN,MOUNTAIN,5554491
6016,35265,-87.932,45.465,WISCONSIN,CEDARVILLE,5554102
6016,35268,-87.89200000000001,45.099,WISCONSIN,HARMONY,5554157
6016,35268,-87.823,45.117,WISCONSIN,HARMONY,5554157
1168293,5392351,-92.16667,45.06667,WISCONSIN,GLENWOOD CITY,5554013
1168293,5392350,-91.96667,44.63333,WISCONSIN,DURAND,5554736
1168293,5392349,-92.13333,45.06667,WISCONSIN,DOWNING,5554734
1168293,5392347,-91.76666999999999,45.6,WISCONSIN,HAUGEN,5554868
1168293,5392279,-92.11667,44.53333,WISCONSIN,DURAND,5554759
1168293,5392278,-92.55,44.85,WISCONSIN,RIVER FALLS,5554022
1168293,5392277,-92.63333,44.85,WISCONSIN,RIVER FALLS,5554022
1168293,5392276,-91.73333000000001,45.5,WISCONSIN,RICE LAKE,5554868
1168293,5392275,-92.53333,44.6,WISCONSIN,HAGER CITY,5554014
1216280,5523992,-87.5,44.43333,WISCONSIN,KEWAUNEE,5554216
1216280,5523992,-87.5,44.45,WISCONSIN,KEWAUNEE,5554216
1099680,5176195,-87.53333,44.58333,WISCONSIN,RIO CREEK,5554201
1216280,5523993,-89.0,44.13333,WISCONSIN,POY SIPPI,5554967
52693,315417,-89.3102,43.13,WISCONSIN,(MSN)TRUAX FLD MADIS,5553704
52693,315417,-89.2903,43.13,WISCONSIN,(MSN)TRUAX FLD MADIS,5553718
52693,315419,-89.2008,43.02,WISCONSIN,MC FARLAND,5553527
52693,315420,-89.2199,43.18,WISCONSIN,SUN PRAIRIE,5553590
52693,315424,-88.9549,43.1101,WISCONSIN,LONDON,5553594
52693,315425,-88.9413,42.9577,WISCONSIN,FT ATKINSON,5553538
52693,315426,-88.8792,43.0,WISCONSIN,JEFFERSON,5553538
52693,315427,-88.8,43.0145,WISCONSIN,JEFFERSON,5553549
52693,315428,-88.77,43.08,WISCONSIN,JOHNSON CREEK,5553038
52693,315429,-88.2561,42.6198,WISCONSIN,BOHNERS LAKE,5553105
52693,315516,-89.5244,42.9841,WISCONSIN,VERONA,5553593
52693,315517,-89.42,43.0411,WISCONSIN,DOWNTOWN MADISON,5553713
52693,315519,-89.42,43.07,WISCONSIN,DOWNTOWN MADISON,5553726
52693,315415,-89.3606,43.07,WISCONSIN,DOWNTOWN MADISON,
52693,315520,-89.5168,43.1123,WISCONSIN,MIDDLETON,5553562
52693,315522,-88.35,43.0855,WISCONSIN,HARTLAND,5553029
52693,315523,-88.35,43.1,WISCONSIN,HARTLAND,5553029
52693,315526,-89.63,42.5899,WISCONSIN,MONROE,5553566
52693,315532,-89.3079,43.0481,WISCONSIN,MONONA,5553716
52693,315533,-89.2252,43.0616,WISCONSIN,COTTAGE GROVE,5553527
52693,315534,-89.2,43.08,WISCONSIN,COTTAGE GROVE,5553527
1118469,5255897,-90.18333,42.85,WISCONSIN,MINERAL PT,5553565
1118469,5255898,-89.0,43.35,WISCONSIN,DANVILLE,5553925
1118470,5256130,-89.76666999999999,43.63333,WISCONSIN,WISCONSIN DELLS,5553965
1118472,5256153,-88.83333,43.4,WISCONSIN,BARABOO,5553916
1118472,5256153,-88.7,43.4,WISCONSIN,BARABOO,5553039
1118472,5256155,-88.16667,43.31667,WISCONSIN,BARABOO,5553037
1118472,5256155,-88.28333,43.31667,WISCONSIN,BARABOO,5553086
52693,315521,-88.35,43.1,WISCONSIN,HARTLAND,5553029
1118472,5256158,-87.96667,43.0,WISCONSIN,PORTAGE,5553219
52693,315413,-89.28,43.02,WISCONSIN,MC FARLAND,5553558
52693,315410,-89.33,43.13,WISCONSIN,(MSN)TRUAX FLD MADIS,5553704
1178287,5417543,-89.78333,43.58333,WISCONSIN,LAKE DELTON,5553913
1178287,5417541,-89.75,43.46667,WISCONSIN,BARABOO,5553913
1178287,5417540,-89.96667,43.51667,WISCONSIN,REEDSBURG,5553959
1178287,5417539,-90.0,43.53333,WISCONSIN,REEDSBURG,5553959
1178287,5417538,-90.13333,43.6,WISCONSIN,LA VALLE,5553941
1178286,5417537,-89.73333000000001,43.46667,WISCONSIN,BARABOO,5553913
1178286,5417537,-89.66667,43.41667,WISCONSIN,BARABOO,5553561
1178142,5418161,-89.91667,44.01667,WISCONSIN,ARKDALE,5554613
1178142,5418160,-90.1,44.03333,WISCONSIN,NECEDAH,5554646
1178142,5418159,-90.45,43.43333,WISCONSIN,GILLINGHAM,5553581
45284,263897,-88.5042,43.7598,WISCONSIN,FOND DU LAC  AIRPORT,5554937
45284,263894,-88.8898,43.47,WISCONSIN,BEAVER DAM,5553916
45284,263879,-87.9023,42.7559,WISCONSIN,FRANKSVILLE,5553406
52693,315412,-89.2903,43.13,WISCONSIN,(MSN)TRUAX FLD MADIS,5553718
45284,263879,-88.0745,42.67,WISCONSIN,UNION GROVE,5553182
45284,263850,-88.0884,42.6625,WISCONSIN,BRIGHTON,5553139
45284,263688,-88.4797,42.5346,WISCONSIN,ZENDA,5553147
45284,263688,-88.5695,42.4951,WISCONSIN,WALWORTH,5553184
45284,263687,-89.63,43.12,WISCONSIN,CROSS PLAINS,5553528
45281,262701,-87.82600000000001,42.7285,WISCONSIN,DOWNTOWN RACINE,5553405
45281,262701,-87.8952,42.669,WISCONSIN,STURTEVANT,5553177
45281,262699,-87.8996,42.6638,WISCONSIN,SOMERS,5553144
45281,262699,-87.8952,42.669,WISCONSIN,SOMERS,5553177
52509,326179,-92.07,45.48,WISCONSIN,COMSTOCK,5554826
52509,333594,-92.2175,45.5276,WISCONSIN,RANGE,5554826
52509,333594,-92.2041,45.5193,WISCONSIN,TURTLE LAKE,5554826
45051,261036,-88.66,45.44,WISCONSIN,WABENO,5554566
52693,315409,-89.4002,43.07,WISCONSIN,DOWNTOWN MADISON,5553715
45284,263850,-88.0745,42.67,WISCONSIN,PARIS,5553182
1178287,5417545,-89.01666999999999,43.33333,WISCONSIN,RIO,5553925
1118472,5256563,-89.78333,43.58333,WISCONSIN,BEAVER DAM,5553913
1118472,5256566,-90.0,43.53333,WISCONSIN,STONEBANK,5553959
1114555,5242808,-89.65,45.9,WISCONSIN,MINOCQUA,5554568
52729,316289,-88.95,42.77,WISCONSIN,MILTON,5553563
52729,316292,-88.0904,43.32,WISCONSIN,JACKSON,5553012
52729,316293,-88.73,42.7142,WISCONSIN,WHITEWATER,5553115
52729,316294,-88.73,42.72,WISCONSIN,RICHMOND,5553115
52729,316294,-88.62,42.73,WISCONSIN,MILLARD,5553121
52729,316295,-88.5385,42.843999999999994,WISCONSIN,EAGLE,5553119
52729,316295,-88.4072,42.9332,WISCONSIN,NORTH PRAIRIE,5553153
52729,316296,-87.98,43.4743,WISCONSIN,WAUBEKA,5553021
52729,316733,-89.1851,43.6582,WISCONSIN,DALTON,5553926
1220024,5532424,-91.56667,44.68333,WISCONSIN,EAU CLAIRE,5554755
1220024,5532423,-91.66667,44.63333,WISCONSIN,DURAND,5554755
1220024,5532422,-91.68333,44.71667,WISCONSIN,ROCK FALLS,5554755
1114555,5242808,-89.7,45.86667,WISCONSIN,MINOCQUA,5554548
1220024,5532421,-92.01666999999999,44.7,WISCONSIN,EAU GALLE,5554737
1220024,5532419,-92.3,44.81667,WISCONSIN,SPRING VALLEY,5554767
1220024,5532418,-92.55,44.98333,WISCONSIN,ROBERTS,5554023
1220024,5532415,-91.96667,44.63333,WISCONSIN,DURAND,5554736
1220024,5532414,-91.81667,44.71667,WISCONSIN,MENOMONIE,5554755
1220024,5532413,-91.93333,44.76667,WISCONSIN,DOWNSVILLE,5554751
1220024,5532412,-92.15,44.78333,WISCONSIN,ELMWOOD,5554740
1220024,5532411,-92.15,44.73333,WISCONSIN,ELMWOOD,5554740
1220024,5532345,-92.56667,45.03333,WISCONSIN,ROBERTS,5554023
1220024,5532344,-92.56667,44.96667,WISCONSIN,ROBERTS,5554023
1220024,5532343,-92.76666999999999,44.96667,WISCONSIN,HUDSON,
52729,316733,-89.18,43.662,WISCONSIN,DALTON,5553926
52729,316734,-88.9926,43.7153,WISCONSIN,MARKESAN,5553946
52729,316734,-88.9105,43.729,WISCONSIN,MARKESAN,5553946
1220024,5532421,-92.1,44.76667,WISCONSIN,EAU GALLE,5554740
1118472,5256563,-89.73333000000001,43.46667,WISCONSIN,BEAVER DAM,5553913
1114556,5242811,-90.16667,44.66667,WISCONSIN,MARSHFIELD,5554449
1114556,5242814,-90.16667,44.66667,WISCONSIN,MARSHFIELD,5554449
1118472,5256566,-89.73333000000001,43.46667,WISCONSIN,STONEBANK,5553913
1118472,5256568,-89.33333,43.46667,WISCONSIN,WEST ALLIS,5553954
1118474,5256572,-88.98333000000001,43.18333,WISCONSIN,WATERLOO,5553594
1118475,5255226,-88.51666999999999,43.75,WISCONSIN,HARTFORD,5554937
1118475,5255230,-87.83333,43.56667,WISCONSIN,FOX LAKE,5553013
1118475,5255230,-88.01666999999999,43.83333,WISCONSIN,FOX LAKE,5553020
1118475,5255671,-89.45,43.18333,WISCONSIN,RUBICON,5553597
1118475,5256578,-88.25,42.53333,WISCONSIN,MARQUETTE,5553181
1118475,5256578,-88.05,42.55,WISCONSIN,MARQUETTE,5553104
52693,315535,-89.42,43.07,WISCONSIN,DOWNTOWN MADISON,5553726
52694,315550,-88.83,43.83,WISCONSIN,RIPON,5554971
52729,316247,-89.48,43.88,WISCONSIN,WESTFIELD,5553964
52729,316250,-89.4599,43.88,WISCONSIN,WESTFIELD,5553964
1114556,5242813,-90.3,44.91667,WISCONSIN,COLBY,5554421
52729,316252,-89.48,43.8655,WISCONSIN,WESTFIELD,5553964
52729,316255,-89.12,43.9687,WISCONSIN,PRINCETON,5554923
52729,316261,-89.12,43.9658,WISCONSIN,PRINCETON,5554923
52729,316265,-89.2903,43.13,WISCONSIN,(MSN)TRUAX FLD MADIS,5553718
52729,316268,-89.2397,43.18,WISCONSIN,SUN PRAIRIE,5553590
52729,316268,-89.0675,43.2933,WISCONSIN,YORK CENTER,5553925
52729,316270,-88.94200000000001,43.0493,WISCONSIN,LAKE MILLS,5553551
52729,316270,-88.88600000000001,43.0902,WISCONSIN,LAKE MILLS,5553551
52729,316273,-88.72,43.3345,WISCONSIN,CLYMAN,5553039
52729,316274,-88.72,43.2,WISCONSIN,WATERTOWN,5553098
52729,316274,-88.7481,43.1795,WISCONSIN,WATERTOWN,5553094
1114557,5242818,-88.55,44.18333,WISCONSIN,NEENAH,5554956
1114556,5242817,-89.81667,44.38333,WISCONSIN,WISCONSIN RAPIDS,5554494
1114556,5242816,-89.28333,44.06667,WISCONSIN,WAUTOMA,5554982
52729,316253,-89.3608,43.97,WISCONSIN,NESHKORO,5554982
52729,316735,-88.55,42.9682,WISCONSIN,OAK HILL,5553118
1178287,5417545,-89.23333000000001,43.45,WISCONSIN,RIO,5553960
1118383,5255424,-90.51666999999999,45.88333,WISCONSIN,FIFIELD,5554552
1115214,5246789,-91.81667,45.9,WISCONSIN,TREGO,5554888
1115213,5246788,-91.8,46.25,WISCONSIN,GORDON,5554838
1115212,5246700,-91.81667,46.35,WISCONSIN,SOLON SPRINGS,5554873
1115211,5246699,-91.98333000000001,46.6,WISCONSIN,SOUTH RANGE,5554874
1115209,5246697,-92.75,45.8,WISCONSIN,GRANTSBURG,5554840
1115209,5246697,-92.73333000000001,45.8,WISCONSIN,GRANTSBURG,5554840
1115208,5246696,-92.36667,45.96667,WISCONSIN,DANBURY,5554830
52100,310565,-89.57,44.9,WISCONSIN,KELLY,5554476
52100,310567,-89.61,44.88,WISCONSIN,SCHOFIELD,5554474
52100,310568,-89.59,44.9,WISCONSIN,SCHOFIELD,5554476
52100,310569,-89.61,44.88,WISCONSIN,SCHOFIELD,5554474
52100,310570,-88.53,44.29,WISCONSIN,GREENVILLE,5554942
52100,310572,-88.4,44.2845,WISCONSIN,APPLETON,5554911
1115215,5246790,-91.41667,46.01667,WISCONSIN,HAYWARD,5554843
52100,310574,-88.45,45.66,WISCONSIN,ARMSTRONG CREEK,5554103
52122,310706,-90.48,42.74,WISCONSIN,PLATTEVILLE,5553818
1178403,5418833,-92.36667,45.31667,WISCONSIN,AMERY,5554001
1178403,5418832,-91.88333,45.5,WISCONSIN,RICE LAKE,5554829
1178403,5418831,-92.0,45.53333,WISCONSIN,CUMBERLAND,5554829
1178403,5418830,-92.01666999999999,45.53333,WISCONSIN,CUMBERLAND,5554829
1178403,5418829,-91.36667,45.08333,WISCONSIN,EAGLETON,5554724
1178403,5418827,-91.91667,45.05,WISCONSIN,WHEELER,5554772
1178403,5418824,-92.23333000000001,44.85,WISCONSIN,SPRING VALLEY,5554767
52160,310928,-90.16,44.66,WISCONSIN,MARSHFIELD,5554449
52160,310932,-89.31,44.01,WISCONSIN,WAUTOMA ARPT,5554982
52160,310949,-89.09,44.03,WISCONSIN,REDGRANITE,5554970
52160,310951,-89.28,44.45,WISCONSIN,AMHERST,5554406
52160,310961,-89.03,44.11,WISCONSIN,POY SIPPI,5554965
52122,310705,-90.67,42.7,WISCONSIN,ROCKVILLE,5553820
52160,310962,-88.9,44.09,WISCONSIN,BORTH,5554923
1115216,5246791,-91.68333,45.95,WISCONSIN,SPRING BROOK,5554875
3523,19255,-91.92,44.33,WISCONSIN,ALMA,5554610
1115380,5247120,-91.05,44.16667,WISCONSIN,FRANKLIN,5554642
1115380,5247119,-91.26666999999999,44.16667,WISCONSIN,ETTRICK,5554627
1178469,5419450,-88.61667,45.91667,WISCONSIN,MARSHFIELD,5554542
1178465,5419356,-89.28333,44.45,WISCONSIN,AMHERST,5554406
1178465,5419355,-89.7,44.78333,WISCONSIN,MOSINEE,5554455
52044,310077,-88.48,45.18,WISCONSIN,MOUNTAIN,5554149
52046,310088,-89.41,45.63,WISCONSIN,RHINELANDER,5554501
52046,310089,-89.26,45.64,WISCONSIN,MALVERN,5554501
52046,310090,-88.0194,45.1092,WISCONSIN,POUND,5554161
52046,310091,-88.03,45.06,WISCONSIN,COLEMAN,5554112
52046,310092,-87.35,44.95,WISCONSIN,CARLSVILLE,5554235
52046,310093,-87.97,44.83,WISCONSIN,BROOKSIDE,5554153
52046,310094,-88.1455,44.8753,WISCONSIN,OCONTO FALLS ARPT,5554154
3523,19256,-91.36,44.08,WISCONSIN,GALESVILLE,5554630
52046,310101,-89.3,45.78,WISCONSIN,SUGAR CAMP,5554501
1118302,5256352,-88.9,44.61667,WISCONSIN,CLINTONVILLE,5554950
1118302,5256356,-87.8,43.98333,WISCONSIN,NEWTON,5553063
1118303,5256360,-89.53333,46.0,WISCONSIN,SAYNER,5554560
1118303,5256362,-89.65,45.03333,WISCONSIN,BROKAW,5554403
1118303,5256363,-89.25,45.98333,WISCONSIN,EAGLE RIVER,5554519
1118303,5256372,-87.83333,44.53333,WISCONSIN,NEW FRANKLEN,5554229
1118303,5256373,-87.7,44.55,WISCONSIN,LUXEMBURG,5554217
1118304,5256376,-89.81667,46.01667,WISCONSIN,LAC DU FLAMBEAU,5554538
1118304,5256377,-89.73333000000001,46.25,WISCONSIN,PRESQUE ISLE,5554557
1118304,5256455,-89.63333,46.11667,WISCONSIN,BOULDER JCT,5554512
1115218,5246793,-91.33333,45.78333,WISCONSIN,STONE LAKE,5554828
1115217,5246792,-91.4,46.01667,WISCONSIN,HAYWARD,5554843
3521,19254,-90.7488,42.98,WISCONSIN,FENNIMORE,5553809
52046,310111,-88.1455,44.8753,WISCONSIN,OCONTO FALLS ARPT,5554154
1118384,5255425,-90.4,45.7,WISCONSIN,PHILLIPS,5554555
52160,310964,-89.28,44.45,WISCONSIN,AMHERST,5554406
3640,20130,-90.6809,42.6919,WISCONSIN,POTOSI,5553820
52160,311045,-89.43,44.45,WISCONSIN,ARNOTT,5554482
52160,311046,-89.15,44.53,WISCONSIN,IOLA,5554945
52160,311047,-89.53,44.45,WISCONSIN,PLOVER,5554467
52160,313784,-89.7247,44.2948,WISCONSIN,KELLNER,5554494
52160,313784,-89.9702,44.2491,WISCONSIN,CRANMOOR,5554457
52160,313786,-89.3659,44.3971,WISCONSIN,ARNOTT,5554406
52160,313786,-89.7247,44.2948,WISCONSIN,KELLNER,5554494
52160,313957,-89.06,44.34,WISCONSIN,WAUPACA,5554981
52160,315612,-88.4716,44.2707,WISCONSIN,GREENVILLE,5554913
1118362,5255341,-91.85,45.9,WISCONSIN,TREGO,5554888
1118363,5255342,-90.81667,46.41667,WISCONSIN,MARENGO,5554855
1118364,5255343,-91.55,45.85,WISCONSIN,STONE LAKE,5554876
1118365,5255344,-90.65,46.31667,WISCONSIN,MELLEN,5554546
52160,311044,-89.71,44.34,WISCONSIN,KELLNER,5554494
1118366,5255345,-92.36667,45.88333,WISCONSIN,WEBSTER,5554893
1118368,5255409,-92.8,45.7,WISCONSIN,GRANTSBURG,5554840
1118369,5255410,-92.36667,45.86667,WISCONSIN,WEBSTER,5554893
1118371,5255412,-92.1,45.88333,WISCONSIN,WEBSTER,5554893
1118372,5255413,-92.36667,45.93333,WISCONSIN,WEBSTER,5554893
1118373,5255414,-92.26666999999999,45.88333,WISCONSIN,WEBSTER,5554893
1118375,5255416,-92.13333,45.78333,WISCONSIN,SIREN,5554871
1118376,5255417,-91.98333000000001,45.83333,WISCONSIN,SPOONER,5554801
1118377,5255418,-91.9,45.83333,WISCONSIN,SPOONER,5554801
1118378,5255419,-90.11667,45.56667,WISCONSIN,BRANTWOOD,5554513
1118379,5255420,-91.81667,46.35,WISCONSIN,SOLON SPRINGS,5554873
1118380,5255421,-91.53333,45.85,WISCONSIN,STONE LAKE,5554876
1118381,5255422,-91.81667,45.9,WISCONSIN,TREGO,5554888
1118382,5255423,-90.45,45.66667,WISCONSIN,PARK FALLS,5554555
1118367,5255408,-91.81667,45.9,WISCONSIN,TREGO,5554888
3640,20120,-91.06,43.16,WISCONSIN,EASTMAN,5554626
52160,311042,-89.53,44.45,WISCONSIN,PLOVER,5554467
52160,311039,-89.84,44.37,WISCONSIN,ALEXANDER SOUTHWD AR,5554494
52160,310966,-89.0,44.12,WISCONSIN,POY SIPPI,5554965
52160,310976,-89.21,44.37,WISCONSIN,SHERIDAN,5554981
52160,310980,-88.682,44.2076,WISCONSIN,WINCHESTER,5554947
52160,310994,-89.13,44.46,WISCONSIN,SCANDINAVIA,5554977
52160,311001,-88.86,44.16,WISCONSIN,LAKE POYGAN,
52160,311003,-88.68,44.27,WISCONSIN,DALE,5554940
52160,311008,-88.64,44.2,WISCONSIN,WINCHESTER,5554947
52160,311009,-88.55,44.29,WISCONSIN,GREENVILLE,5554942
52160,311010,-88.68,44.26,WISCONSIN,DALE,5554940
52160,311011,-88.72,44.36,WISCONSIN,NEW LONDON,5554961
52160,311012,-88.73,44.38,WISCONSIN,NEW LONDON,5554961
52160,311013,-88.44,44.46,WISCONSIN,BLACK CREEK,5554106
52160,311014,-88.55,44.01,WISCONSIN,OSHKOSH,5554902
52160,311040,-89.77,44.37,WISCONSIN,ALEXANDER SOUTHWD AR,5554494
52160,311018,-88.4589,44.2837,WISCONSIN,APPLETON,5554914
52160,311020,-88.4593,44.2837,WISCONSIN,APPLETON,5554914
52160,311021,-88.06,44.56,WISCONSIN,CORMIER,5554303
52160,311022,-88.4,44.26,WISCONSIN,APPLETON,5554911
52160,311023,-88.4,44.26,WISCONSIN,APPLETON,5554911
52160,311028,-88.32,44.21,WISCONSIN,HIGH CLIFF JCT,5554952
52160,311029,-88.4,44.25,WISCONSIN,APPLETON,5554915
52160,311030,-88.29,44.18,WISCONSIN,HIGH CLIFF,5554169
52160,311031,-88.26,44.26,WISCONSIN,KAUKAUNA,5554130
52160,311032,-88.16,44.33,WISCONSIN,WRIGHTSTOWN,5554180
52160,311033,-87.75,44.65,WISCONSIN,DYCKESVILLE,5554217
52160,311034,-88.05,44.45,WISCONSIN,ALLOUEZ,5554115
52160,311036,-90.13,44.29,WISCONSIN,BABCOCK,5554413
52160,311037,-89.88,44.31,WISCONSIN,NEKOOSA,5554457
52160,311019,-88.44,44.2,WISCONSIN,MENASHA,5554952
52729,316736,-90.0,43.5011,WISCONSIN,REEDSBURG,5553959
45043,260986,-90.1106,44.3069,WISCONSIN,BABCOCK,5554495
45043,260985,-90.16,44.66,WISCONSIN,MARSHFIELD,5554449
4040,22601,-88.98,42.9,WISCONSIN,BUSSEYVILLE,5553538
4040,22602,-88.72,43.2622,WISCONSIN,CLYMAN,5553098
4040,22603,-88.5578,43.3193,WISCONSIN,HUSTISFORD,5553059
4040,22604,-88.28399999999999,43.0698,WISCONSIN,PEWAUKEE,5553072
4040,22605,-88.0697,43.1266,WISCONSIN,MENOMONEE FALLS,5553051
4040,22606,-88.48,43.1923,WISCONSIN,OCONOMOWOC,5553066
4040,22606,-88.4998,43.12,WISCONSIN,OCONOMOWOC,5553066
4040,22609,-87.9776,43.1834,WISCONSIN,BROWN DEER,5553223
4040,22611,-87.97,43.17,WISCONSIN,BROWN DEER,5553223
4040,22614,-87.9782,43.1578,WISCONSIN,TIMMERMAN ARPT,5553223
4040,22618,-87.8852,43.3533,WISCONSIN,PORT WASHINGTON,5553024
4040,22619,-88.0221,43.3107,WISCONSIN,CEDARBURG,5553012
4040,22620,-88.0863,42.6911,WISCONSIN,UNION GROVE,5553182
4040,22600,-88.8,42.9855,WISCONSIN,JEFFERSON,5553549
4040,22623,-88.0083,42.7107,WISCONSIN,UNION GROVE,5553182
4040,22626,-87.9393,42.7,WISCONSIN,STURTEVANT,5553177
4040,22629,-87.8751,42.6601,WISCONSIN,DOWNTOWN KENOSHA,5553144
4040,22632,-87.8499,42.6868,WISCONSIN,SOMERS,5553406
4040,23778,-89.73,43.2772,WISCONSIN,SAUK CITY,5553583
4040,23778,-89.6048,43.3967,WISCONSIN,MERRIMAC,5553561
4045,22640,-89.32,43.0599,WISCONSIN,MONONA,5553716
4045,22641,-89.2,43.1945,WISCONSIN,SUN PRAIRIE,5553590
4045,22642,-89.53,42.98,WISCONSIN,VERONA,5553593
4045,23779,-88.35,43.1,WISCONSIN,HARTLAND,5553029
4045,23780,-88.33,42.87,WISCONSIN,MUKWONAGO,5553149
53599,321136,-89.28,44.06,WISCONSIN,WAUTOMA,5554982
53599,321146,-89.28,44.05,WISCONSIN,WAUTOMA ARPT,5554982
1119144,5256704,-90.85,44.93333,WISCONSIN,THORP,5554771
4040,22625,-88.0107,42.68,WISCONSIN,UNION GROVE,5553182
44797,262601,-88.22,42.73,WISCONSIN,ROCHESTER,5553105
4040,22600,-88.786,43.0102,WISCONSIN,JEFFERSON,5553549
4040,22598,-89.1094,42.83,WISCONSIN,EDGERTON,5553534
1220005,5531834,-90.13333,43.58333,WISCONSIN,LA VALLE,5553941
1220005,5531834,-90.2,43.58333,WISCONSIN,LA VALLE,5553941
1220005,5531833,-90.03333,43.43333,WISCONSIN,LOGANVILLE,5553943
1220005,5531832,-89.93333,43.3,WISCONSIN,LELAND,5553577
1220004,5532248,-87.88333,43.1,WISCONSIN,SHOREWOOD,5553211
1220002,5532166,-88.1,43.36667,WISCONSIN,JACKSON,5553095
1220002,5532166,-88.16667,43.31667,WISCONSIN,JACKSON,5553037
53346,319108,-90.385,45.551,WISCONSIN,PRENTICE,5554555
53346,319110,-90.333,45.608000000000004,WISCONSIN,WORCESTER,5554555
53346,319110,-90.316,45.619,WISCONSIN,WORCESTER,5554555
53346,319111,-90.256,45.675,WISCONSIN,DOVER,5554555
53346,319111,-90.221,45.693999999999996,WISCONSIN,DOVER,5554555
53346,319114,-90.07600000000001,45.85,WISCONSIN,DOVER,5554552
4040,22599,-88.8988,43.0,WISCONSIN,JEFFERSON,5553538
53346,319114,-90.071,45.855,WISCONSIN,DOVER,5554552
53381,319411,-92.0454,45.83,WISCONSIN,SPOONER,5554801
53381,319412,-91.68,45.95,WISCONSIN,SPRING BROOK,5554875
53381,319414,-90.98100000000001,46.17100000000001,WISCONSIN,NAMEKAGON,5554517
4040,22572,-89.3437,43.4409,WISCONSIN,POYNETTE,5553960
4040,22572,-89.58,43.35,WISCONSIN,OKEE,5553555
4040,22576,-89.3498,42.8766,WISCONSIN,OREGON,5553521
4040,22576,-89.03,42.97,WISCONSIN,ROCKDALE,5553523
4040,22594,-89.389,42.7977,WISCONSIN,ATTICA,5553521
4040,22595,-89.07700000000001,42.8249,WISCONSIN,EDGERTON,5553534
4040,22595,-88.95,42.8278,WISCONSIN,MILTON,5553563
4040,22596,-89.3,42.82,WISCONSIN,UNION,5553536
4040,22597,-89.0421,42.8596,WISCONSIN,ALBION,5553534
4040,22598,-89.3,42.8089,WISCONSIN,EVANSVILLE,5553536
53381,319410,-92.2275,45.7916,WISCONSIN,HERTEL,5554893
1220005,5531835,-89.31667,43.85,WISCONSIN,MONTELLO,5553949
44797,262600,-88.6364,42.6389,WISCONSIN,DELAVAN LAKE,5553115
44797,262598,-89.03,42.5924,WISCONSIN,BELOIT,5553511
1113717,5241846,-91.48333000000001,44.81667,WISCONSIN,EAU CLAIRE,5554703
53769,322193,-91.1,46.86,WISCONSIN,CORNUCOPIA,5554827
53769,322194,-90.79,46.86,WISCONSIN,RED CLIFF,5554814
53769,322195,-91.01,45.82,WISCONSIN,WINTER,5554896
44594,258627,-91.19,46.01,WISCONSIN,LAKE CHIPPEWA,5554843
44364,257677,-87.76,45.11,WISCONSIN,HARMONY CORNERS,5554143
53908,322958,-90.1939,43.6625,WISCONSIN,WONEWOC 3 CASTLES AR,5553968
44329,262847,-90.32,44.35,WISCONSIN,CITY PT,5554466
1113374,5242363,-89.15,45.15,WISCONSIN,ANTIGO,5554409
44329,257527,-90.84,44.45,WISCONSIN,MERRILLAN,5554754
44329,257526,-90.5474,44.63399999999999,WISCONSIN,CHRISTIE,5554456
44329,257523,-91.6745,44.477,WISCONSIN,GILMANTON,5554755
53908,322958,-90.1413,43.6502,WISCONSIN,WONEWOC,5553968
1113717,5241847,-91.26666999999999,44.93333,WISCONSIN,CHIPPEWA FALLS,5554729
1113374,5242362,-89.05,45.91667,WISCONSIN,EAGLE RIVER,5554521
1113374,5242357,-89.73333000000001,45.46667,WISCONSIN,TOMAHAWK,5554487
1119567,5259344,-90.23333000000001,42.63333,WISCONSIN,SHULLSBURG,5553586
1119567,5259345,-88.36667,43.41667,WISCONSIN,ALLENTON,5553002
1119567,5259345,-88.33333,43.41667,WISCONSIN,ALLENTON,5553002
44235,256995,-90.07,46.17,WISCONSIN,MERCER,5554547
44235,256994,-90.07,46.17,WISCONSIN,MERCER,5554547
44235,256993,-90.58,45.53,WISCONSIN,KENNAN,5554537
44229,256973,-90.88,46.5221,WISCONSIN,ASHLAND,5554806
1176194,5413372,-91.91667,44.88333,WISCONSIN,MENOMONIE,5554751
44155,256601,-92.2,46.5776,WISCONSIN,OLIVER,5554880
1176194,5413371,-92.25,44.85,WISCONSIN,SPRING VALLEY,5554767
1176191,5414599,-91.68333,44.86667,WISCONSIN,ELK MOUND,5554739
1176191,5414598,-92.0,45.2,WISCONSIN,RIDGELAND,5554762
1113374,5242360,-89.35,45.68333,WISCONSIN,RHINELANDER,5554501
44797,262599,-88.7,42.6,WISCONSIN,DARIEN,5553114
53628,321306,-87.7809,44.1131,WISCONSIN,BRANCH,5554230
53607,321165,-88.25,45.93,WISCONSIN,FLORENCE,5554121
44797,262597,-89.03,42.62,WISCONSIN,(JVL)ROCK CO ARPT JA,5553546
44797,259722,-88.0089,42.8,WISCONSIN,CALEDONIA,5553126
44797,259721,-88.3849,42.8067,WISCONSIN,EAST TROY,5553120
44797,259718,-88.05,42.55,WISCONSIN,BRISTOL,5553104
44797,259717,-88.066,42.8598,WISCONSIN,FRANKLIN,5553132
44797,259716,-88.77,42.58,WISCONSIN,ALLEN GROVE,5553114
44797,259715,-89.4395,42.5688,WISCONSIN,BRODHEAD,5553550
44797,259715,-89.3546,42.5592,WISCONSIN,BRODHEAD,5553520
44797,259714,-89.00299999999999,42.5632,WISCONSIN,PRAIRIE AIRPORT,5553511
44797,259714,-89.01100000000001,42.562,WISCONSIN,PRAIRIE AIRPORT,5553511
53599,321148,-88.73,43.91,WISCONSIN,PICKETT,5554964
53599,321149,-89.63,44.96,WISCONSIN,WAUSAU,5554403
44776,259571,-89.3017,43.0755,WISCONSIN,MONONA,5553716
53628,321305,-87.5036,44.4575,WISCONSIN,KEWAUNEE,5554216
44776,259571,-89.6861,43.0791,WISCONSIN,CROSS PLAINS,5553528
44769,262592,-88.234,43.0302,WISCONSIN,DOWNTOWN WAUKESHA,5553188
44769,262591,-87.97,42.9866,WISCONSIN,DOWNTOWN MILWAUKEE,5553219
44769,262589,-88.55799999999999,43.1007,WISCONSIN,CONCORD,5553066
44769,259503,-87.97,42.9855,WISCONSIN,WEST ALLIS,5553219
44769,259502,-88.206,43.0098,WISCONSIN,DOWNTOWN WAUKESHA,5553186
44769,259502,-88.22,43.0055,WISCONSIN,DOWNTOWN WAUKESHA,5553186
44769,259499,-88.73,43.63,WISCONSIN,WAUPUN,5553963
44769,259497,-88.8159,43.4802,WISCONSIN,BEAVER DAM,5553916
44768,262588,-88.48,43.12,WISCONSIN,OCONOMOWOC,5553066
44768,262586,-88.494,43.1098,WISCONSIN,OCONOMOWOC,5553066
53599,321152,-89.7271,44.9529,WISCONSIN,WAUSAU,5554401
53599,321155,-89.28,44.07,WISCONSIN,WAUTOMA,5554982
53607,321164,-88.31,45.93,WISCONSIN,RIDGETOP,5554121
44769,262593,-89.32,43.7276,WISCONSIN,MONTELLO,5553949
1220005,5531836,-90.01666999999999,43.4,WISCONSIN,LOGANVILLE,5553943
1220005,5531837,-89.48333000000001,43.11667,WISCONSIN,MIDDLETON,5553562
1220005,5531838,-90.13333,43.58333,WISCONSIN,LA VALLE,5553941
1114351,5243051,-89.63333,43.81667,WISCONSIN,BROOKS,5553952
1114351,5243050,-90.78333,43.75,WISCONSIN,CASHTON,5554619
1114351,5243049,-90.98333000000001,43.78333,WISCONSIN,NEWBURG CORNERS,5554614
1114351,5243047,-91.03333,43.7,WISCONSIN,COON VLY,5554623
1114351,5243046,-91.16667,43.7,WISCONSIN,STODDARD,5554658
3992,22296,-90.8,44.17,WISCONSIN,SHAMROCK,5554615
3992,22297,-90.83,44.14,WISCONSIN,CATARACT,5554656
3992,22298,-90.82,43.74,WISCONSIN,CASHTON,5554619
3992,22299,-90.78,43.8,WISCONSIN,MELVINA,5554619
1114349,5243043,-91.31667,44.36667,WISCONSIN,WHITEHALL,5554773
1114349,5243042,-91.38333,44.35,WISCONSIN,INDEPENDENCE,5554773
1114349,5242958,-91.66667,44.35,WISCONSIN,MONTANA,5554622
1114349,5242957,-92.0,44.43333,WISCONSIN,NELSON,5554756
1114351,5243053,-91.0,42.71667,WISCONSIN,CASSVILLE,5553806
1177226,5416913,-88.51666999999999,45.3,WISCONSIN,LAKEWOOD,5554138
1177226,5416912,-88.4,44.3,WISCONSIN,APPLETON,5554913
1177226,5416911,-89.11667,44.5,WISCONSIN,IOLA,5554945
1177225,5416910,-89.81667,45.46667,WISCONSIN,TOMAHAWK,5554487
1177225,5416909,-89.85,45.46667,WISCONSIN,TOMAHAWK,5554487
1177225,5416908,-89.85,45.46667,WISCONSIN,TOMAHAWK,5554487
1177225,5416907,-89.66667,45.35,WISCONSIN,IRMA,5554442
1177225,5416906,-89.65,45.7,WISCONSIN,GOODNOW,5554529
1177225,5416905,-89.76666999999999,45.58333,WISCONSIN,HARSHAW,5554487
4013,22383,-89.82,44.38,WISCONSIN,WISCONSIN RAPIDS,5554494
4013,22384,-89.53,44.45,WISCONSIN,PLOVER,5554467
4013,22385,-89.53,44.45,WISCONSIN,PLOVER,5554467
4013,22386,-89.2335,44.5301,WISCONSIN,AMHERST,5554407
4013,22560,-88.77,45.17,WISCONSIN,WHITE LAKE,5554491
1177226,5416912,-88.4,44.26667,WISCONSIN,APPLETON,5554911
53171,318092,-92.62,44.86,WISCONSIN,RIVER FALLS,5554022
1114351,5243054,-90.71667,42.68333,WISCONSIN,POTOSI,5553820
1114353,5243061,-90.4,44.83333,WISCONSIN,RIPLINGER,5554479
45043,260984,-90.1317,44.4369,WISCONSIN,PITTSVILLE,5554466
45043,260983,-90.23,44.45,WISCONSIN,AMELIA,5554466
45043,260981,-87.6,44.62,WISCONSIN,EUREN,5554205
52811,315563,-89.0422,42.6205,WISCONSIN,AFTON,5553546
1177228,5417012,-89.25,44.75,WISCONSIN,ELDERON,5554499
1177226,5416929,-87.41667,44.68333,WISCONSIN,FORESTVILLE,5554201
1177226,5416928,-88.03333,45.06667,WISCONSIN,COLEMAN,5554112
1177226,5416927,-88.16667,44.33333,WISCONSIN,WRIGHTSTOWN,5554180
1177226,5416925,-89.51666999999999,44.31667,WISCONSIN,BANCROFT,5554921
1177226,5416923,-87.43333,44.61667,WISCONSIN,ALGOMA,5554201
1177226,5416923,-87.58333,44.61667,WISCONSIN,ALGOMA,5554201
1177226,5416922,-88.15,44.21667,WISCONSIN,FOREST JCT,5554123
1177226,5416922,-88.06667,44.18333,WISCONSIN,FOREST JCT,5554110
1114353,5243060,-90.3,44.91667,WISCONSIN,COLBY,5554421
1177226,5416921,-88.16667,44.03333,WISCONSIN,CHILTON,5553014
1177226,5416920,-88.55,43.96667,WISCONSIN,OSHKOSH,5554902
1177226,5416919,-88.05,44.95,WISCONSIN,LENA,5554139
1177226,5416917,-87.88333,44.1,WISCONSIN,CLARK MILLS,5554230
1177226,5416917,-87.83333,44.05,WISCONSIN,CLARK MILLS,5554245
1177226,5416916,-87.96667,44.15,WISCONSIN,REEDSVILLE,5554230
1177226,5416916,-87.81667,44.16667,WISCONSIN,REEDSVILLE,5554247
1114357,5243080,-91.75,44.33333,WISCONSIN,BLUFF,5554610
1114353,5243068,-89.7,44.11667,WISCONSIN,BIG FLATS,5554943
1114353,5243066,-90.8,45.16667,WISCONSIN,GILMAN,5554433
1114353,5243065,-90.8,45.16667,WISCONSIN,GILMAN,5554433
1114353,5243064,-90.56667,44.95,WISCONSIN,OWEN,5554460
1114353,5243063,-90.56667,44.95,WISCONSIN,OWEN,5554460
1114353,5243062,-90.53333,44.95,WISCONSIN,OWEN,5554460
1177226,5416920,-88.53333,44.0,WISCONSIN,OSHKOSH,5554902
53333,319054,-92.3691,45.816,WISCONSIN,BURNETT CO ARPT,5554872
53333,319055,-92.18,45.849,WISCONSIN,HERTEL,5554893
53333,319056,-92.3691,45.816,WISCONSIN,BURNETT CO ARPT,5554872
1220005,5531898,-89.73333000000001,43.46667,WISCONSIN,OKEE,5553913
1220005,5531897,-89.11667,42.51667,WISCONSIN,BARABOO,5553511
1220005,5531897,-89.21667,42.66667,WISCONSIN,BARABOO,5553537
1220005,5531896,-90.15,43.61667,WISCONSIN,FOOTVILLE,5553941
1220005,5531895,-88.83333,42.85,WISCONSIN,LA VALLE,5553190
1220005,5531894,-89.48333000000001,43.01667,WISCONSIN,MILTON,5553719
1220005,5531893,-89.5,43.1,WISCONSIN,MADISON,5553562
1220005,5531891,-89.71667,43.28333,WISCONSIN,CROSS PLAINS,5553578
1220005,5531890,-89.11667,42.75,WISCONSIN,PRAIRIE DU SAC,5553548
1220005,5531889,-88.95,43.05,WISCONSIN,JANESVILLE,5553551
